name,surname,sex,searching_sex,age,interests,latitude,longitude
George,Richmond,M,B,33,"Nature Photography, Hang gliding, Surfing",39.356,-84.9372
Tina,Delacruz,F,B,38,"Calligraphy, Knitting, Weightlifting",48.5771,-112.8733
Dana,Proctor,F,F,24,"Hunting, Football, Interior design, Singing",41.3118,-81.345
Matthew,Brown,M,B,25,"Landscaping, Astrophysics, Improv, Bowling, Web design",44.0407,-101.6645
Yolanda,Mooney,F,B,23,"Football, Escape rooms, Investment banking, Card games, Biking",33.1641,-87.3534
Richard,Ray,M,M,37,"Investment banking, Singing, Shuffleboard, Hang gliding, Pottery",39.6858,-75.5849
Wendy,Daugherty,F,F,20,"Darts, Singing",40.1073,-80.0214
Debra,Torres,F,F,37,"Video games, Baking, Swimming, Shuffleboard",27.5016,-82.6146
Hunter,Wilson,M,B,30,"Music production, Air hockey, Stand-up comedy, Jogging",39.9396,-74.2572
Ralph,Hall,M,B,34,"Mathematics, Dancing, Pool, Biking, Gymnastics",41.1162,-75.4588
Robert,Smith,M,M,36,"Baseball, Sculpting, Gymnastics, Mathematics, Bowling",40.6648,-78.7093
Dawn,Mack,F,B,20,"Food styling, Financial analysis, Photography",30.2007,-95.0956
Devin,Hunt,M,F,26,"Martial arts, Financial analysis, Food styling, Pinball, Stand-up comedy",30.665,-96.3807
Anthony,Ross,M,M,24,"Yachting, Darts, Gaming",39.1987,-77.7239
Erica,Garcia,F,B,29,"Surfing, Sketching, Hang gliding, Movies, Golf",42.4219,-123.3915
Cynthia,Oliver,F,F,28,"Hang gliding, Mountain biking, Data analysis, Filmmaking, Volleyball",42.8332,-93.0054
Justin,Brown,M,F,32,"DJing, Blacksmithing, Knitting",40.2891,-84.1667
Amber,Knight,F,M,25,"Cycling, Nature Photography, Diving, Skateboarding, Gymnastics",37.8282,-81.9652
Matthew,Nguyen,M,F,27,"Acting, Jujitsu",38.105,-78.9826
Gerald,West,M,M,34,"Letterboxing, Theater, Air hockey, American football, Filmmaking",44.9024,-85.0613
Rebecca,Marshall,F,B,39,"Sailing, Biking, Bouldering, Teaching, Karate",18.4029,-66.2492
Peter,Hanna,M,B,23,"Carpentry, Advertising, Art history",40.4852,-74.2831
Johnny,Kirby,M,M,25,"Hiking, Astrophysics",37.8284,-78.5959
Sandra,Warren,F,B,31,"Swimming, Fishing, Journalism, Teaching, Guitar",36.8667,-83.885
Hunter,White,M,M,26,"Equestrian, Escape rooms, Pottery, Video editing",39.6764,-99.4209
Erin,Williams,F,M,34,"Road cycling, Guitar, Bouldering, Physics, Orienteering",40.4524,-91.8841
Brandon,Johnson,M,F,21,"Video editing, Billiards, Fitness, Photography, Glassblowing",48.2972,-109.9918
Jose,Marquez,M,F,19,"Journalism, Travel, Board games, Snowboarding, Theatre",37.0942,-89.7747
Lisa,Wright,F,M,32,"Stock trading, Fitness, Woodworking",34.2276,-93.8753
Stephanie,Gonzalez,F,M,36,"Orienteering, Volleyball",32.3065,-95.4781
Terry,Harris,M,M,37,"Ice skating, Self defense, Shuffleboard, Orienteering",40.8188,-83.1312
Ashley,Medina,F,M,28,"Pinball, Skydiving, Blacksmithing, Cycling, Puzzle solving",44.4615,-89.5382
Larry,Woods,M,F,27,"Gymnastics, Video games, Interests, Theatre, Soccer",38.8896,-77.2056
Melanie,Gonzales,F,M,20,"Public relations, Food styling, Soccer",40.7874,-74.1273
Erin,Fisher,F,B,38,"Acting, Golf, Orienteering, Food styling, Poetry",42.6246,-90.5914
Paul,Cox,M,B,29,"Karate, Meditation",42.8967,-77.9476
Maria,Boyd,F,M,29,"Writing, Hang gliding",40.8222,-74.8502
Erika,Bruce,F,M,21,"Carpentry, Guitar, Judo",37.0593,-88.115
Danielle,Fuller,F,M,38,"Board games, Theater, Letterboxing",45.6131,-118.8
Carla,Lewis,F,B,35,"Writing, Reading",47.8204,-101.2911
Deanna,Smith,F,B,38,"Lacrosse, Kickboxing, Diving, Weightlifting, Sculpting",47.2799,-114.1658
Molly,Oneal,F,M,34,"Kickboxing, Stock trading, Wrestling, Reading",35.8152,-88.7901
William,Glenn,M,B,23,"Mobile app development, Self defense, Pottery, Tennis, Data analysis",41.3647,-97.9726
Glen,Johnson,M,F,24,"Astronomy, Sewing, Salsa, Painting",40.6497,-76.1485
Robin,Smith,F,B,21,"Reading, Fashion design, Running",35.8231,-101.4436
Daniel,Townsend,M,F,22,"Rock climbing, Ballroom dancing, Hiking, Judo",31.7769,-85.2955
Jordan,Diaz,M,B,39,"DJing, Meditation, Art, Bouldering, Swimming",39.2604,-80.3265
Robert,Jimenez,M,F,21,"Squash, Golf",43.6599,-88.007
Eileen,Ortega,F,B,28,"Pool, Wrestling, Woodworking",28.5767,-97.798
Haley,James,F,M,18,"Journalism, Public relations, Soccer",40.2902,-98.2596
Philip,Jordan,M,B,32,"Rappelling, Ethical hacking, Food criticism, Cybersecurity",32.1419,-97.3972
Lauren,Beck,F,B,19,"Fitness, Volleyball, Lacrosse, Knitting",39.1834,-88.6532
Donna,Krause,F,B,25,"Food criticism, Biking, Running, Kickboxing",35.6137,-95.0703
Timothy,Jordan,M,F,28,"Journalism, Bowling, Diving",34.5225,-110.0913
Ian,Stewart,M,B,33,"American football, Equestrian, Jogging",31.5599,-97.1882
Wendy,Burton,F,M,25,"Cybersecurity, Bowling",41.4395,-96.4873
James,Edwards,M,F,37,"Sewing, Photography, Kiteboarding, Field hockey",56.7566,-132.8727
David,Velazquez,M,B,31,"Water polo, Rugby, Rappelling, Card games",37.8121,-121.9698
Savannah,Lopez,F,B,22,"Woodworking, Pinball",37.7157,-88.1866
Thomas,Mccormick,M,F,24,"Watercolor, Cooking",28.4723,-81.3491
Gloria,Byrd,F,F,34,"American football, Billiards, Calligraphy, Video games",45.5688,-93.5899
Cynthia,Romero,F,F,36,"Investment banking, Letterboxing, Rock Climbing",35.6499,-99.9236
Mark,Aguilar,M,M,20,"Shuffleboard, Paragliding, Cybersecurity, Painting, Bar tending",30.9868,-87.121
Breanna,Armstrong,F,B,35,"Basketball, Wine tasting, Knitting, Rock climbing",41.2396,-74.4833
Andrea,Smith,F,M,28,"Card games, Calligraphy, Pinball",44.6706,-123.216
Natalie,Cook,F,M,35,"Guitar, Muay Thai, Skydiving, Ballroom dancing",40.1533,-74.8531
David,Grant,M,F,32,"Acting, Movies, Table tennis",37.6221,-81.1057
Mckenzie,Dickerson,F,M,28,"Blacksmithing, Theatre, Theater, Knitting",32.711,-117.0027
Kathy,Cummings,F,F,22,"Equestrian, Billiards, Calligraphy",40.767,-80.3148
Matthew,Jones,M,B,25,"Investment banking, Blacksmithing, Martial arts, Landscaping",36.3828,-87.6403
Steven,Sutton,M,F,38,"Nature, Wrestling, Cybersecurity",47.1003,-110.8448
Brenda,Jones,F,M,23,"Music production, Skydiving, Marathons",39.5606,-75.6514
Meredith,Jones,F,B,27,"Skydiving, Music production",44.7209,-91.6917
Craig,Gonzalez,M,B,18,"American football, Volleyball, Roller hockey, Triathlons, Gaming",37.9305,-89.5515
Julia,Allen,F,M,37,"Volleyball, Badminton, Boxing, Music, Web design",31.2848,-97.0607
Lawrence,Sampson,M,B,20,"Road cycling, Wrestling, Journalism",40.269,-83.2075
Rebecca,Johnson,F,B,34,"Bowling, Cybersecurity",39.4552,-94.3371
Julie,Watson,F,M,21,"Salsa, Letterboxing, Data analysis, Water polo, Soccer",41.9637,-87.8231
Louis,Valentine,M,M,23,"Fishing, Bouldering, Physics, Reading, Landscaping",44.9488,-93.3649
Walter,Bailey,M,B,25,"Cybersecurity, Art, Hunting, Wine tasting",40.3217,-97.2983
Anthony,Burns,M,B,36,"Windsurfing, Cycling, Baseball",41.5067,-95.4506
Henry,Hughes,M,M,38,"Skydiving, Soccer, Interests",42.4355,-83.489
Lori,Larsen,F,F,22,"Web design, Road cycling, Ceramics",34.0665,-102.5243
Suzanne,Moore,F,F,37,"Nature, Sculpting, Treasure hunting, Dancing",39.2194,-76.1971
Brian,Wilson,M,B,39,"Baking, Karate, Art history, Theatre, Rock climbing",36.1998,-93.047
Melissa,Woods,F,B,36,"Interior design, Darts, Watercolor",33.5942,-84.5629
Miranda,Moses,F,M,39,"Cooking, Basketball",41.8431,-94.2203
Gordon,Payne,M,M,34,"Running, Skateboarding",38.6176,-77.0077
Justin,Davis,M,M,34,"Escape rooms, Road cycling",33.682,-96.8487
Kenneth,Larsen,M,M,25,"Food styling, Drawing",30.1214,-97.8725
Charles,Bowman,M,F,19,"Art, Painting",40.2411,-94.6805
Margaret,Martin,F,B,36,"Public relations, Theatre, Knitting, Glassblowing",43.3012,-91.7839
Victoria,Morgan,F,F,31,"Calligraphy, Mathematics, Filmography, Surfing, Fashion design",39.9391,-94.8279
James,Alvarado,M,B,18,"Web design, Glassblowing, Advertising",43.4324,-96.7041
Scott,Morris,M,B,29,"Interior design, Drawing, Gardening",37.0972,-76.4243
Jeffery,Hernandez,M,M,33,"Bar tending, Acting, Road cycling",30.5729,-97.4268
John,Bennett,M,B,25,"Hunting, Music production, Kiteboarding",37.5378,-113.181
Samantha,Riley,F,B,28,"Field hockey, Biking, Improv, Interior design",39.0246,-84.4157
Amy,Griffin,F,B,38,"Video games, Sketching, Interests, Fishing, Cooking",40.1699,-75.6599
James,Steele,M,B,23,"Boating, Music",28.4559,-81.5122
Tara,Morales,F,F,28,"Darts, Air hockey, Jujitsu",41.058,-96.6459
Christine,Robinson,F,B,23,"Yoga, Gardening, Squash, Jujitsu, Escape rooms",29.6795,-83.3837
Erika,Farrell,F,M,29,"Improv, Ice skating, Biking, Equestrian, Karate",35.0186,-81.8041
Gina,Nelson,F,M,20,"Soccer, Football, Acting, Literature",41.0957,-74.0155
Justin,Hall,M,B,26,"Singing, Kayaking, Boxing, Wrestling",40.1096,-104.7549
Keith,Blackburn,M,B,39,"Nature Photography, Painting, Theater",29.9438,-89.966
Angela,White,F,F,37,"Teaching, Bowling, Ballroom dancing, Stock trading, Treasure hunting",39.8712,-106.3002
James,Wright,M,M,33,"Ethical hacking, Air hockey, Improv",39.0803,-76.9527
Stephanie,Hamilton,F,M,36,"Squash, Ballet, Tennis",39.0555,-84.0478
Amy,Brown,F,F,24,"Pottery, Squash, Bowling",42.659,-111.5878
Anita,Adams,F,M,36,"Lacrosse, Badminton, Guitar",45.3155,-99.9812
Patricia,Martinez,F,M,35,"Synchronized swimming, Knitting, Equestrian, Singing, Gymnastics",34.8729,-86.5722
Margaret,Carroll,F,B,33,"Web design, Synchronized swimming",33.7192,-82.2174
Kayla,Vargas,F,B,20,"Muay Thai, Snowboarding, Polo, Board games, ",27.5876,-81.9402
Carolyn,Williams,F,B,21,"Bowling, Running, Cybersecurity",40.6755,-89.006
Melissa,Lee,F,B,20,"Letterboxing, Ballet",60.4862,-151.0672
Pamela,Smith,F,M,30,"Rappelling, Mixology, Physics, Pottery, Choreography",36.0076,-118.1099
Gerald,Perez,M,B,26,"Swimming, Kickboxing, Card games",40.0035,-75.2501
Scott,Roberts,M,B,23,"Floristry, Sculpting, Judo",41.7564,-86.8181
Krystal,Hernandez,F,B,36,"Fishing, Wine tasting",36.7401,-107.9734
Mark,Zuniga,M,F,31,"Marathons, Art, Photography, Writing, Bouldering",45.1732,-121.0881
Ryan,Greene,M,F,22,"Fitness, Travel",47.4174,-120.2822
Brian,Moreno,M,F,23,"Art, Field hockey, Poetry",41.5945,-75.4813
Kim,Stewart,F,F,33,"Rock climbing, Bar tending, Treasure hunting, Self defense",41.3997,-92.3547
Angela,Torres,F,M,32,"Calligraphy, Drawing",46.6264,-99.1412
Brittany,Williams,F,B,31,"Weightlifting, Sailing, Painting, Fishing, Billiards",39.6646,-74.1711
Thomas,Santiago,M,B,20,"Sketching, Bowling, Nature, Yachting, Ballroom dancing",40.3348,-78.3958
Lisa,Lawrence,F,M,27,"Reading, Baseball, Drawing",34.8118,-118.9549
Teresa,Terry,F,B,27,"Data analysis, American football, Art history, Soccer, Tennis",28.3698,-81.3467
Richard,Castaneda,M,B,24,"Landscaping, Wine tasting, Diving",37.871,-122.5137
Madison,Maddox,F,M,21,"Ethical hacking, Carpentry, Windsurfing, Running, Woodworking",34.664,-120.117
Raymond,Key,M,B,38,"Sewing, Skydiving, Mobile app development",41.7839,-76.7898
Keith,Robinson,M,B,35,"Investment banking, Rappelling, Snowboarding",45.1912,-99.4659
Vicki,Mclean,F,F,36,"Puzzle solving, Teaching, Air hockey, DJing, Soccer",44.7721,-93.9192
Leslie,Gross,F,B,26,"Cycling, Baking, Mixology, Jazz",42.5819,-92.8835
Dawn,Fritz,F,F,38,"Choreography, Investment banking, Nature, Basketball",38.6155,-90.1304
Clinton,Evans,M,F,35,"Hang gliding, Watercolor",47.3343,-108.96
Monique,Thomas,F,B,27,"Yoga, Muay Thai",42.4571,-96.7353
Chad,Khan,M,F,24,"Data analysis, Gymnastics",38.531,-90.4087
Aaron,Calderon,M,M,28,"Running, Lacrosse",38.3049,-92.8244
Kimberly,Johnson,F,M,19,"Jogging, Floristry, Hunting, Investment banking",39.9103,-79.6628
Daniel,Stafford,M,F,35,"Web design, Hang gliding, Sculpting, Stand-up comedy, Road cycling",39.9871,-84.488
Erika,Martin,F,B,38,"Darts, Meditation, Self defense",39.7621,-92.6237
Tara,Wolfe,F,F,36,"Hunting, Equestrian, Travel, Basketball",40.3071,-105.0426
Marie,Allen,F,B,31,"Web design, Skiing, Card games",39.0171,-94.2084
Stacey,Fritz,F,B,39,"Boating, Salsa",41.4274,-87.9805
Nancy,Sanford,F,B,39,"Ice skating, Guitar, Bowling, Biking, Baking",36.0309,-110.5048
Carla,Rosario,F,B,38,"Music production, Puzzle solving, Woodworking, Badminton, Skateboarding",31.2791,-91.063
Tiffany,Kelly,F,M,31,"Board games, Data analysis, Financial analysis, Swimming",42.3666,-89.0266
Rodney,Mckay,M,M,38,"Cybersecurity, Teaching, Physics, Horseback riding",33.5758,-92.2671
Craig,Wilson,M,F,24,"Interior design, Computer programming, Muay Thai, Interests",38.1579,-78.4688
Jonathan,Gonzalez,M,B,25,"Ceramics, Geocaching, Rappelling",29.6627,-95.9352
Bryan,Melendez,M,B,37,"Badminton, Theater, Wrestling, Cycling",43.7758,-116.2571
Chelsea,Hamilton,F,F,34,"Baking, Board games",42.018,-80.3465
Jeremy,Kelley,M,M,32,"Snowboarding, Stand-up comedy, Equestrian, DJing, Mixology",34.3408,-98.8712
Amy,Hunt,F,M,35,"Woodworking, Pool, Filmography, Food criticism, Muay Thai",38.7196,-87.872
Taylor,Cantu,F,F,28,"Letterboxing, Guitar, Rappelling, Escape rooms, Filmmaking",40.5498,-85.287
Janet,Williams,F,M,34,"Music, Road cycling, Hunting, Advertising",40.1407,-120.1782
Russell,Wells,M,M,33,"Filmography, Kickboxing",18.0093,-65.937
Michael,Marquez,M,F,22,"Muay Thai, Interests, Baseball, Squash, Public relations",45.5796,-97.0782
Jeffrey,Brady,M,B,23,"Swimming, Baseball, Rock Climbing, Kiteboarding, Advertising",31.8585,-96.9281
Miranda,Barrett,F,F,29,"Polo, Gaming, Cooking, Rock climbing",37.9274,-95.4006
Sharon,Garrison,F,M,24,"Floristry, Field hockey, Cycling, Water polo, Yachting",41.5716,-97.8612
Amber,Brown,F,F,37,"Food styling, Marathons, Public relations",30.6914,-89.8896
Jeremy,Wilson,M,F,26,"Mixology, Tennis, Skateboarding, Bouldering",27.8511,-82.2164
Karen,Nichols,F,B,36,"Landscaping, Pilates, Physics, Filmmaking",29.798,-81.2653
Martin,Wall,M,F,33,"Dancing, Mixology",39.8321,-84.9922
Charles,Rivera,M,F,33,"Blacksmithing, Marketing, Salsa, Hiking",26.1259,-80.2617
Paul,Brown,M,F,31,"Wrestling, Stand-up comedy, Jujitsu, Computer programming, Skydiving",26.7118,-99.101
Bonnie,Mccoy,F,M,25,"Movies, Karate, Filmmaking, Golf",38.454,-99.9047
Christopher,Wright,M,B,33,"Fishing, Rugby, Guitar, Ceramics",34.38,-94.3643
Donald,Bender,M,M,19,"Boxing, Field hockey",35.2034,-91.61
Marcia,Burns,F,F,38,"Diving, Equestrian",32.3618,-92.9788
Nathan,Brown,M,B,28,"Squash, Fashion design, Ballroom dancing, Ethical hacking, Meditation",43.1052,-93.7059
Steven,Henson,M,M,34,"Sailing, Baseball, Orienteering, Investment banking, Astronomy",38.9189,-83.9853
Terri,Henry,F,B,32,"Physics, Gardening, Nature, Volleyball",39.2493,-95.708
Brian,Dominguez,M,F,34,"Stock trading, Calligraphy, Cooking, Football, ",46.369,-94.8019
Jay,Miller,M,F,37,"Rock climbing, Escape rooms",43.1364,-121.8042
Jennifer,Gentry,F,F,21,"Painting, Shuffleboard, Ethical hacking",18.4471,-66.2995
Ellen,Giles,F,F,25,"Gaming, Letterboxing, Roller hockey",40.9431,-81.1253
Dennis,Wilkerson,M,F,25,"Marathons, Watercolor, Yachting, Theater",40.0428,-86.8976
Monica,Howe,F,B,23,"Acting, Martial arts, Sketching, Pool",34.7804,-99.3332
David,Hayes,M,F,35,"Polo, Music production",41.7733,-112.445
Nicholas,Ortiz,M,M,19,"Muay Thai, Physics, Rock Climbing, Tennis, Martial arts",35.663,-81.2335
Valerie,Lee,F,B,25,"Board games, Cybersecurity, Kickboxing, Watercolor",41.7287,-89.3685
Barry,Washington,M,B,28,"Singing, Hang gliding",36.7123,-77.062
Karen,Schneider,F,B,32,"Gaming, Bar tending, Muay Thai, Wrestling",33.3543,-90.5913
James,Green,M,F,21,"Public relations, Acting, Watercolor, Ceramics",42.2127,-86.376
Sean,Johnson,M,B,19,"Movies, Baking",33.6949,-108.7639
Austin,White,M,F,29,"Diving, Wine tasting, Jazz, Bowling, Basketball",42.603,-89.6381
Mark,Conner,M,F,25,"Astrophysics, Teaching, Gardening, Yoga, Drawing",47.4427,-114.1716
Stephanie,Miller,F,M,36,"Cybersecurity, Choreography, Gardening, Baseball",35.6942,-89.9934
Michael,Williams,M,B,22,"Boating, Video editing, Journalism, Wrestling, Table tennis",41.1885,-75.9494
Gregory,Davis,M,M,24,"Nature, Stock trading",30.2225,-82.6465
Alexis,White,F,M,22,"Travel, Billiards",37.7818,-97.5363
Keith,Zimmerman,M,F,19,"Sailing, Water polo",42.0825,-87.8214
Curtis,Cruz,M,F,36,"Cybersecurity, Water polo, Treasure hunting",40.3547,-79.6502
Todd,Morris,M,B,27,"Gardening, Badminton, Biking, Weightlifting",31.0732,-82.6489
Randy,Cooper,M,F,24,"Fashion design, Data analysis, Equestrian, Knitting",39.2689,-123.2023
Daniel,Johnson,M,M,20,"Baseball, Skateboarding, Improv, Bowling, Knitting",43.0538,-85.4714
Patricia,Duncan,F,F,31,"Yachting, Bowling, Diving",40.5033,-75.6674
Regina,Johnston,F,B,35,"Movies, Art, Jogging, Dancing",40.9854,-84.1946
Ashley,Alvarez,F,M,22,"Dancing, Boxing, Painting, Data analysis, Rugby",42.7381,-123.4294
Randy,Jones,M,B,21,"Boating, Video editing",42.2305,-96.0972
Jonathan,Gordon,M,F,19,"Astronomy, Hunting, Video editing",37.5864,-90.6292
Jon,Patton,M,F,30,"Glassblowing, Nature",37.4432,-97.7694
Jacob,Holt,M,F,39,"Poetry, Pool",40.6042,-80.655
Troy,Gray,M,B,27,"Kiteboarding, Drawing, Ballet",39.9114,-77.5652
Edwin,Collins,M,M,24,"Jujitsu, Carpentry, Wrestling, Filmmaking",42.1072,-94.2383
Anita,Webb,F,F,27,"Lacrosse, Art history",43.3834,-94.3104
Janet,Mcdowell,F,M,39,"Hang gliding, Pilates, Card games",40.8618,-74.0741
Marie,Murray,F,F,34,"Singing, Cooking",38.9595,-74.8531
Andrew,Weaver,M,M,22,"Fishing, Lacrosse",34.1157,-118.0791
Rebecca,Harris,F,M,28,"Bar tending, Gymnastics, Stand-up comedy",34.6027,-96.4208
Patrick,Mccarty,M,M,23,"Rock Climbing, Meditation, Field hockey, ",45.1344,-118.9331
Allen,Johnson,M,F,35,"Teaching, Gymnastics, Running, Squash",40.8199,-73.4339
Christian,Williams,M,F,38,"Music, Yachting, Cybersecurity",40.7184,-74.0686
Karen,Reynolds,F,B,39,"Watercolor, Horseback riding, Sketching, Paragliding",39.7198,-111.1623
Laura,Obrien,F,B,20,"Nature, Snowboarding, Hiking",45.1755,-93.3094
Jessica,Garcia,F,M,32,"Reading, Landscaping, Sketching, Choreography, Shuffleboard",41.1023,-81.4216
Jessica,Smith,F,B,36,"Fashion design, Reading",36.5921,-86.5239
Stephanie,Gentry,F,M,36,"Physics, Hunting, Sailing, Letterboxing",31.1584,-94.418
Michael,Brewer,M,B,25,"Guitar, Squash, Knitting, Synchronized swimming, Equestrian",48.7322,-96.664
David,Walker,M,B,20,"Pilates, Letterboxing, Equestrian, Surfing",41.2745,-92.6814
Sheryl,Rodriguez,F,B,19,"Squash, Boxing, Triathlons",38.2223,-81.4378
Sarah,Monroe,F,F,32,"Billiards, Karate, Photography",47.2502,-124.1902
Janet,Adams,F,B,26,"Kickboxing, Fishing, Journalism, Pottery, Skiing",34.9664,-85.3622
Michelle,Mitchell,F,M,20,"Computer programming, Drawing, Teaching, Theatre",41.9586,-87.8693
Ronald,Madden,M,B,18,"Reading, Skateboarding, Judo, Food styling, Literature",43.7424,-88.868
Shannon,Rodriguez,M,M,38,"Badminton, Cycling",41.7669,-87.7915
Joseph,Jones,M,F,28,"Mathematics, Music",42.2328,-96.2247
Bradley,Jones,M,M,38,"Salsa, Astrophysics, Hang gliding",39.156,-76.6071
Oscar,Mcintyre,M,M,37,"Card games, Triathlons, Physics, Mixology",26.691,-80.1217
Dorothy,Clark,F,M,21,"Air hockey, Advertising, Mixology, Acting",34.4354,-119.5562
Sherry,Young,F,B,21,"Tennis, Weightlifting, Ceramics",35.2751,-85.2225
Lori,Adams,F,F,37,"Watercolor, American football, Ethical hacking, Jujitsu",35.1006,-97.0957
Aaron,Mitchell,M,M,23,"Public relations, Wine tasting, Astronomy, Boxing",38.1663,-85.6485
Michael,Richmond,M,M,18,"Swimming, Travel",45.387,-92.8477
Judy,Robinson,F,M,24,"Synchronized swimming, Lacrosse, Surfing",38.1906,-83.4466
Matthew,Thomas,M,B,38,"Nature Photography, Art history, American football, Theatre",40.0742,-91.3723
Dawn,Nelson,F,M,18,"Table tennis, Sculpting, Mathematics",47.1949,-119.3178
Kelsey,Webb,F,F,30,"Interests, Mixology",29.2191,-82.0558
Kristen,Taylor,F,F,38,"Photography, Boxing",37.6053,-76.5938
Paul,Gardner,M,F,18,"Board games, Judo, Sewing, Music, Boating",41.5714,-75.5048
Don,Lee,M,F,29,"Marketing, Salsa, Squash, Karate, Shuffleboard",41.0253,-74.0604
Laura,Flynn,F,F,31,"Shuffleboard, Music, Skiing",35.2659,-105.3602
Priscilla,Stewart,F,B,31,"Kayaking, Yachting, Squash, Running, Swimming",35.7575,-89.9298
Anthony,Brown,M,M,21,"Interior design, Music, Sailing, Escape rooms",37.5984,-90.6379
Cassandra,Barnes,F,M,35,"Pool, Baking, Interests, Yachting",38.8631,-90.0774
Sarah,Ross,F,F,18,"Jujitsu, Gardening, Financial analysis",40.962,-92.6347
Lisa,Clark,F,B,37,"Mathematics, Kiteboarding",34.183,-98.0245
Michael,Wise,M,M,36,"Physics, Investment banking, Field hockey, Reading",25.8475,-81.3757
Kristina,Kim,F,B,35,"Paragliding, Watercolor, Escape rooms, Skydiving",42.7491,-71.491
Jeffrey,Miller,M,B,21,"Cycling, Billiards, Biking, Video editing",45.0688,-99.7664
Christopher,Anderson,M,F,21,"Letterboxing, Astrophysics, Glassblowing, Jogging, Boating",34.5553,-88.4153
Colleen,Burns,F,M,32,"Writing, Stand-up comedy, Lacrosse",40.343,-77.3057
Kenneth,Wiley,M,F,35,"Computer programming, Knitting, Gaming, Music production, Triathlons",39.3504,-89.7836
Joseph,Ortiz,M,B,24,"Sewing, Escape rooms, Snowboarding, Volleyball",38.9423,-74.9378
Anthony,Taylor,M,B,20,"Food styling, Mixology",40.3274,-76.0042
Tyler,Long,M,B,20,"Theatre, Watercolor, Jogging",40.6519,-112.0095
Christopher,Cunningham,M,M,39,"Jujitsu, Knitting, Gaming, Theater",34.4844,-87.2833
David,Blair,M,M,22,"Mountain biking, Orienteering, Lacrosse, Computer programming",47.7466,-122.0755
Alexa,Burton,F,M,31,"Marathons, Landscaping, Woodworking, Hunting",48.3147,-97.9203
Andrew,Boyd,M,B,35,"Ballroom dancing, Watercolor, Lacrosse, Music, Pool",38.2141,-89.0381
Stephanie,Marquez,F,F,18,"Hang gliding, Bar tending",46.4104,-90.2695
Natalie,Morrison,F,F,20,"Carpentry, Basketball, Food styling, Journalism, Mathematics",40.9264,-90.0181
Stephanie,Cuevas,F,B,18,"Boxing, Road cycling, Knitting, Puzzle solving",38.149,-81.28
Kerry,Smith,M,B,19,"Gymnastics, Kickboxing, Soccer",41.1993,-85.7033
Travis,Walker,M,B,38,"Surfing, Nature, Weightlifting",27.3537,-81.7895
Crystal,Sanders,F,B,22,"Data analysis, Hunting, Interior design",37.6375,-121.0028
Dustin,Pena,M,B,29,"Music, Basketball, Teaching",43.1892,-96.0032
David,Edwards,M,B,31,"Yachting, Fitness, Nature",38.6472,-92.1142
Matthew,Sellers,M,B,21,"Fishing, Travel, Mobile app development",41.3867,-74.1419
Peggy,Mendoza,F,B,34,"Lacrosse, Salsa, Sculpting, Treasure hunting",44.1039,-104.6362
Sherry,Lewis,F,M,30,"Pinball, Ceramics",39.2828,-83.1596
Ronald,Conway,M,M,20,"Geocaching, Orienteering, Pilates, Dancing, Nature",46.7181,-111.7528
Tiffany,Ward,F,B,31,"Nature Photography, Music, Advertising, Floristry",44.9372,-72.209
Anthony,Moore,M,B,20,"Filmography, Bar tending",45.4319,-97.2868
Michele,Gardner,F,M,38,"Biking, Air hockey, Drawing, Photography",34.8487,-85.8437
Mary,Armstrong,F,M,23,"DJing, ",45.5038,-99.8839
William,Beck,M,B,29,"Tennis, Movies, Interests",42.8102,-94.0512
Tanner,Adams,M,M,25,"Golf, Jogging, Fashion design",41.1264,-73.322
Leah,Brown,F,F,37,"Glassblowing, Stock trading, Basketball, Salsa, Roller hockey",40.7547,-80.9355
Jason,Hall,M,F,34,"Letterboxing, Astrophysics, Mobile app development, Singing, Golf",40.848,-89.6719
Allen,Griffin,M,B,35,"Skateboarding, Paragliding, Cybersecurity, Stock trading, Ceramics",48.067,-111.9935
Alison,Oliver,F,F,31,"Road cycling, Hunting, Triathlons",32.1956,-83.7596
Jessica,Smith,F,M,35,"Marathons, Stock trading, Pinball",37.613,-77.5066
Marie,Hansen,F,B,18,"Surfing, Art history, Baseball, Ballet",35.262,-85.7515
Jose,Green,M,M,19,"Bar tending, Ethical hacking",46.2769,-96.3122
Brian,Armstrong,M,M,19,"Skiing, Astrophysics",36.1911,-89.8843
Terry,Harrison,M,F,18,"Windsurfing, Skiing, Jujitsu",39.4722,-82.9121
Brian,Peters,M,M,37,"Jazz, Astronomy",41.9262,-73.0675
John,Watkins,M,M,19,"Road cycling, American football, Golf",37.0392,-122.0808
Timothy,Garrison,M,B,24,"Weightlifting, Volleyball",34.5509,-77.9224
Lori,Moore,F,B,19,"Rappelling, Jogging, Salsa, Interior design",39.4409,-74.4735
Travis,Harrison,M,F,26,"Woodworking, Gymnastics",26.3087,-98.6379
Dawn,Moore,F,B,30,"Travel, Jujitsu, Calligraphy, Data analysis, Martial arts",41.9707,-84.5251
Christopher,Griffith,M,M,32,"Fitness, Video games, Ballet",38.6866,-97.2931
Kimberly,Ortiz,F,F,28,"Food criticism, Skiing, Hunting, Bowling, Puzzle solving",21.1564,-157.0591
Jordan,Clements,M,F,30,"Theater, Art, Stock trading, Video games",47.484,-100.4426
Mary,Larsen,F,F,19,"Singing, Writing, Yachting, Gardening, Meditation",33.6232,-95.7001
Paul,Burns,M,F,32,"Literature, Water polo, Choreography",41.665,-87.6577
Jonathan,Stewart,M,M,21,"Wrestling, Astrophysics, Literature, Hunting",39.863,-77.0554
Charlene,Johnston,F,B,35,"Baseball, Travel",38.2698,-121.3004
Luke,Farrell,M,F,38,"Acting, Road cycling, Cybersecurity, Sewing",34.8789,-81.9646
Sandra,Jones,F,B,31,"Financial analysis, Skydiving, Jujitsu, Volleyball",36.8657,-82.7435
Joshua,Horton,M,M,22,"Painting, Interests",37.9805,-96.1638
Larry,Adams,M,M,19,"Pool, Baking, Photography",36.7091,-82.9116
Karen,Schultz,F,B,25,"Theater, Ceramics, Mobile app development",44.1053,-94.2188
Andrew,Williams,M,B,38,"Dancing, Gymnastics, Watercolor, Escape rooms, Shuffleboard",35.328,-93.2416
Tonya,Hill,F,B,19,"Orienteering, Squash, Board games",33.576,-98.4348
Lisa,Chapman,F,B,36,"Roller hockey, Advertising",28.4267,-82.6254
William,Miller,M,B,31,"Writing, Windsurfing, Interests, Running",33.7397,-81.1052
Jeffrey,David,M,B,27,"Card games, Football",36.3774,-92.2155
Karen,Brown,F,M,25,"Table tennis, Equestrian, Nature Photography",45.5235,-102.4677
Evelyn,Wilson,F,F,37,"Wrestling, Theatre, Hang gliding",29.1721,-95.4293
Brandon,Miller,M,B,21,"Web design, Surfing, Landscaping, Mixology",39.6829,-83.9413
James,Williams,M,F,27,"Rugby, Boating, Treasure hunting",44.2337,-83.8033
Andrew,Solomon,M,M,33,"Gardening, Astrophysics, Hunting, Ceramics, Pottery",34.5596,-117.9558
Danielle,Jimenez,F,F,36,"Rappelling, Road cycling, Meditation, Nature Photography, Fashion design",45.9124,-95.8943
Tammy,Gonzalez,F,M,29,"Card games, Yachting, Hang gliding",30.2536,-91.1013
Jackson,Jackson,M,M,29,"Horseback riding, Hang gliding, Mobile app development, Card games, Advertising",37.4308,-120.0995
Sheryl,Franklin,F,F,30,"Bowling, Photography",39.7083,-104.7237
Christopher,Henry,M,M,24,"Mobile app development, Bowling, Hunting",40.7608,-73.6336
Linda,Marsh,F,M,35,"Cycling, Guitar, Hang gliding, Art history, Rappelling",42.198,-121.7248
Robert,Hall,M,M,27,"Rock climbing, Table tennis, Windsurfing, Photography, Gymnastics",46.7252,-108.4882
Amanda,Stout,F,M,28,"Interior design, Sailing, Stock trading",34.9607,-114.5714
Edward,Rice,M,B,23,"Mathematics, Video editing, Financial analysis, Surfing, Cooking",36.2458,-95.2517
John,Reynolds,M,B,19,"Pilates, Reading, Stock trading, Soccer, Nature Photography",42.3119,-95.2545
Donald,Wilkinson,M,M,36,"Ethical hacking, Financial analysis, Food styling",41.4422,-81.4293
Christopher,Anderson,M,M,20,"Pilates, Boating, Cycling, Table tennis",35.6942,-89.9934
Gina,Park,F,M,19,"Biking, Guitar",32.9667,-93.1376
Mark,Thomas,M,F,36,"Road cycling, Improv",41.8083,-91.9654
David,Watson,M,F,27,"Kayaking, Painting, Marketing, Art",43.3363,-88.8182
Carrie,Gonzalez,F,B,34,"Board games, Sketching, Fashion design, Jogging",40.432,-91.4447
Lori,Hopkins,F,F,34,"Knitting, Volleyball, Gaming, Polo",43.7718,-88.4397
Timothy,Kelly,M,B,25,"Jogging, Interests, Travel, Bouldering, Swimming",43.0644,-95.2836
Tyler,Clark,M,F,23,"Triathlons, Music production, Rappelling, Fashion design",40.1107,-88.1973
Tom,Hurley,M,M,21,"Fashion design, Pool, Woodworking",37.8136,-81.9915
Pamela,Mann,F,M,33,"Video editing, Escape rooms, Table tennis, Volleyball",41.5169,-88.2146
Tony,Miller,M,M,19,"Improv, Teaching, Gymnastics, Financial analysis",41.6207,-88.2253
Erica,Brown,F,F,25,"Floristry, Art history, Golf",35.259,-91.235
John,Klein,M,F,21,"Baseball, Boating, Video games, Air hockey",35.4656,-94.5442
Laurie,Thornton,F,F,32,"Watercolor, Paragliding, Rock climbing, Equestrian, Public relations",40.554,-83.9531
Catherine,Norton,F,M,38,"Hang gliding, Investment banking, Cycling, Rugby",31.2031,-81.5155
Paige,Johnson,F,F,27,"Martial arts, Kiteboarding",34.4546,-97.662
Christine,Bell,F,B,32,"Wrestling, Geocaching, Literature, Sculpting, Cycling",36.1391,-119.511
Michelle,Thomas,F,M,37,"Improv, Journalism",35.1817,-84.8707
Catherine,Miller,F,B,30,"Ethical hacking, Painting, Boating, Bouldering",27.5094,-97.861
Ryan,Sampson,M,B,37,"Wrestling, Marathons, Geocaching",38.3775,-87.9831
Rebecca,Flynn,F,F,24,"Equestrian, Martial arts, Guitar, Journalism",26.3404,-98.6371
Patrick,Mills,M,M,22,"Water polo, Polo",31.9061,-83.7552
Julie,Acevedo,F,M,35,"Gymnastics, Painting, Hunting",38.9105,-76.8304
Caroline,Bender,F,B,32,"Art history, Jujitsu",41.0178,-84.5853
Mary,Blankenship,F,F,35,"Meditation, Gymnastics, Darts, Public relations, Astrophysics",34.786,-77.3642
Suzanne,Koch,F,B,20,"Painting, Sculpting, Treasure hunting, Nature",37.6628,-113.5644
Amber,Roberts,F,M,32,"Escape rooms, Paragliding, Tennis",29.7664,-97.8279
Joshua,Smith,M,M,38,"Ice skating, Wrestling, Cybersecurity",35.2688,-81.1013
Emily,Cook,F,F,36,"Diving, Badminton",61.7428,-148.8548
Nancy,Hawkins,F,B,31,"Journalism, Fitness, Biking",42.2889,-93.796
Lynn,Benson,F,F,27,"Letterboxing, Road cycling, Windsurfing, Badminton, Theatre",38.9948,-84.6017
Edward,Hamilton,M,F,26,"Travel, Gardening, Soccer",42.3616,-94.2955
Thomas,Hughes,M,M,21,"Sailing, Badminton",37.2582,-99.3378
Jessica,Roach,F,F,34,"Mobile app development, Rock Climbing",39.6213,-106.0393
Jason,Cole,M,M,38,"Bar tending, Ethical hacking, Ice skating, Sewing",35.92,-86.8516
Michele,Moore,F,F,21,"Polo, Hiking, Mountain biking, Geocaching, Martial arts",30.7697,-85.8465
Andre,Schwartz,M,F,36,"Diving, Pilates, Yoga",34.4366,-94.4161
Eric,Bowen,M,F,38,"Salsa, Art history, Weightlifting",48.7139,-100.9127
Gabrielle,Fox,F,F,35,"Web design, Orienteering, Sailing",31.4957,-110.9885
Lauren,Savage,F,B,18,"Jazz, Biking, Literature, Stock trading, Water polo",39.1431,-87.8172
Travis,Miller,M,M,22,"DJing, Equestrian, Road cycling",38.4734,-76.3128
Anita,Logan,F,B,37,"Treasure hunting, Video editing, DJing",35.8247,-86.0723
Charles,Mathis,M,F,19,"Web design, Fashion design",47.9999,-118.954
Alex,Johnson,M,M,38,"Rock Climbing, Letterboxing, Tennis, Table tennis, Bouldering",31.8495,-86.2057
Crystal,Bates,F,M,24,"Judo, Football, Blacksmithing, Glassblowing, Landscaping",19.6233,-155.0483
Shawn,Richmond,M,F,33,"Data analysis, Marathons, Synchronized swimming",47.2351,-88.4382
Duane,Rocha,M,B,22,"Nature, Food criticism, Ice skating",42.5864,-95.9679
Amy,Mayo,F,M,26,"Stand-up comedy, Writing, Art, Cooking",36.8389,-78.7284
Jennifer,Bailey,F,F,39,"Windsurfing, Pilates",38.8621,-77.7743
Kristin,Meyer,F,F,30,"Physics, Nature, Woodworking",39.4976,-117.074
Amy,Lee,F,B,21,"Fitness, Interests",44.8809,-97.7348
Nicole,Estrada,F,M,33,"Movies, Treasure hunting",30.4429,-91.4601
Carl,Hall,M,M,39,"Art history, Football, Pottery, Ethical hacking",40.1783,-74.8524
Glenn,Yoder,M,F,23,"Fashion design, Nature Photography",32.7974,-96.5577
Kyle,Mann,M,B,39,"Food criticism, Mountain biking",42.2782,-88.1999
Jeff,Chavez,M,B,34,"Hunting, Karate, Badminton, Paragliding",33.7109,-91.4517
Robert,Cooper,M,M,38,"Puzzle solving, Theatre, Hunting",47.1205,-124.1721
April,Thompson,F,M,18,"Jogging, Baseball, Windsurfing",36.2562,-119.2169
Crystal,Moody,F,M,24,"Rock Climbing, Carpentry, Physics, Interests, Yachting",44.5346,-107.7844
Timothy,Allen,M,F,21,"Reading, Roller hockey, Music production, Rock Climbing",39.9897,-86.3182
Evan,Hamilton,M,M,26,"Choreography, Painting, Darts",35.064,-77.3553
Chris,Frank,M,M,30,"Volleyball, Jazz, Hiking, Painting",40.2479,-94.3335
Michael,Snyder,M,B,38,"Glassblowing, Rock climbing",38.7631,-90.0816
Yvonne,Massey,F,M,21,"Bar tending, Billiards",40.8731,-111.917
John,Smith,M,M,34,"Sculpting, Table tennis, Jazz, Sailing, Bar tending",40.8348,-74.1798
Martin,Moore,M,M,29,"Video games, Mobile app development, Bowling",30.2834,-92.107
Stacey,Eaton,F,F,34,"Food criticism, Dancing, Self defense, Video games",40.785,-76.2169
Stephanie,Cox,F,B,22,"Geocaching, Sketching, Wine tasting, Carpentry, Rappelling",41.4618,-73.5268
Ann,Fletcher,F,F,32,"Pinball, Boating",40.7078,-89.6995
Stephanie,Lane,F,F,32,"Running, Martial arts, Calligraphy",38.3738,-100.9104
Chelsea,Kennedy,F,B,30,"Soccer, Escape rooms, Paragliding",35.7173,-108.1432
William,Wilkinson,M,B,30,"Drawing, Self defense, Sewing",40.3031,-88.1549
Jonathan,Martin,M,F,35,"Fitness, Reading, Weightlifting, Karate, Field hockey",38.3386,-88.6419
William,Phillips,M,M,28,"Guitar, Gaming, Teaching, Volleyball",41.3206,-122.315
Joseph,Vang,M,M,31,"Cycling, Ballet",45.6425,-121.9688
Carrie,Johnson,F,M,18,"Fishing, Yachting, Financial analysis",42.8252,-74.1287
Andrew,Lewis,M,F,33,"Fashion design, Escape rooms, Rappelling, Poetry, Meditation",38.2579,-90.3948
Matthew,Mason,M,M,23,"Synchronized swimming, Landscaping",42.0595,-91.0052
Matthew,Bruce,M,B,23,"Rappelling, Investment banking, Horseback riding",36.1308,-77.4214
Sarah,Johnson,F,F,38,"Boxing, Investment banking",38.3987,-85.375
Shawn,Stewart,M,M,21,"Self defense, Gardening, Computer programming, Pool, Bar tending",47.7152,-104.1679
Veronica,Thompson,F,B,26,"Ice skating, Polo, Stock trading, Advertising",39.335,-101.5495
Darrell,Robinson,M,B,26,"Rock Climbing, Road cycling, Air hockey, Art, Puzzle solving",37.622,-96.2273
Martha,Blevins,F,M,28,"Geocaching, Weightlifting, Sewing, Rugby",26.1097,-97.2968
David,Woods,M,M,34,"Music, Mixology",28.6908,-99.8258
Jimmy,Montes,M,B,22,"Soccer, Wrestling, Shuffleboard",39.7825,-75.0562
Ashley,Bray,F,F,28,"Jogging, Diving, Basketball, Video games, Wrestling",41.7638,-88.2902
David,Collins,M,B,21,"Rock climbing, Cybersecurity, Movies, American football",32.9791,-86.0358
Mary,Murray,F,F,19,"Travel, Football, Guitar, Pottery",36.7614,-103.8342
Hannah,Long,F,F,31,"Card games, Darts, Rock Climbing",40.562,-76.2013
Anthony,Barnes,M,F,36,"Skateboarding, Boating",26.6978,-80.1239
Robert,Meyer,M,F,39,"Tennis, Triathlons, Football, Orienteering, Skiing",47.4842,-121.7151
Richard,Miller,M,F,18,"Synchronized swimming, Salsa, Filmography",40.5534,-74.3243
Tyler,Flynn,M,M,29,"Roller hockey, Carpentry, Stock trading",41.1763,-76.0384
Justin,Stuart,M,M,25,"Interests, Writing, Rock Climbing, Stock trading",43.1814,-95.6554
Michael,Waters,M,F,37,"Ceramics, Filmmaking, Water polo, Stand-up comedy, Road cycling",41.6916,-85.9627
Christopher,Garcia,M,M,26,"Surfing, Wine tasting, Basketball",40.0518,-95.4301
Norma,Walters,F,M,28,"Bouldering, Running, Data analysis",42.6715,-91.9131
Joe,Blackburn,M,M,22,"Music production, Gardening",37.2836,-100.343
Kyle,Mills,M,F,29,"Yachting, Music, Bowling, Roller hockey, ",32.6366,-100.7523
Jermaine,Mullen,M,F,27,"Bouldering, Ballroom dancing, Kayaking, Woodworking",38.2323,-97.7715
Ryan,Vargas,M,B,39,"Stock trading, Filmmaking, Movies",41.9419,-83.314
Sara,Alexander,F,F,29,"Darts, Badminton, Card games, Baseball",48.1741,-111.9467
Richard,Mccoy,M,B,38,"Baseball, Road cycling",38.4116,-79.5809
Rachel,Nelson,F,B,32,"Writing, Pilates",34.2741,-119.2314
Jon,Lopez,M,B,27,"Data analysis, Filmography",19.6883,-155.0863
Vanessa,Flowers,F,M,31,"Geocaching, Skateboarding, Carpentry",35.6984,-84.2641
Madison,Harrison,F,F,21,"Carpentry, Music production, Letterboxing, Web design",41.115,-90.1648
Rachael,Clark,F,F,25,"Windsurfing, Escape rooms, Orienteering, Geocaching, Rock climbing",35.3625,-81.836
Jennifer,Fisher,F,B,20,"Kiteboarding, Data analysis, Hiking, Hunting, Rock climbing",47.6698,-117.878
Ryan,Rodriguez,M,M,31,"Nature Photography, Web design, Skiing, Fishing, Skydiving",37.1701,-94.7065
Jordan,Perkins,M,B,32,"Badminton, Advertising",42.0595,-91.0052
Tina,Wilcox,F,F,32,"Yoga, Swimming, Ballroom dancing, American football",40.7496,-73.3633
Robert,Shepherd,M,M,35,"Gaming, Snowboarding, Food criticism, Filmmaking, Poetry",28.2118,-82.7504
Christopher,Wright,M,B,23,"Air hockey, Soccer, Rock Climbing, Pottery",29.6657,-81.2138
Lindsey,Bailey,F,B,33,"Basketball, Calligraphy, Cycling, Treasure hunting",34.7638,-82.3497
Crystal,Taylor,F,B,23,"Golf, Nature, Billiards, Judo, Jogging",40.6364,-82.9695
Yvonne,Doyle,F,F,32,"Biking, Rock Climbing, Shuffleboard",44.7482,-74.997
Tina,Johnson,F,F,27,"Mathematics, Snowboarding, Landscaping, Paragliding",38.1513,-89.7185
Samuel,Travis,M,M,32,"American football, Marketing, Karate, Theater",39.1378,-89.8127
Kelly,Short,F,B,24,"Rock Climbing, Kayaking, Cybersecurity, Teaching, Mobile app development",44.5583,-72.5933
Dawn,Jimenez,F,B,39,"Cybersecurity, Ballroom dancing, Hunting, Triathlons",37.1938,-94.1298
Vanessa,Maxwell,F,F,24,"Bar tending, Ceramics",35.8756,-80.0093
Joshua,Wallace,M,F,30,"Bouldering, Art history, Choreography, Stock trading, Interests",34.9068,-79.6933
Gregory,Winters,M,M,19,"Judo, Skydiving, Puzzle solving, Writing, Kickboxing",41.1292,-101.7211
Jason,Henry,M,F,36,"Improv, Woodworking",42.4545,-88.2399
Anthony,Ballard,M,F,21,"Diving, Cycling, Music, Football",40.3644,-99.1693
Corey,White,M,F,36,"Video editing, Stock trading, Filmography",43.2281,-86.2562
Angela,Benson,F,B,33,"Hang gliding, Shuffleboard",63.4705,-162.2599
James,Adams,M,F,27,"Stand-up comedy, Jogging, Nature Photography",42.5618,-90.7762
Martin,Garcia,M,M,20,"Baseball, Puzzle solving, Snowboarding",33.9252,-117.5498
Christopher,Garza,M,F,19,"Jogging, Bar tending",39.9852,-79.8732
Kimberly,Morales,F,M,32,"Writing, Music, Jujitsu",38.3764,-90.0562
Richard,Smith,M,B,39,"Squash, Landscaping, Yoga",39.9699,-74.0723
Erin,Wagner,F,F,25,"Filmmaking, Pool",38.2955,-85.5857
Brandon,Ellis,M,F,35,"Skateboarding, Public relations, Biking",40.3071,-78.3301
Matthew,Obrien,M,B,37,"Boxing, Rock climbing, Filmography, Board games",43.246,-78.1902
Peter,Wheeler,M,M,26,"Jazz, Choreography, Puzzle solving",42.8257,-95.1656
Deborah,Hernandez,F,F,21,"Hiking, Computer programming, Marathons, Jazz, Filmmaking",19.557,-155.0142
Bryan,Schmitt,M,F,34,"Sailing, Financial analysis",39.4352,-85.3473
Laura,Sanders,F,F,27,"Landscaping, Literature, Field hockey, Sailing",34.9449,-114.5907
Daniel,James,M,B,33,"Stand-up comedy, Meditation",28.0579,-81.5538
Tim,Byrd,M,F,34,"Literature, Woodworking, Reading, Volleyball",33.0222,-109.9665
Diana,Davis,F,M,20,"Horseback riding, Field hockey, Mobile app development, Rock Climbing, Mixology",39.2862,-90.5538
David,Alvarez,M,M,25,"Theatre, Marathons",39.4154,-87.0752
Patty,Tucker,F,F,29,"Water polo, Roller hockey, Fashion design, Astrophysics",40.8162,-80.2471
Danielle,Miller,F,B,27,"Food styling, Running, Football",37.386,-102.2801
Susan,Summers,F,F,31,"Jogging, Travel, Music, Pinball",38.8048,-87.1515
Kenneth,Taylor,M,M,38,"Paragliding, Fashion design, Reading",44.0084,-97.5956
Christina,Cook,F,F,28,"Rock Climbing, Drawing, Muay Thai, Painting",39.2236,-74.9915
Robin,Martin,F,M,35,"Investment banking, Teaching",19.581,-155.8985
Anthony,Richardson,M,M,31,"Volleyball, Mathematics, Water polo, Interests, Public relations",34.1144,-88.6932
Charles,Jones,M,B,20,"Rock Climbing, Horseback riding, Movies, Hunting",38.5265,-123.0978
Alexis,Peters,F,B,34,"Gaming, Table tennis, Video games",41.291,-86.6212
Kyle,Walton,M,F,38,"Soccer, Mountain biking",43.9892,-122.91
Kimberly,Callahan,F,F,36,"Kayaking, Escape rooms, Physics, Running",42.9015,-91.0971
Oscar,Davis,M,M,38,"Journalism, Lacrosse, Astronomy, Advertising",40.3483,-85.1539
Nicholas,Miller,M,F,26,"Mountain biking, Salsa, Public relations",35.5113,-95.9566
James,Hunter,M,B,24,"Yoga, Snowboarding, Music",37.5146,-89.9061
Carl,Ortega,M,B,19,"Astrophysics, Gardening",41.1713,-92.3079
Heidi,Cohen,F,B,31,"Skiing, Baking, Basketball",43.5298,-91.93
Maria,Garcia,F,B,27,"Kickboxing, Sketching",30.9434,-83.5003
Catherine,White,F,B,31,"Pool, Blacksmithing, Darts",42.555,-83.4883
Shannon,Wolf,F,M,38,"Squash, Carpentry, Lacrosse",39.2189,-75.5882
Virginia,Preston,F,F,28,"Baseball, Bar tending",19.8325,-155.1056
Michael,Bernard,M,F,38,"Horseback riding, Computer programming, Floristry, Escape rooms",36.8003,-95.074
Angela,Ward,F,B,30,"Marathons, Yachting, Sewing, Literature",45.3933,-92.1452
Jared,Terrell,M,B,26,"Rugby, Teaching, Judo",39.1711,-84.4955
Catherine,Avila,F,B,28,"Blacksmithing, Food styling, Volleyball, Dancing, Fishing",59.34,-151.8464
Paul,Reeves,M,F,21,"Sewing, Geocaching, Blacksmithing",42.7838,-71.0871
Andrew,Johnson,M,F,28,"Orienteering, Squash, Diving",40.5839,-76.5314
Cynthia,Salinas,F,B,34,"Sewing, Nature Photography, Rock climbing, Public relations, Tennis",48.2878,-99.4346
Rhonda,Jones,F,F,20,"Bar tending, Theatre, Hiking, Equestrian",31.1989,-83.8771
Lisa,Mccormick,F,M,20,"Pottery, Sketching, Marketing, Literature, Interests",40.2085,-76.7851
Christopher,Torres,M,M,39,"Board games, Hunting, Carpentry",32.0507,-96.4787
Brian,Cabrera,M,M,33,"Surfing, Air hockey, Poetry",40.8991,-80.7678
Franklin,Mejia,M,B,22,"Sewing, Woodworking, Movies, Cycling",38.2235,-88.5556
William,Brown,M,F,38,"Sculpting, Snowboarding, Shuffleboard",35.686,-97.0615
Tracy,Scott,F,F,29,"Watercolor, Financial analysis, Card games, Geocaching",44.3276,-83.6711
Sydney,Malone,F,F,27,"American football, Football, Lacrosse",37.3875,-120.7248
Joyce,Riddle,F,B,34,"Ethical hacking, American football, Hunting",41.3875,-83.3216
Jeffery,Schmidt,M,M,33,"Pool, Video editing, Ballroom dancing",31.4389,-83.5203
Kathryn,Guerrero,F,F,34,"Filmmaking, Calligraphy, Theater, Financial analysis, ",44.4535,-89.0316
Andrea,Garcia,F,B,31,"Skiing, Pool, Video editing",48.2439,-109.8161
Michael,Smith,M,F,34,"Biking, Data analysis, Movies, Ice skating, Shuffleboard",44.3402,-89.1228
Joshua,White,M,B,36,"Astrophysics, Advertising",44.9083,-72.8026
Kelly,Bennett,F,F,25,"Theater, Nature Photography, Floristry, Hiking, Carpentry",46.5867,-113.1971
Rebecca,Kent,F,M,30,"Data analysis, Glassblowing, Journalism",33.3759,-116.0113
Jacqueline,Jacobson,F,F,22,"Diving, Bar tending",37.1341,-92.266
Robin,Alexander,F,M,28,"Poetry, Astronomy",35.5794,-106.113
Aaron,Burnett,M,B,32,"Boxing, Horseback riding, Golf",40.2155,-78.2572
Christian,Alvarado,M,M,35,"Gardening, Letterboxing, Financial analysis, Skateboarding",41.4614,-90.8114
David,Perez,M,M,35,"Paragliding, Orienteering",41.0989,-72.3734
Christopher,Adams,M,M,24,"Boxing, Data analysis, Football, Kayaking",45.4417,-122.6594
Scott,Nichols,M,B,37,"Gaming, Drawing, Horseback riding, Knitting",45.3517,-109.4932
James,Lamb,M,F,29,"Rappelling, Landscaping, Filmmaking, Yachting, Music",41.74,-90.9735
Sandra,Peters,F,F,34,"Ice skating, Skydiving, Advertising, Sewing",40.3304,-89.9306
Anita,Hansen,F,F,39,"Calligraphy, Basketball, Ethical hacking, Bowling",37.5589,-83.3783
Mary,Allen,F,F,33,"Billiards, Mixology, Lacrosse, Fashion design, Gymnastics",42.4827,-91.2702
Alexandra,Doyle,F,F,25,"Jujitsu, Yachting, Choreography, Glassblowing",17.9783,-66.8899
Amy,Fisher,F,B,21,"Rock climbing, Triathlons, Kayaking, Woodworking, Music production",37.5442,-86.1514
Jeremy,Walsh,M,B,37,"Field hockey, Air hockey, Roller hockey, Escape rooms",37.1314,-109.9131
Michael,Murray,M,M,29,"Fashion design, Treasure hunting, Windsurfing",40.7633,-79.5217
Jason,Allen,M,F,27,"Guitar, Escape rooms, Horseback riding, Biking, Gymnastics",33.1585,-92.4453
Roberto,Wade,M,B,32,"Rock climbing, Darts",32.0867,-81.1773
Jamie,Wells,M,F,35,"Food criticism, Football, Astrophysics, Music, Ballroom dancing",40.8784,-74.0814
Meagan,Cannon,F,B,26,"Boxing, Nature, Boating, Nature Photography",41.7848,-88.4225
Douglas,Cobb,M,F,23,"Knitting, Fitness, Marketing, Letterboxing, Music",44.4341,-74.2533
Jonathan,Downs,M,M,22,"Billiards, DJing, Salsa, Mountain biking, Filmography",44.9152,-89.6144
Daisy,Kerr,F,B,30,"Surfing, Table tennis, Geocaching",36.317,-94.1531
Bradley,Conner,M,M,27,"Fitness, Astronomy, Yoga",41.0026,-73.9327
Paula,Smith,F,M,29,"Shuffleboard, Painting, Self defense",40.4469,-74.1315
Jenny,Walters,F,F,29,"Swimming, Jazz, Pool, Pottery",21.4688,-158.0173
Eric,Mercer,M,B,38,"Rugby, Horseback riding, Self defense",39.0545,-96.2381
Robin,Dudley,F,F,22,"Football, Rugby, Reading",33.1858,-96.9295
James,Strickland,M,F,35,"Nature Photography, Art history",44.7088,-75.4717
George,Turner,M,B,29,"Drawing, Volleyball, Wine tasting, Journalism",38.0076,-120.309
Kathleen,Richard,F,M,36,"Weightlifting, Darts, Teaching, Skiing",33.0362,-81.2223
Ruben,Tucker,M,F,25,"Mountain biking, Art history, Astronomy, Photography",32.3261,-93.2836
Yvette,Mitchell,F,B,32,"Baseball, Woodworking, Music, Cybersecurity, Rock Climbing",42.7938,-77.6073
Lisa,Harrison,F,B,30,"Pottery, Tennis, Yachting, Hiking, Mixology",38.7237,-94.714
Kaitlin,Poole,F,B,21,"Mobile app development, Field hockey",34.3189,-78.5934
Alex,Hunter,M,B,21,"Boxing, Self defense, Ethical hacking, Carpentry, Karate",38.8024,-81.3531
Wesley,Sherman,M,F,37,"Mathematics, Baseball, Glassblowing, Computer programming",28.6715,-96.5591
April,Trevino,F,F,23,"American football, Interests",39.5896,-78.9486
Michelle,Reed,F,M,19,"Kiteboarding, Windsurfing",36.9664,-109.3828
Scott,Reyes,M,F,22,"Glassblowing, Choreography, Skydiving, Sculpting, Physics",38.0659,-75.4134
David,Brock,M,B,28,"Volleyball, Music, Hang gliding",40.4085,-92.6892
Mary,Johnson,F,B,39,"Kiteboarding, Video editing, Financial analysis, Jogging, Filmography",41.2547,-76.955
Larry,Watkins,M,F,18,"Hang gliding, Field hockey, Physics",39.1237,-121.0523
Michelle,Calderon,F,F,22,"Fishing, Horseback riding, Polo, Video games",39.8625,-80.8098
Jimmy,Lewis,M,F,28,"Jazz, Table tennis, Pinball",28.6451,-82.262
Sarah,Baker,F,M,18,"Marathons, Yachting, Blacksmithing",37.0678,-96.0147
Sheena,Martinez,F,M,35,"Squash, Skateboarding, Mixology",39.6878,-77.7173
Brian,Braun,M,B,31,"Ballet, Theater",26.2346,-97.5818
Heather,Glover,F,M,23,"Table tennis, Sailing, Gaming, Surfing",40.4166,-105.0623
Joseph,Castro,M,M,30,"Baking, Physics, Sketching, Landscaping",38.403,-120.6571
Heather,Marquez,F,M,28,"Triathlons, Skateboarding, Table tennis, Basketball, Card games",41.5822,-121.913
Brendan,Galvan,M,B,29,"Interests, Gardening",40.5535,-76.386
Derrick,Cabrera,M,B,22,"Triathlons, Photography, DJing, Bar tending, Baseball",28.2626,-97.6854
John,Sweeney,M,M,38,"Public relations, Mountain biking, Muay Thai",40.1199,-80.4131
Andrew,Harris,M,M,26,"Floristry, Fashion design, Air hockey, Jujitsu, Ballet",36.6831,-76.9386
Lisa,Lowe,F,F,21,"Glassblowing, Journalism, Hunting, Teaching, Yoga",41.1096,-83.9674
Rebecca,Howell,F,F,33,"Surfing, Nature Photography, Ceramics",37.328,-119.5665
Sean,Levine,M,F,28,"Meditation, Badminton, Landscaping",38.017,-77.5593
Jamie,Gutierrez,F,B,39,"Triathlons, Board games",26.7219,-81.4506
Regina,Atkinson,F,B,34,"Filmography, Ballet, Marathons, Poetry, Wrestling",29.6541,-97.8
Caroline,Johnston,F,B,32,"Nature, Rappelling, Diving, Orienteering, Rock Climbing",43.6005,-116.2308
Nicholas,Lloyd,M,M,30,"Ballroom dancing, Art, Web design",41.6559,-91.5303
Jason,Graham,M,M,18,"Polo, Kickboxing",39.8415,-96.5199
Brandy,Reed,F,F,32,"Snowboarding, Paragliding, Sewing, Swimming, Music",29.4479,-82.468
David,Thomas,M,B,24,"Mobile app development, Board games, Bar tending",40.7492,-86.8743
Fernando,Young,M,B,31,"Fishing, Kickboxing, Puzzle solving, Badminton",38.2955,-85.5857
Robert,Trevino,M,M,19,"Acting, Lacrosse",42.5376,-121.9216
Edward,Hall,M,M,30,"Art, Astronomy, Improv",47.279,-122.7745
Leslie,Ross,F,B,24,"Data analysis, Improv, Jogging",34.3579,-86.0037
Michael,Bradley,M,F,21,"Basketball, Video games",36.7857,-92.5685
Matthew,Ashley,M,B,31,"Knitting, Hunting, Surfing, Rock Climbing",44.2498,-107.6148
Chelsea,Tate,F,M,30,"Rock Climbing, Ice skating",39.2595,-104.9825
Sandra,Glenn,F,M,22,"Escape rooms, Triathlons, Sewing, Writing",36.5744,-90.6055
John,Jones,M,B,38,"Wrestling, Sewing",42.6854,-75.3113
Brian,Taylor,M,B,19,"Woodworking, Ceramics, Ballet, Lacrosse",33.7397,-81.1052
Jasmine,Ortega,F,M,37,"Theater, Data analysis",39.3633,-84.3767
Miguel,Smith,M,B,34,"Roller hockey, Jujitsu, Theatre, Hunting, Guitar",37.3689,-81.0961
Rachel,Savage,F,M,22,"Card games, Skateboarding",41.2054,-92.8843
Tracy,Reyes,F,F,28,"Food criticism, Biking",45.7588,-109.7799
Leonard,Phelps,M,B,25,"Reading, Board games, Video editing, Table tennis, Food styling",46.5516,-116.9284
Richard,Decker,M,M,30,"Soccer, Pinball",45.9819,-108.0272
Eric,Henry,M,B,30,"Lacrosse, Improv",39.2197,-94.4515
Courtney,Nicholson,F,M,32,"Gymnastics, Roller hockey",38.1872,-87.7086
Ashley,Long,F,F,28,"Running, Water polo, Movies, Video games",43.226,-75.4909
Teresa,Patrick,F,F,25,"Treasure hunting, Badminton, Interests, Singing",40.8297,-73.1128
James,Davis,M,M,31,"Swimming, Billiards, DJing, Calligraphy, Astronomy",34.235,-79.149
Heidi,Meyers,F,M,22,"Self defense, Sketching, Data analysis, Geocaching, Glassblowing",36.9403,-121.7953
Ian,Copeland,M,F,21,"Pool, Video games, Writing, Food criticism",36.7401,-107.9734
Stephanie,Short,F,M,39,"Dancing, Floristry",40.3238,-80.0364
Corey,Taylor,M,M,38,"Triathlons, Video editing, Filmography, Choreography",36.5011,-77.0073
Derek,Lara,M,F,22,"Interior design, Air hockey, Fitness, Fishing, Hunting",26.3408,-98.7354
Jeff,Johnson,M,B,38,"Windsurfing, Gardening",40.3328,-98.4483
Barbara,Dyer,F,B,18,"Food styling, Sketching",27.3537,-81.7895
Eric,Murphy,M,F,18,"Boxing, Golf, Art, Martial arts",41.3067,-73.3831
Carrie,Richardson,F,M,21,"Boxing, Nature, Letterboxing",46.5039,-99.7683
Joseph,Montoya,M,M,37,"Theatre, Card games, Windsurfing, Escape rooms, Stand-up comedy",41.5716,-97.8612
Dominique,Fields,F,F,23,"Public relations, Surfing, Cooking",43.3417,-96.3037
Melissa,Keith,F,F,24,"Mathematics, Biking, Roller hockey, Photography",21.3294,-157.846
Nancy,Henry,F,F,27,"Bar tending, Computer programming",32.4317,-97.1018
Brian,Ward,M,M,39,"Guitar, Dancing",44.7189,-89.6803
Michael,Mccarthy,M,M,31,"Pool, Woodworking, Orienteering, Mathematics",34.6861,-120.4404
Ricky,Gonzalez,M,M,22,"Salsa, Surfing",39.3198,-76.3856
Tiffany,Haynes,F,F,23,"Singing, Movies, Skateboarding",33.795,-84.2634
Jennifer,Thompson,F,B,33,"Swimming, Art history, Music, Rugby, Reading",41.1349,-92.908
Shannon,Wolfe,M,F,36,"Gaming, Wrestling, Martial arts, Horseback riding",41.0927,-84.3747
Johnny,Simon,M,M,39,"Bouldering, Reading, Air hockey, Rugby",31.9372,-81.0449
William,Nguyen,M,M,39,"Windsurfing, DJing, Jujitsu, Food criticism",46.8656,-124.1054
Nicole,Smith,F,M,23,"Diving, Ceramics",39.9233,-77.2999
Robert,Cummings,M,F,32,"Bar tending, Ballroom dancing, Nature Photography, Shuffleboard, Treasure hunting",34.2217,-85.5882
Laurie,Jones,F,F,23,"Football, Glassblowing, Journalism",43.0041,-84.7411
Virginia,Smith,F,B,33,"Guitar, Meditation",29.6188,-99.5153
Teresa,Garcia,F,B,30,"American football, Rappelling, Art, Floristry",37.659,-120.3329
Renee,Reed,F,F,29,"Kiteboarding, Meditation, Guitar",36.9004,-95.9253
Larry,Peters,M,F,28,"Water polo, Watercolor",35.9412,-121.0802
Jeffery,Stokes,M,M,32,"Ceramics, Poetry, Movies",43.9095,-95.046
Benjamin,Schwartz,M,M,32,"Escape rooms, Physics",42.3896,-93.7278
Lori,Jones,F,B,34,"Ethical hacking, Board games, Journalism",44.5847,-68.4875
David,Collins,M,F,25,"Basketball, Table tennis, Sculpting, Skateboarding, Martial arts",39.9119,-75.253
Justin,Rodriguez,M,M,30,"Lacrosse, Squash, Travel, Stock trading",47.5194,-122.6183
Amber,Murphy,F,F,31,"Web design, Ballroom dancing, Fitness, Sculpting",35.2769,-116.0717
Randy,Gould,M,F,29,"Ice skating, Literature, Movies, Gardening",34.5416,-102.1021
Gerald,Robinson,M,B,28,"Triathlons, Glassblowing, Pilates",32.528,-85.0943
Morgan,Wilson,F,B,26,"Roller hockey, Synchronized swimming",34.6656,-83.0911
Megan,Wheeler,F,M,32,"Baking, Diving, Woodworking",41.2403,-90.8186
Danielle,Harrison,F,B,27,"Meditation, Knitting",38.9677,-76.2824
Edwin,Oneill,M,F,37,"Movies, Field hockey",38.52,-78.8358
Jerry,Brady,M,F,26,"Salsa, Fitness, Sewing",32.1748,-112.3664
Tammy,Leonard,F,M,31,"Dancing, Web design, Nature Photography, Singing, Fashion design",36.4432,-121.3426
Donna,Sullivan,F,M,38,"Water polo, Rappelling, Astronomy, Hang gliding",37.274,-96.95
Hannah,Webb,F,B,20,"Sculpting, Stand-up comedy, Computer programming, Marathons",41.0426,-78.4466
Carl,Bailey,M,M,18,"Jazz, Stand-up comedy, Marketing, Guitar",33.0408,-112.0011
Natalie,Blackwell,F,B,35,"Fitness, Kayaking, Yoga",42.6401,-92.0477
Natasha,Ellis,F,M,36,"Escape rooms, Bowling, Kickboxing, Writing",48.389,-122.2435
Richard,Scott,M,B,25,"Baseball, Roller hockey",43.4087,-103.3958
Alex,Daugherty,M,M,39,"Orienteering, Filmography, Astronomy",44.7648,-93.2793
Angela,Patton,F,F,19,"Theater, Rugby, Mountain biking, Guitar",35.0529,-93.3902
Jenny,Lopez,F,B,24,"Geocaching, Interior design",46.6685,-85.9751
Elizabeth,Powell,F,M,19,"Painting, Physics, Geocaching, Rock climbing",35.6495,-95.6535
Jonathan,Chen,M,F,25,"Improv, Knitting, Yachting",46.9778,-96.2584
Kevin,Kaufman,M,F,19,"Water polo, Polo",31.1591,-83.7708
Gloria,Pena,F,M,25,"Art, Gymnastics, Journalism",37.6622,-85.9522
Deborah,Walker,F,M,28,"Music production, Interior design, Food styling, Diving",46.0653,-88.6266
Brittany,Mccoy,F,B,21,"Web design, Hang gliding, Filmmaking",40.3902,-79.7215
Jill,Barnett,F,F,26,"Escape rooms, Martial arts, Salsa",41.0737,-81.9047
Gregory,Johns,M,F,35,"Financial analysis, Golf, Squash, Computer programming",59.4396,-151.7111
Sylvia,Ho,F,F,22,"Wrestling, Skateboarding, Escape rooms, Cybersecurity, Boating",37.6902,-122.4021
Eric,Harvey,M,B,19,"Mountain biking, Hiking, Advertising, Geocaching",32.6749,-89.4529
Courtney,Berry,F,M,31,"Interior design, Interests, Badminton, Cooking",40.4818,-79.9736
Samantha,Guzman,F,F,27,"Bar tending, Swimming, Poetry",33.1563,-85.2862
Christopher,Harris,M,B,39,"Paragliding, Fitness, Kiteboarding, Movies",38.5913,-76.7074
Cassandra,Snyder,F,F,20,"Cycling, Nature, Rock Climbing, Rock climbing, Theater",32.4258,-96.6724
Alexis,Griffin,F,B,38,"Cybersecurity, Gymnastics",38.0645,-78.6961
Christine,Benson,F,B,22,"Board games, Advertising, Ice skating",33.7877,-86.0281
Jason,Douglas,M,M,21,"Pool, Jazz, Gymnastics, Squash, Wine tasting",48.3036,-98.3684
Amber,Martin,F,M,36,"Data analysis, Martial arts, Biking",40.5212,-75.7772
Kimberly,Gibbs,F,M,28,"Wine tasting, Teaching",29.5091,-98.3084
Lawrence,Castillo,M,F,33,"Soccer, Music production",32.7093,-96.0052
Keith,Richards,M,M,32,"Baking, Journalism, Investment banking, Video games, Kiteboarding",42.2158,-74.3899
Richard,Perry,M,F,20,"Billiards, Kiteboarding, Glassblowing, Letterboxing, Writing",28.3698,-81.3467
Zachary,Barron,M,B,30,"Roller hockey, Synchronized swimming, Art, Music production",47.9875,-122.0748
Kelly,Olson,F,F,24,"Skiing, Computer programming, Weightlifting, Movies",33.156,-95.1147
Sarah,Ho,F,B,34,"Fashion design, Air hockey, Bar tending, Teaching",34.1749,-86.1125
Karen,Klein,F,F,18,"Cooking, Watercolor, Hang gliding, Astrophysics",39.9968,-96.3493
Christopher,Gutierrez,M,F,21,"Muay Thai, Weightlifting, Equestrian",28.4042,-82.5468
Kimberly,Edwards,F,B,35,"Wrestling, Knitting, Filmography, Meditation",41.2404,-82.1175
Kimberly,Austin,F,M,30,"Equestrian, Drawing, Sailing, Pottery",33.447,-85.6746
Samuel,Cruz,M,F,19,"Journalism, Bouldering",40.1107,-88.1973
Ray,Roberts,M,F,19,"Writing, Meditation, Soccer",37.3146,-89.4335
Randall,Brown,M,F,32,"Kayaking, Ice skating, Ethical hacking, Windsurfing",39.8807,-80.2695
Leah,Velasquez,F,B,31,"Roller hockey, Fishing, Puzzle solving, Journalism",41.6191,-73.7944
Brandon,Villanueva,M,F,38,"Rock Climbing, Stock trading, Darts, Fitness, Ceramics",30.7567,-81.5722
Tiffany,Richards,F,B,19,"Polo, Air hockey",33.2622,-93.8852
Dawn,Sellers,F,M,32,"Roller hockey, Escape rooms, Jazz, Board games",42.2813,-93.1716
Ronald,Franklin,M,F,38,"Jujitsu, Muay Thai",40.6548,-74.3053
Robert,Warren,M,B,38,"Music, Surfing",36.3828,-87.6403
Kelsey,Padilla,F,M,31,"Geocaching, DJing, Horseback riding, Literature",28.9828,-97.5051
Emily,Pierce,F,B,30,"Mobile app development, Football, Stock trading, Shuffleboard",40.7892,-76.1729
David,Thornton,M,B,27,"Martial arts, Photography, Card games",28.6563,-99.8077
Brooke,Watkins,F,B,39,"Ethical hacking, Literature, Marketing",27.2948,-82.4323
Howard,Jordan,M,F,39,"Fitness, Bar tending, Karate",40.3263,-80.8955
Nathan,Hayes,M,M,35,"Squash, Acting",34.9301,-95.7189
Jackie,Carpenter,F,M,36,"Judo, Pilates, Pinball, Meditation, Gardening",42.9553,-91.6354
Lisa,Butler,F,F,20,"Interior design, Filmmaking, Drawing, Video editing",30.0731,-90.4758
Joel,Willis,M,F,32,"Filmography, Knitting, Woodworking, Glassblowing",41.7842,-70.5332
Rebecca,Alvarez,F,F,34,"Skateboarding, Advertising, Data analysis, Sketching, Filmmaking",38.5471,-79.8278
Jill,Tucker,F,M,38,"Jujitsu, Rappelling, Paragliding, Art history",33.9851,-89.896
Cynthia,Berry,F,M,27,"Pilates, Cybersecurity, Data analysis, Gaming, Acting",38.7439,-90.3361
Tiffany,Snyder,F,B,34,"Stock trading, Polo",32.7703,-117.0204
Rita,Rodriguez,F,B,35,"Investment banking, Painting",36.9236,-97.3358
Denise,Mitchell,F,B,21,"Card games, Painting",40.7279,-75.3919
Jared,Ramirez,M,B,38,"Judo, Knitting",39.1254,-91.0574
Bryan,Elliott,M,B,27,"Travel, Geocaching, Road cycling, Pinball",46.2527,-114.1598
Jimmy,Johnson,M,F,19,"Rock climbing, Ceramics, Investment banking, Bouldering, Music",40.9239,-74.3035
William,Stevenson,M,F,33,"Video games, Cycling",39.2927,-84.5757
Kimberly,Wilson,F,M,29,"Karate, Horseback riding, Fitness",34.9946,-85.4868
Andrea,Nelson,F,F,34,"Improv, Marketing",31.8944,-84.5117
Samuel,Davis,M,B,27,"Air hockey, Wine tasting, Running, Music, Pottery",42.5376,-121.9216
Andrew,Key,M,B,23,"Acting, Pinball, Ceramics",40.881,-85.5063
Louis,Mann,M,F,23,"Reading, Ice skating, Cybersecurity, Video editing",60.7928,-161.7917
Rebecca,Lopez,F,M,34,"Muay Thai, Badminton, Financial analysis, Filmography, Astronomy",35.4449,-78.4159
Amber,Murphy,F,M,39,"Physics, Ethical hacking",37.5026,-120.2388
Benjamin,Hensley,M,F,38,"DJing, Card games, Literature, Boxing",34.0885,-87.2075
Ian,Pugh,M,F,23,"Horseback riding, Kayaking, Salsa, Surfing",46.1697,-119.0447
Ryan,Turner,M,B,35,"Running, Stock trading",34.994,-81.8421
Stacey,Cook,F,B,28,"Computer programming, Music, Kickboxing",35.5391,-79.78
Candace,Fisher,F,B,21,"Golf, Interior design",41.1969,-90.8788
Eddie,Oliver,M,B,26,"Snowboarding, Swimming, Badminton, Meditation",37.7157,-88.1866
Jasmin,Scott,F,B,35,"Travel, Writing, Badminton, Mixology",38.4351,-81.7707
Melissa,Berry,F,B,38,"Dancing, Photography",46.4368,-109.8353
Sabrina,Moore,F,M,21,"Hang gliding, Interests, Rock climbing",48.1678,-116.7529
Jennifer,Soto,F,B,23,"Food styling, Baking",40.8412,-74.7102
Cameron,Clark,M,B,18,"Treasure hunting, Dancing, Travel, Advertising",33.6517,-91.0087
Sean,Costa,M,B,38,"Badminton, Data analysis",39.9449,-84.8307
Shawn,Villanueva,M,B,18,"Nature Photography, Music production, Kiteboarding, Pottery",32.238,-84.3089
Karen,Ellis,F,M,23,"Equestrian, Reading, Skydiving, Acting, Sailing",39.494,-84.2852
Tara,Miller,F,B,35,"Ceramics, Treasure hunting, Air hockey",44.6645,-86.2498
Janet,Cole,F,F,33,"Orienteering, Marketing, Sailing",35.7595,-83.3886
Stephen,Lee,M,M,20,"Advertising, Pottery, Music, Jazz",27.9772,-97.7766
Victoria,Farmer,F,B,38,"Baseball, Data analysis, Pottery, Singing, Boating",31.9087,-99.0207
John,Vargas,M,M,19,"Watercolor, Knitting, Martial arts",37.6873,-95.8958
Kimberly,Brady,F,F,24,"Art, Rugby, Shuffleboard, Cycling, Poetry",41.0003,-77.8142
Robert,Leach,M,F,24,"Marketing, Acting, Ballroom dancing, Equestrian, Bouldering",39.1153,-104.906
Amy,Schneider,F,B,29,"Polo, Ice skating",42.9869,-84.1445
Anthony,Turner,M,B,26,"Computer programming, Treasure hunting, Financial analysis, Public relations",38.3686,-80.5973
Anna,Thomas,F,M,21,"Biking, Synchronized swimming, Physics",36.6018,-89.622
Nathan,Adams,M,M,28,"Calligraphy, Boating, Music",37.7156,-98.3202
David,Kaufman,M,B,36,"Data analysis, Volleyball, Baking, Lacrosse, Woodworking",41.2856,-96.285
Todd,Bowman,M,F,25,"Rock Climbing, Teaching, Jogging",38.2807,-77.1896
Catherine,Jones,F,F,34,"Web design, Floristry, Theatre, Video games",41.2901,-91.5545
Leah,Murphy,F,F,27,"Jogging, Glassblowing, Karate",42.3499,-76.8484
Brandi,Smith,F,M,30,"Theatre, Pottery, Baking, Badminton, Orienteering",37.1655,-118.2951
Shannon,Turner,F,F,29,"Acting, Geocaching, Pottery, Snowboarding",38.2183,-108.5665
Jaime,Evans,M,B,38,"Surfing, Diving, Knitting, Road cycling",34.9112,-111.4527
Mitchell,Brown,M,B,20,"Billiards, Yachting, Lacrosse, Food styling, Marathons",35.4252,-93.7568
Edwin,Harrison,M,M,36,"Karate, Pinball, Billiards",41.069,-87.606
Louis,Avila,M,F,38,"Bouldering, Windsurfing",29.6795,-83.3837
Jennifer,Gonzalez,F,F,31,"Pottery, Dancing, Marketing, Muay Thai, Skiing",44.6016,-74.9738
Donald,Heath,M,M,22,"Rock Climbing, Pottery",34.6555,-90.7349
Kristen,Simpson,F,B,31,"Art history, Astrophysics",38.791,-76.5469
Lori,Hines,F,F,37,"Fashion design, Singing",41.4913,-78.6791
Gabriel,Davis,M,F,24,"Calligraphy, Blacksmithing, Boating",37.945,-122.314
Evan,Brown,M,M,21,"Video games, Baseball, Acting, Weightlifting, Jazz",42.4508,-84.4334
Shannon,Thomas,F,F,38,"Movies, Letterboxing",29.0011,-82.1953
Charles,Scott,M,B,34,"Floristry, Self defense, Jogging",35.6068,-103.1043
Amber,Black,F,M,36,"Food styling, Food criticism",35.8692,-84.6731
Rebecca,Kramer,F,F,30,"Meditation, Ethical hacking, Jujitsu, Marketing",44.5605,-90.5906
James,Lee,M,B,31,"Data analysis, Diving, Table tennis, Sewing",35.9053,-81.086
Margaret,Bailey,F,M,28,"Badminton, Sailing, Judo, Mixology",36.9342,-112.9118
Jasmine,Long,F,M,33,"Self defense, Kickboxing, Fitness, Board games, Golf",33.0396,-111.5798
Ricardo,Torres,M,B,19,"Investment banking, Nature Photography, Yoga, Golf, Landscaping",39.9937,-81.7381
Barbara,Foster,F,B,24,"Escape rooms, Marathons, Blacksmithing",41.4977,-87.509
William,Ray,M,B,39,"Hang gliding, Yachting, Swimming, Gaming, Data analysis",43.2488,-76.7225
John,Ray,M,B,27,"Rappelling, Web design, Fitness",39.6627,-75.0782
Crystal,Johnson,F,F,20,"Wrestling, Cybersecurity",36.2336,-80.8351
Daniel,Hernandez,M,F,25,"Cooking, Woodworking, Food styling, Air hockey",41.0225,-73.6564
Laura,Cruz,F,M,18,"Letterboxing, Nature, Card games, Journalism, Fashion design",40.603,-74.5751
Paul,Trevino,M,F,26,"Pinball, Travel, Badminton, Financial analysis, Journalism",30.4881,-88.5056
Katie,Alexander,F,M,21,"Puzzle solving, Marketing",43.9648,-111.6841
Mary,Spencer,F,B,25,"DJing, Road cycling, Acting, ",39.7035,-78.5756
Margaret,Berry,F,B,34,"Hiking, Windsurfing, Snowboarding, Filmography, Acting",41.6873,-97.9989
Samantha,Perry,F,M,29,"Baseball, Sailing, Poetry, Physics",37.9962,-88.947
Monica,Mccoy,F,F,36,"Swimming, Kiteboarding, Hunting",36.9314,-82.6262
Sandra,Griffin,F,F,23,"Card games, Writing",32.3187,-82.5595
Jeffery,Bishop,M,F,36,"Badminton, Photography",40.8319,-76.2062
Carlos,Evans,M,F,24,"Yachting, Video editing, Travel",39.26,-106.3112
Mary,Dillon,F,F,33,"Air hockey, Mixology",40.8465,-84.3368
Mark,Frazier,M,F,21,"Ballet, Photography, Table tennis, Kayaking",18.4491,-66.7387
Mary,Watkins,F,B,27,"Escape rooms, Karate",34.0185,-82.5045
Daisy,Byrd,F,B,26,"Nature Photography, Travel, Financial analysis",40.6948,-81.7021
Sharon,Wallace,F,M,29,"Reading, Board games, Roller hockey",44.6779,-123.0691
Christopher,Carson,M,B,37,"Basketball, Filmography, Sculpting, Knitting, Astrophysics",47.7968,-122.0281
Kevin,Weiss,M,M,37,"Choreography, Theatre",40.2721,-79.8952
Austin,Griffin,M,M,32,"Snowboarding, Rock climbing",35.4855,-96.8951
Amanda,Griffin,F,B,31,"Yachting, Marketing, Drawing",36.0128,-105.8566
David,Ellison,M,F,36,"Darts, Badminton, Jogging, Self defense, Travel",42.8095,-77.2582
Daniel,Robinson,M,M,37,"Hunting, Ice skating, Literature",35.534,-86.0832
Ashley,Mcclure,F,B,18,"Basketball, Theater",29.3872,-95.2938
Timothy,Terry,M,B,29,"Gardening, Kiteboarding, Computer programming",36.8782,-82.2879
Cassandra,Clark,F,B,21,"Food criticism, Horseback riding, Interior design, Bouldering",41.1539,-73.2695
Shane,Moses,M,M,37,"Squash, Mixology, Food styling, Photography, Jujitsu",41.2993,-86.1167
David,Whitney,M,F,27,"Watercolor, Web design, Gaming",39.5463,-106.3871
James,Gonzales,M,B,37,"Ice skating, Bar tending",40.4398,-75.3455
Christy,Garcia,F,M,36,"Golf, Orienteering, Ice skating, Yoga, Rugby",26.251,-81.711
Jordan,Hunt,M,F,27,"Data analysis, Ballet, Golf, Basketball",37.8385,-81.1986
Jose,Johnson,M,F,25,"Food criticism, Judo",35.6123,-87.8429
Carolyn,Wilson,F,M,36,"Rugby, Music, Kiteboarding, Journalism, Photography",46.8917,-124.1118
Danielle,Todd,F,B,33,"Karate, Interior design",36.338,-106.1844
Ivan,Larsen,M,M,21,"Cooking, Skydiving, Pinball",39.4041,-76.9528
Jennifer,Jones,F,B,27,"Filmmaking, Shuffleboard, Badminton",37.7221,-89.2237
Daniel,Wells,M,F,20,"Travel, Running, Calligraphy, Sailing, Investment banking",39.5393,-79.0082
Kathleen,Thomas,F,F,39,"Weightlifting, Art history",43.9706,-91.2654
Allison,Reese,F,M,35,"Pinball, Sewing, Skydiving, Puzzle solving",26.4308,-81.9146
David,Welch,M,B,37,"Water polo, Orienteering, Judo",40.1565,-104.9494
Tammy,Larson,F,F,23,"Writing, Sailing",38.3361,-90.9712
Jacob,Edwards,M,M,18,"Ballroom dancing, Mathematics, Polo, Yoga",34.0787,-91.6976
Christy,Smith,F,B,19,"Skateboarding, Journalism, Darts",39.6247,-78.2275
Larry,Nelson,M,F,33,"Writing, Sketching, Synchronized swimming, Ethical hacking, Food styling",35.7757,-81.3669
Scott,Kelley,M,F,39,"Mathematics, Poetry, Wine tasting, Journalism, Physics",41.1535,-87.2881
Timothy,Garcia,M,F,36,"Wrestling, Hang gliding, Geocaching, Judo",43.3982,-88.532
Julie,Jones,F,M,18,"Jogging, Salsa",39.9232,-105.5136
Nicole,Willis,F,M,38,"Judo, Jujitsu, Web design, Yachting, Running",39.0269,-97.2598
Dustin,Wilson,M,M,29,"Nature Photography, Painting, Board games, Rugby, Football",38.4977,-77.8899
Savannah,Murphy,F,F,20,"Yachting, Nature Photography",43.2534,-70.8856
James,Hill,M,F,37,"Jujitsu, Financial analysis, DJing, Skiing, Music",42.8386,-97.8495
Gregory,Howard,M,M,31,"Jazz, Martial arts, Theater, Meditation",43.9511,-86.2798
Lisa,Morales,F,M,37,"Basketball, Movies, Roller hockey, Swimming, Financial analysis",39.3829,-89.0642
Nicole,Roberts,F,F,26,"Wrestling, Golf, Rappelling, Skateboarding",40.07,-80.9983
Mark,Stevens,M,M,33,"Teaching, Investment banking, Shuffleboard, Dancing, Boxing",36.6565,-119.5981
Mary,Saunders,F,M,32,"Bar tending, Field hockey, Calligraphy, Volleyball, Board games",46.0082,-98.1254
Joann,Martinez,F,F,25,"Darts, Video editing",43.8038,-99.3721
Michael,Wang,M,F,34,"Landscaping, Stand-up comedy, Rugby, DJing",40.2009,-96.6584
Gary,Powell,M,M,18,"Wine tasting, Ceramics, Badminton, Judo, Tennis",42.4482,-122.1096
Melvin,Hall,M,B,20,"Photography, Diving, Music, Synchronized swimming",43.0775,-98.9467
Mitchell,Long,M,F,26,"Interests, Painting, Interior design, Calligraphy",44.6669,-96.6252
Andrea,Hall,F,B,29,"Basketball, Soccer",43.7424,-88.868
Martin,Walsh,M,B,22,"Wrestling, Baseball",48.5471,-109.731
Michele,Butler,F,M,31,"Improv, Yachting",29.4495,-83.2821
Eric,Gill,M,B,19,"DJing, Self defense, Bowling, Hunting, Stand-up comedy",39.3366,-102.0373
Christine,Mason,F,B,20,"Stand-up comedy, Windsurfing, Floristry, Jogging, Card games",42.1064,-87.7421
Gerald,Herring,M,M,34,"Water polo, Food styling, Letterboxing, Horseback riding",64.3223,-158.7436
Kaylee,Walker,F,F,23,"Glassblowing, Interior design, Volleyball, Golf",36.0325,-94.9559
Robin,Jones,F,B,23,"Nature, Marketing, Fashion design",40.4454,-74.1699
Donald,Clarke,M,M,36,"Basketball, Soccer, Lacrosse, Salsa",41.1172,-89.3569
Kristy,Sims,F,F,36,"Hiking, Web design, Equestrian, Cooking, Public relations",36.0076,-118.1099
Kara,Wilson,F,M,39,"Yoga, Lacrosse, Calligraphy, Mobile app development, Floristry",31.2031,-81.5155
Erin,Johnson,F,B,32,"Boxing, Kayaking, Rugby, Floristry, Soccer",40.719,-116.1081
Christina,Rodriguez,F,B,33,"Interior design, Billiards, Landscaping, Marketing",33.2256,-98.1594
Curtis,Moore,M,M,31,"Kickboxing, Shuffleboard, Running, Kiteboarding, Astrophysics",45.8662,-96.7318
Michael,Blankenship,M,B,20,"Pottery, Ceramics",31.4342,-86.9723
Stephanie,Berry,F,M,20,"Acting, Hunting",47.177,-88.436
Karen,Lopez,F,B,28,"Knitting, Movies, Filmmaking, Stand-up comedy",26.5782,-81.8614
Tyler,Molina,M,F,19,"Data analysis, Photography, Kayaking, Baking, Pinball",47.6459,-117.5792
Isaiah,Greene,M,M,31,"Skateboarding, Boating, Mathematics, Public relations, Diving",40.8588,-76.8939
Lee,Harris,M,F,29,"Teaching, Field hockey, Marketing",44.1613,-75.0363
Jordan,Moore,F,M,24,"Swimming, Ballroom dancing, Pool",34.108,-84.0558
Victor,Thomas,M,B,27,"Hang gliding, Skydiving",39.9536,-105.578
Tammy,Santos,F,B,25,"Mountain biking, Kiteboarding",28.4461,-99.7604
Debra,Fisher,F,F,32,"Hiking, Investment banking, Journalism, Kayaking, Triathlons",41.5786,-90.3399
James,Simon,M,M,22,"Computer programming, Fishing, Skiing, Ceramics, Astrophysics",47.3848,-117.1748
Stephanie,Jones,F,F,22,"Public relations, Bouldering, Gardening, Investment banking, Advertising",38.2444,-98.3118
Derrick,Goodwin,M,M,18,"Drawing, Public relations, Weightlifting, ",39.1622,-97.886
Jerry,Larson,M,F,37,"Movies, Sculpting",36.3868,-79.975
Ashley,Flores,F,B,35,"Running, Self defense, Ballet, Poetry",40.1484,-92.3787
Christopher,Hoffman,M,M,20,"Jogging, Salsa, Yachting, Treasure hunting",34.0968,-117.4599
Troy,Warren,M,M,35,"Baseball, Ice skating",39.8566,-75.3342
Teresa,Munoz,F,B,32,"Rock Climbing, Surfing, Interests, Stock trading, Road cycling",37.5442,-86.1514
Michael,Aguilar,M,B,20,"Roller hockey, Floristry, Salsa",39.0047,-94.0659
Christopher,Mcdowell,M,B,39,"Salsa, Acting, Marketing, Fashion design, Judo",27.0576,-82.1977
Dustin,Silva,M,F,22,"Meditation, Photography",44.8422,-87.5744
Jennifer,Cochran,F,M,31,"Martial arts, Astrophysics, Fashion design, Sketching",42.5792,-72.4925
Jesse,Wilson,M,F,33,"Photography, Rock climbing, Singing",39.1548,-108.7305
Laurie,Garcia,F,F,37,"Meditation, Gymnastics, Basketball, Stand-up comedy, Sketching",41.6496,-70.2487
Christine,Davis,F,B,19,"Jujitsu, Mathematics",38.6881,-121.2209
Brian,Smith,M,F,26,"DJing, Reading",42.9318,-74.6099
Brian,Smith,M,F,24,"Marathons, Music, Boxing",38.9463,-83.4094
Misty,Tapia,F,M,20,"Watercolor, Art, Boxing, Equestrian",40.5887,-73.666
Jackie,Richardson,F,B,34,"Windsurfing, Teaching, Ice skating",35.5116,-78.7402
Courtney,Dunn,F,M,32,"Kiteboarding, Kickboxing, Ceramics",39.6874,-74.9786
Melissa,Hernandez,F,M,27,"Woodworking, Road cycling",31.4366,-106.1033
Joseph,Chavez,M,B,26,"Advertising, Watercolor, Guitar, Sailing, Teaching",35.2971,-90.2103
Shannon,Mckee,F,M,23,"Fashion design, Art history",37.2304,-121.9562
Kimberly,Frederick,F,B,23,"Theatre, Astronomy, Escape rooms, Rappelling, Photography",18.1278,-66.4819
Laura,Adkins,F,F,35,"Ethical hacking, Theatre, Salsa, Orienteering, DJing",34.6562,-78.7231
Antonio,Hardin,M,B,19,"Watercolor, Wrestling, Puzzle solving",40.4325,-75.4056
Marvin,Patterson,M,M,18,"Public relations, Literature",44.2125,-88.4271
Amy,Phillips,F,F,37,"Dancing, Art",39.1147,-93.201
Barbara,Smith,F,B,18,"Martial arts, Interior design, Treasure hunting",39.0597,-86.5108
John,Finley,M,B,31,"Web design, Rappelling",33.8486,-108.6141
David,Monroe,M,B,30,"Fashion design, Ballet",31.1279,-95.4456
Linda,Brown,F,F,27,"Computer programming, Advertising",30.3566,-83.9937
Christopher,Campbell,M,M,37,"Acting, Kickboxing, Squash",45.03,-117.9205
Jose,Smith,M,B,18,"Fitness, Card games, Advertising, Diving",37.9666,-98.0922
Wendy,Burgess,F,M,18,"Horseback riding, Surfing, Mixology, Glassblowing, Mobile app development",42.6744,-88.2721
Alyssa,Henry,F,B,29,"Food criticism, Board games, Baking, Orienteering, Baseball",36.4854,-93.9365
Tara,Cooke,F,F,35,"Horseback riding, Computer programming, Triathlons, Pool",41.6702,-89.9348
Regina,Morales,F,B,22,"Weightlifting, Golf",30.3369,-94.06
Isaiah,Nelson,M,B,31,"Hunting, Skydiving, Dancing",39.8408,-76.6175
Tiffany,Walker,F,F,28,"Stand-up comedy, Astronomy, Martial arts, Carpentry",39.9815,-77.2494
Brian,Davis,M,F,21,"American football, Fitness, Card games",39.0698,-122.7746
Tina,Brown,F,B,32,"Web design, Jazz",33.0149,-99.0534
Elizabeth,Collier,F,M,22,"Writing, Reading, Nature Photography",35.1098,-95.1065
Michael,Parks,M,M,38,"Hang gliding, Skydiving, Jogging, Letterboxing",33.5703,-97.0129
Donna,Smith,F,B,25,"Swimming, Gymnastics, Board games",43.997,-96.9645
Jaime,Mendoza,F,F,24,"Billiards, Data analysis, Jazz, Theater",38.7927,-92.2479
Kimberly,Peterson,F,F,25,"Karate, Letterboxing",39.9651,-76.7315
Melissa,Potter,F,B,31,"Interests, Sketching, Drawing, Puzzle solving, ",48.5437,-109.8068
Donald,Dickerson,M,F,19,"Volleyball, Cooking, Surfing, Computer programming",30.5661,-84.5858
John,Rowe,M,B,28,"Hang gliding, Synchronized swimming, Yoga, Yachting",32.9968,-87.6272
Paul,Petty,M,F,24,"Interests, Landscaping, Paragliding, Literature, Bouldering",47.051,-108.945
Stephanie,Huynh,F,B,34,"Theatre, Pool, Guitar, Paragliding, Sculpting",40.1916,-96.9743
Zachary,Burch,M,B,19,"Jazz, Gymnastics",35.4689,-119.2687
Andrew,Sanford,M,M,25,"Music, Weightlifting, Travel, Bar tending, Filmography",35.0246,-99.0875
Richard,Powell,M,F,22,"Improv, Mobile app development, Art, Dancing",34.5164,-81.9856
Sherry,Ford,F,M,38,"Video editing, Teaching, Muay Thai",40.3615,-74.9574
David,Parker,M,F,36,"Judo, Field hockey, Writing, Theatre",37.1581,-104.5501
Michelle,Stanley,F,M,37,"Data analysis, Carpentry",40.0367,-97.0232
Sara,Pena,F,F,38,"Escape rooms, Gardening, Guitar, Marketing, Music production",39.4667,-107.2599
Andrew,Wells,M,B,35,"Carpentry, Mixology, Nature Photography, Skiing",34.8965,-86.088
Mary,Cooley,F,M,18,"Boxing, Darts",40.8446,-73.405
Nicole,Brown,F,M,20,"Sailing, Marathons, Martial arts, Poetry, Muay Thai",33.0219,-86.3096
Aaron,Stewart,M,M,35,"Basketball, Salsa, Cooking, Squash",35.9355,-94.18
Theodore,Franklin,M,M,30,"Biking, Travel",38.3481,-88.5895
Kevin,Townsend,M,F,24,"Orienteering, Calligraphy",34.2609,-86.6083
Stephen,Williamson,M,M,25,"Advertising, Food styling, Skateboarding",43.2281,-86.2562
Sabrina,Stewart,F,M,28,"Poetry, Weightlifting",47.1417,-122.4376
Shannon,Jones,M,F,31,"Meditation, Astronomy",35.2474,-108.767
Jennifer,Sanchez,F,B,19,"Basketball, Badminton, Mathematics",47.9257,-112.2917
James,Perez,M,B,32,"Rappelling, Water polo, Blacksmithing",44.3134,-89.9073
Harry,Hanna,M,F,29,"Baking, Diving, Marathons, Rugby, Writing",42.7561,-106.5176
Brittany,Mitchell,F,B,30,"Puzzle solving, Bouldering",35.654,-91.0755
Jason,Lewis,M,F,25,"Rugby, Music",30.0791,-93.7598
Dawn,Moore,F,M,30,"Table tennis, DJing",34.3816,-78.3231
Valerie,Allen,F,B,23,"Yachting, Art, Nature",47.0909,-88.5828
Debbie,Stone,F,F,22,"Data analysis, Yoga, Paragliding, Poetry, Investment banking",41.1595,-80.5672
Tammy,Collins,F,M,39,"Mountain biking, Bar tending, Landscaping",36.3502,-77.3058
William,Tran,M,F,20,"Skydiving, Sailing, Ballroom dancing",42.483,-88.1491
Wendy,Powers,F,M,28,"Interests, Nature Photography, Music production, Ceramics",33.7341,-116.9969
Robert,Barnes,M,B,28,"Music production, Art, Stock trading",19.4067,-154.9214
Joshua,Thomas,M,M,22,"Marathons, Weightlifting, Public relations, Muay Thai",40.4733,-111.2533
Sarah,Durham,F,F,21,"Improv, Reading",39.0092,-84.4988
Ricky,Carrillo,M,M,20,"Pottery, Triathlons",41.6093,-74.2966
Gerald,Boone,M,M,39,"Basketball, Literature",33.5874,-102.1636
Tiffany,George,F,M,31,"Poetry, Self defense, Pottery, Ethical hacking",42.7444,-91.2621
Daniel,Beck,M,B,34,"Poetry, Jujitsu, Interests, Sailing, Baking",35.0349,-92.6945
Jennifer,Hess,F,F,29,"Glassblowing, Horseback riding, Diving, Martial arts",47.3176,-95.5428
Ralph,Spears,M,F,31,"Board games, Bar tending",48.5418,-121.4397
Jessica,Mcdaniel,F,F,32,"Acting, Advertising",44.4579,-123.1119
Kylie,Guzman,F,B,24,"Carpentry, Ice skating",47.9054,-91.8517
Deborah,Waters,F,M,32,"Rappelling, Nature, Financial analysis",45.5749,-96.0504
Christopher,Hamilton,M,M,35,"Food criticism, Physics, Darts",37.7149,-91.1295
Natasha,Moore,F,F,28,"Movies, Shuffleboard, Triathlons",39.965,-86.146
Nicole,Johnson,F,F,37,"Letterboxing, Theatre, American football",41.0742,-80.449
Cathy,Moore,F,M,37,"Gymnastics, Woodworking, Rugby, Wrestling, Boxing",41.5834,-92.5276
Daniel,Brown,M,B,20,"Rappelling, Shuffleboard, Football, Swimming",36.5204,-82.7151
Emily,Roth,F,B,28,"Astronomy, Glassblowing",57.8758,-152.8737
Chloe,Cooper,F,B,31,"Orienteering, Poetry, Photography, Air hockey",41.3869,-90.7637
Adam,Wagner,M,F,35,"Air hockey, Kiteboarding, Fashion design",40.4673,-78.1997
David,Hodges,M,F,30,"Triathlons, Improv, Ballet",26.3052,-98.6398
Cheryl,Decker,F,F,19,"Drawing, Nature Photography, Music production",44.9259,-93.4056
Aaron,Mosley,M,B,34,"Reading, Singing, Sculpting, Carpentry",35.3424,-88.8098
Francisco,George,M,F,39,"Yoga, Cybersecurity, Woodworking",35.3874,-94.6946
Teresa,Johnson,F,F,32,"Snowboarding, Gardening",40.9216,-75.0985
Marc,Green,M,M,30,"Bowling, Board games, Polo, Billiards",40.4136,-111.8725
Rachel,Bailey,F,F,19,"Pilates, Karate, Jazz, Mountain biking, Photography",36.1328,-94.1757
Rose,Rogers,F,F,34,"Blacksmithing, Muay Thai",45.5899,-111.1953
Thomas,Taylor,M,F,34,"Air hockey, Polo",47.4949,-122.241
Patricia,Sanchez,F,F,28,"Web design, Music production, Skiing, Rappelling",35.2671,-119.1055
Thomas,Griffith,M,B,26,"Sculpting, Interior design, Synchronized swimming, Pottery",39.6688,-105.2432
Karen,Thompson,F,B,29,"Skiing, Painting, Landscaping, Guitar, ",41.3135,-96.3017
Alyssa,Williams,F,F,28,"Woodworking, Knitting, Food styling, Fitness",33.5038,-81.91
Kevin,Conner,M,M,33,"Baseball, Public relations",47.1421,-99.3045
Joseph,Chapman,M,M,28,"Pinball, Rock climbing",42.4576,-85.698
Megan,Thompson,F,M,29,"Rock climbing, Fitness, Surfing, Data analysis, Hunting",39.6633,-120.4436
Chad,Gutierrez,M,F,32,"Photography, Public relations, Snowboarding",44.5122,-92.9034
Cheryl,Kennedy,F,F,20,"Bowling, Swimming",40.1157,-76.0517
Michael,Bennett,M,B,21,"Drawing, Swimming, Video games",38.26,-96.8225
David,Manning,M,B,26,"Web design, Field hockey, Skiing, Financial analysis, Pilates",44.0704,-95.6668
Christina,Jimenez,F,F,33,"Puzzle solving, Escape rooms, Lacrosse, Astronomy",44.3772,-97.2347
Christina,Francis,F,B,37,"Astrophysics, Geocaching, Astronomy",40.8069,-73.6996
Seth,Schneider,M,F,25,"Fishing, Karate, Sewing, Card games",38.9996,-84.6797
Alexis,Cummings,F,M,35,"Table tennis, Hiking",37.9087,-81.9867
Brittany,Rhodes,F,M,27,"Astronomy, Advertising",40.4113,-79.9856
Katelyn,Harris,F,F,19,"Cybersecurity, Drawing, Painting, Squash, Volleyball",40.3195,-98.9023
Christopher,Jones,M,B,27,"Triathlons, Air hockey, Baking, Glassblowing",37.9999,-97.5102
Jeremy,Stewart,M,F,19,"Travel, Journalism",35.5893,-90.2133
Erin,Fernandez,F,F,35,"Music, Nature, Skiing, Improv",28.3203,-80.736
Tyler,Miller,M,B,26,"Pottery, Shuffleboard, Basketball, Interior design",40.0342,-88.5728
Gary,Garcia,M,B,18,"Cooking, Nature Photography",37.7578,-117.6386
Jonathon,Taylor,M,B,24,"DJing, Blacksmithing",41.3336,-80.112
Jamie,Buckley,F,B,36,"Computer programming, Cooking",36.6197,-95.6604
Mark,Bowman,M,F,24,"Movies, Sailing, Theatre, Video editing",35.8537,-111.4269
John,Terry,M,B,35,"Squash, Paragliding, Self defense, Poetry, Calligraphy",39.8842,-91.1084
George,Sanchez,M,M,27,"Financial analysis, Reading, Yoga, Music",33.5287,-86.9572
Christine,Lewis,F,B,31,"Literature, Wine tasting, Music production, Writing",26.8706,-99.2907
Michael,Martinez,M,M,29,"Stock trading, Watercolor, Gaming, Computer programming",44.4687,-89.3167
Laura,Hernandez,F,B,23,"Mixology, Pinball, Golf, Rugby, Drawing",42.1229,-72.1089
Jessica,Johnson,F,B,32,"Bouldering, Letterboxing, Geocaching, Theatre, Pinball",38.5683,-121.3544
Sheila,Pruitt,F,M,33,"Basketball, Volleyball",41.9748,-90.1122
Nancy,Allen,F,M,28,"Sewing, Sketching",48.9789,-112.0704
Nicole,Smith,F,B,35,"Writing, Improv",39.5487,-90.48
Ann,Vasquez,F,M,27,"Improv, Weightlifting, Badminton, Golf",40.8666,-98.468
Crystal,Wilson,F,M,37,"Floristry, Fishing",30.8557,-89.1386
Michael,Robinson,M,B,26,"Self defense, Table tennis, Advertising, Snowboarding",39.0734,-91.5692
Kathryn,Carrillo,F,F,21,"Football, Hunting, Polo, DJing, Salsa",44.6572,-93.1687
Lauren,Wilson,F,M,20,"Interests, Cybersecurity",28.33,-98.1183
Daniel,Gordon,M,M,34,"Roller hockey, Watercolor, Triathlons, Fashion design",34.6593,-81.9609
Juan,Walls,M,F,34,"Gymnastics, Karate",38.4658,-76.4972
Courtney,Joseph,F,F,20,"Rock climbing, Fashion design, Rappelling",45.26,-95.4683
Jason,Page,M,M,35,"Food criticism, Music, Darts, Dancing, Stock trading",27.7645,-81.8058
Richard,Jordan,M,B,37,"Food criticism, Surfing, Kickboxing, Ethical hacking",42.4784,-93.6428
Daniel,Perry,M,B,26,"Biking, Journalism",35.7952,-83.2457
Madison,Hines,F,F,38,"Public relations, Road cycling, Hunting, Bouldering",47.9361,-113.7997
Allen,Watson,M,B,29,"Table tennis, Skiing, Wine tasting, Singing",30.2492,-89.6048
Deborah,Huff,F,M,33,"Hang gliding, Lacrosse",32.3804,-106.4791
Yolanda,Goodwin,F,B,20,"Yoga, Physics, Singing",39.84,-75.2397
Curtis,Holt,M,F,20,"Salsa, Gardening",33.5365,-81.1236
Kristin,Frost,F,B,33,"Stand-up comedy, Art history, Meditation, Equestrian, Sketching",36.7204,-108.3236
Matthew,Kim,M,B,25,"Interests, Ballroom dancing",38.6858,-88.3486
Donna,Henry,F,B,33,"Boating, Baseball, Hang gliding, Food criticism",42.4358,-123.0527
Jamie,Bailey,M,M,31,"Baseball, Travel, Video editing",48.1513,-97.6442
Ross,Hanson,M,B,35,"Fishing, Fitness, Glassblowing, Travel",40.2031,-93.124
Maria,Harrison,F,B,18,"Volleyball, Water polo, Self defense, Paragliding",42.7427,-73.7497
Melissa,Thompson,F,B,34,"Art history, Karate, Table tennis, Kiteboarding",39.4625,-104.8706
Bethany,Chambers,F,M,25,"Web design, Skiing, Darts, Jujitsu",47.2822,-117.1557
Ruth,Stewart,F,M,32,"Billiards, Pottery, Card games, Investment banking",35.7694,-94.5716
Nicolas,Leach,M,M,29,"Card games, Squash, ",47.4197,-111.5252
Jean,Orozco,F,M,33,"Floristry, Art history, Diving, Gymnastics, Fashion design",40.8705,-77.8658
Michael,Stewart,M,F,22,"Journalism, Orienteering, Card games, Music production, Dancing",36.402,-94.5889
Caitlin,Martinez,F,M,25,"Karate, Treasure hunting, Stand-up comedy, Bowling, Public relations",41.3256,-73.2674
Lisa,Willis,F,M,33,"Swimming, Jujitsu, Art history",45.6425,-121.9688
Maria,Henry,F,M,35,"Hang gliding, Cybersecurity, Floristry, Public relations",46.1635,-90.0528
Cynthia,Wood,F,B,28,"Sewing, Skateboarding",39.1143,-100.4684
Danielle,Miller,F,F,18,"Tennis, Road cycling, Muay Thai, Baking, Basketball",42.439,-82.9293
Sean,Yates,M,B,20,"Rock climbing, Baseball, Computer programming, Art, Jazz",36.7009,-79.9424
Nicole,Hart,F,B,34,"Running, Judo, Stand-up comedy, Art",30.9236,-91.109
Christopher,Jackson,M,F,36,"Poetry, Music, Literature, Golf",39.6005,-94.7976
Nicole,Robinson,F,B,19,"Bouldering, Hiking",39.8905,-75.9241
Jamie,Lopez,F,F,30,"Martial arts, Mobile app development, Photography, Triathlons",37.0144,-98.6492
Nathan,Lyons,M,F,29,"Bar tending, Mixology, Literature, Improv, Guitar",45.2054,-123.9536
Jonathan,Weaver,M,M,24,"Yoga, Cooking",35.0463,-82.0897
Michael,Perkins,M,B,19,"Orienteering, Art history, Puzzle solving, Astrophysics, Filmmaking",30.4088,-98.0452
Jasmine,Kirby,F,B,29,"Cycling, Bowling, Gymnastics, Judo",38.0906,-89.051
Scott,Thompson,M,F,19,"Jogging, Ballet, Letterboxing",40.3508,-92.5657
Crystal,Sharp,F,B,31,"Music production, Singing, Roller hockey, Judo",35.8576,-110.6338
Joshua,Jones,M,F,34,"Jujitsu, Muay Thai, Advertising, Polo, Orienteering",48.073,-112.2992
Mary,Mcneil,F,F,29,"Music, Surfing, Public relations, Running",28.8224,-95.9276
John,Gonzalez,M,M,26,"Fitness, Badminton, Physics",26.3876,-98.9024
Sandra,King,F,F,37,"Sailing, Golf, Wine tasting",39.9527,-86.9214
Debbie,Baker,F,B,26,"Ethical hacking, Card games",48.8027,-102.2457
Eric,Hunter,M,M,20,"Surfing, Stand-up comedy, Mountain biking",38.7381,-97.6843
Lauren,Clark,F,F,34,"Martial arts, Kayaking, Billiards",32.1091,-96.2152
Jason,Byrd,M,F,34,"Baking, Escape rooms, Fitness, Mathematics, Skateboarding",42.4517,-71.4035
Robin,Guerrero,F,M,39,"Bar tending, Glassblowing",42.444,-84.9246
Shelby,Myers,F,M,37,"Painting, DJing, Advertising, Lacrosse, Cycling",40.3764,-78.7617
Frank,Richardson,M,B,27,"Video editing, Escape rooms",38.9878,-93.5683
Lynn,Stanley,F,B,31,"Glassblowing, Mathematics, Sewing, Hang gliding, Painting",26.2453,-98.1537
Charles,Carey,M,M,39,"Baking, Ballroom dancing",39.8924,-75.1172
Troy,Cline,M,F,28,"Hang gliding, Mobile app development, Baking, Rock Climbing, Gardening",30.9988,-94.8274
William,Zamora,M,M,30,"Sketching, Sailing, Mixology, Gardening",45.5355,-122.8006
Beth,Hernandez,F,B,19,"Paragliding, Mathematics, Surfing, Public relations, Computer programming",42.2383,-96.4716
Karen,Coffey,F,F,34,"Orienteering, Volleyball, Pilates, Nature Photography",40.1356,-76.861
Austin,Morgan,M,M,29,"Baseball, Data analysis, Yachting, Rappelling, ",32.6893,-91.8718
Vincent,Page,M,M,22,"Cybersecurity, Nature, Meditation",45.134,-67.224
Jonathan,Lewis,M,F,38,"Ballet, Nature, Web design",33.8572,-118.0046
Jeremy,Patterson,M,F,30,"Weightlifting, Ice skating, Fishing, Poetry",32.4375,-81.7751
Terri,Hunter,F,F,18,"Writing, Paragliding",32.9783,-115.5287
Jacqueline,Young,F,F,30,"Cycling, Knitting",39.8924,-75.3287
Leslie,Ibarra,F,F,27,"Roller hockey, Synchronized swimming, Billiards",47.1529,-122.1048
Leah,Hartman,F,F,35,"Marketing, Table tennis, Rugby, Diving, Mobile app development",41.9676,-90.3817
Erik,Joseph,M,M,26,"Music production, Theater, Fitness",46.3626,-101.6385
Emily,Wilson,F,M,23,"Filmmaking, Diving, Floristry",40.8332,-73.604
Nancy,Jenkins,F,B,34,"Baking, Blacksmithing, Rock climbing, Hang gliding",18.4328,-66.4409
Susan,Gonzalez,F,B,36,"Drawing, Bar tending, Card games",36.6826,-79.8636
Brianna,Hall,F,B,28,"Diving, Geocaching, Ethical hacking",32.4236,-104.2903
Jeffrey,Lewis,M,M,23,"Shuffleboard, Air hockey, Ethical hacking, Weightlifting, Woodworking",40.1096,-78.8043
Cynthia,Gibson,F,M,36,"Marathons, Investment banking, Mountain biking",40.9505,-79.7401
David,Stewart,M,M,35,"Pottery, Interests, DJing, Music production",44.2823,-96.6868
Meghan,Baxter,F,F,30,"Biking, Rock climbing",39.2775,-89.8762
Kathleen,Herring,F,F,36,"Baking, Cooking, Polo",48.0572,-117.7466
Christine,Beltran,F,B,18,"Journalism, Fashion design, Literature, Music",39.432,-96.6158
Tracy,Howard,F,M,29,"Astronomy, Rock Climbing, Marathons",29.6683,-98.0773
Sara,Marshall,F,M,32,"Writing, Soccer",41.4363,-81.5222
Blake,Orozco,M,B,21,"Surfing, Sketching",40.4444,-78.3558
Christopher,Greene,M,B,25,"Gymnastics, Gardening, Reading, Acting",37.6785,-90.3679
Robert,Robbins,M,B,38,"Gardening, Rock climbing, Basketball, Surfing",38.2333,-112.9602
Mark,Long,M,F,18,"Kickboxing, Ballroom dancing, Theater",31.8688,-95.4917
Jennifer,Anderson,F,M,18,"Kiteboarding, Investment banking, Kickboxing, Geocaching",33.9805,-84.1839
John,Diaz,M,M,23,"Nature Photography, Marketing, Bouldering, Watercolor",40.6168,-94.4779
Jason,Bernard,M,M,38,"Painting, Basketball, Cybersecurity, Bouldering, Windsurfing",39.5638,-98.6916
Ricky,Perez,M,B,38,"Squash, Dancing, Theatre",31.7226,-91.5373
Brittany,Haley,F,M,25,"Woodworking, Journalism",38.9776,-82.3374
Catherine,Taylor,F,F,37,"Equestrian, Mixology",45.8271,-91.886
Brittney,Taylor,F,B,37,"Jujitsu, Web design, Gardening, Cycling, Food styling",41.535,-75.2021
Cesar,Campbell,M,M,20,"American football, Improv",21.4756,-158.0352
Sarah,Kane,F,M,37,"Teaching, Treasure hunting, Basketball, Writing, Kiteboarding",34.1857,-86.7928
Brenda,Bryant,F,B,22,"Stock trading, Tennis, Rugby",31.3217,-94.7277
Victoria,Long,F,B,38,"Filmmaking, Painting, Marketing, Tennis, Nature",36.2897,-93.3037
Gregory,Clark,M,B,33,"Biking, Painting",58.6637,-156.9908
Michele,Moore,F,F,18,"Astronomy, Investment banking, Watercolor, American football",47.412,-121.996
Thomas,Yang,M,B,26,"Skiing, Fitness, Video editing",44.0084,-97.5956
Theresa,Kennedy,F,B,20,"Theatre, Wrestling",32.586,-95.1127
Keith,Hicks,M,M,35,"Soccer, Floristry",39.5242,-78.6301
Amanda,Walker,F,F,37,"Weightlifting, Windsurfing",42.0124,-111.8036
Donald,Davis,M,B,24,"Travel, Soccer, Investment banking, Video editing",29.4632,-98.5238
Katie,Martinez,F,M,20,"Hang gliding, Cybersecurity",34.6643,-88.5684
Samantha,Burke,F,F,29,"Music production, Wine tasting, Gardening, Interests, Gymnastics",47.3091,-122.3358
Megan,Reese,F,F,37,"Bouldering, Sailing, Cycling",36.1334,-96.2091
Jessica,Johnson,F,M,31,"Yoga, Kayaking, Data analysis",36.7546,-101.0752
Michelle,Robinson,F,F,35,"Yoga, Music, Diving, Darts",39.2045,-80.4034
Jennifer,Bauer,F,B,19,"Tennis, Investment banking, Kayaking",44.2327,-105.4309
Crystal,Brown,F,M,22,"Badminton, Water polo, Mobile app development, Soccer, Acting",41.4117,-120.6605
Sierra,Bender,F,B,37,"Video games, Skateboarding",39.4629,-76.2754
Vanessa,Taylor,F,M,24,"Kayaking, Painting, Mathematics",47.0731,-92.7312
Steven,Edwards,M,F,33,"Lacrosse, Hunting",43.7492,-105.4948
Jamie,Price,F,F,39,"Data analysis, Food styling, Darts",38.7631,-90.0816
Louis,Dodson,M,M,39,"Mathematics, Video games, Equestrian, DJing, Gaming",37.5816,-79.0509
Nicole,Robertson,F,F,32,"Baking, Pool, Choreography, Mobile app development",40.0506,-84.3462
Cameron,Davis,M,F,31,"Bowling, Carpentry, Kickboxing",39.6944,-90.4234
John,Lee,M,B,34,"Mountain biking, Carpentry, Fashion design, Improv",30.9237,-88.2072
Shannon,Gonzalez,F,M,37,"Puzzle solving, Ethical hacking, Literature, Badminton",37.861,-92.3993
Randy,Matthews,M,M,36,"Judo, Cycling, Fishing, Field hockey",46.9365,-122.5501
David,Barnes,M,F,18,"Sketching, Yoga, Bowling",43.5682,-87.8243
Robert,Davis,M,F,35,"Hang gliding, Drawing, Computer programming, Hiking, Marketing",34.355,-89.0222
Ashley,Snow,F,B,24,"Treasure hunting, Filmmaking, Polo, Dancing, Carpentry",44.4341,-74.2533
Kimberly,Long,F,B,39,"Singing, Mobile app development, Judo, Synchronized swimming",37.4851,-95.4845
Richard,Kemp,M,B,23,"Food styling, Mixology, Snowboarding, Darts",40.4325,-75.4056
David,Shah,M,F,27,"Ballet, Sewing, Ethical hacking, Yoga",35.3571,-95.2637
Crystal,Miller,F,B,28,"Stock trading, Data analysis",45.8873,-99.8069
Robert,Murphy,M,M,27,"Board games, Surfing, Blacksmithing, Self defense",35.4783,-82.5038
Michael,Murray,M,M,37,"Shuffleboard, Squash",40.0077,-76.7303
Haley,Sampson,F,M,26,"Treasure hunting, Pinball, Sewing, Writing, Board games",34.0739,-118.0291
Anna,Cortez,F,B,39,"Judo, Woodworking",39.2104,-91.7246
Mark,Morales,M,M,29,"Jogging, Art history, Public relations, Jazz, Roller hockey",34.4225,-91.7025
Charles,Castro,M,F,35,"Astronomy, Data analysis, Skydiving, Video games, Judo",30.8479,-88.1004
Nancy,Jackson,F,B,25,"Singing, Mountain biking",33.5942,-84.5629
Dennis,Anderson,M,B,33,"Interior design, Landscaping, Weightlifting, Fishing",39.6522,-83.555
Olivia,Allen,F,F,21,"Rappelling, Mountain biking, Teaching, Stock trading, Travel",37.4393,-105.5135
Rebecca,Ellis,F,F,23,"Bouldering, Air hockey, Mathematics, Travel, Web design",43.1036,-84.5136
Erica,Castillo,F,M,23,"Horseback riding, Filmography",38.8302,-77.2713
Katherine,Potts,F,B,34,"Pool, Poetry, Pilates, Ballroom dancing, Computer programming",36.1963,-78.72
William,Adams,M,B,39,"Sailing, Cycling, Swimming, Sketching, Music",40.9802,-93.2006
Michael,Camacho,M,B,24,"Baseball, Interior design, Ice skating",37.6375,-89.6197
Lisa,Adams,F,M,33,"Reading, Bouldering, Video games",45.8133,-122.8796
Stephanie,Leblanc,F,M,24,"Advertising, Ballroom dancing, Orienteering, Pottery, Painting",32.8522,-84.8521
Joseph,Perez,M,M,25,"Rugby, Fishing",40.0962,-75.1296
Karen,Smith,F,B,24,"Karate, Pinball, Sewing, Diving, Drawing",41.1714,-73.3771
Heather,Elliott,F,B,22,"Stock trading, Marathons, Hang gliding, Poetry, Diving",31.5831,-88.6916
Brittney,Mcintyre,F,B,27,"Movies, Jujitsu",44.3862,-97.5496
Michele,Reed,F,M,22,"Gymnastics, Food styling",35.7979,-79.5518
Amanda,Wong,F,M,38,"Floristry, Advertising, Karate, Landscaping",40.498,-82.8937
Craig,Brown,M,F,34,"Music, Surfing, Literature, Boxing, Paragliding",37.1674,-95.1123
Jill,Munoz,F,M,19,"Volleyball, Food styling",41.0006,-75.4455
Austin,Curry,M,M,25,"Sewing, Polo, Pilates, Rappelling, Mixology",36.6171,-78.5638
Thomas,Mack,M,F,37,"Wrestling, Boxing, Golf, Movies, Card games",38.4874,-95.2698
Beth,Miller,F,B,21,"Gaming, Jujitsu, Landscaping",39.0998,-89.7463
Jill,Perry,F,B,22,"Running, Nature Photography",40.875,-74.4535
Jennifer,Hanson,F,B,18,"Watercolor, Baseball",46.3004,-123.4243
Julia,Morris,F,M,25,"Boating, Escape rooms, Rugby, Yoga",34.3278,-93.5308
Barry,Mckenzie,M,B,20,"American football, Lacrosse, Nature Photography, Landscaping, Ice skating",34.0009,-81.7713
Thomas,Mack,M,F,18,"Music, Ballroom dancing, Cybersecurity, American football, ",40.1711,-82.4179
Tiffany,Rodriguez,F,M,30,"Video editing, Snowboarding, Boating",44.4761,-95.331
Brittany,Schmidt,F,B,38,"Cooking, Mountain biking",38.8602,-86.4895
Jesus,Frost,M,M,24,"Billiards, Jujitsu, Sketching, Astrophysics",36.4105,-93.745
Amy,Orozco,F,B,32,"Food criticism, Landscaping, Calligraphy",37.7501,-85.9703
Warren,Evans,M,F,18,"Baseball, Ballet, Yoga, Cycling, Boating",42.5074,-90.9613
Matthew,Moore,M,B,18,"Jujitsu, Guitar, Lacrosse, Marketing, Air hockey",33.0998,-93.4618
Stacey,Ferguson,F,F,26,"Journalism, DJing, Paragliding, Sketching",40.6763,-74.5159
Dennis,Hill,M,M,33,"Hang gliding, Orienteering",32.5251,-101.7158
Keith,Thomas,M,B,35,"Cycling, Nature, Ballroom dancing, Field hockey, Glassblowing",43.379,-72.3368
Rebecca,Hill,F,F,37,"Pinball, Football, Web design, Boxing",40.9202,-77.0465
Joy,Webster,F,B,22,"Golf, Bouldering, Kiteboarding, Interests",37.5522,-122.3121
Cheryl,Lucas,F,B,24,"Treasure hunting, Surfing, Blacksmithing, Video games, Jogging",43.5632,-93.163
Elizabeth,Sullivan,F,F,27,"Carpentry, Landscaping, Reading, Running",33.7842,-84.3272
Dave,Hampton,M,M,25,"Boxing, Kayaking, Drawing",37.4671,-122.1352
Andrea,Bean,F,B,22,"Sailing, Martial arts, Gaming",44.1524,-87.9516
Michael,Smith,M,M,21,"Gaming, American football",38.565,-90.1793
Michelle,Warner,F,B,38,"Glassblowing, Knitting, Sculpting, Basketball",35.8805,-96.9661
Robert,Kramer,M,F,21,"Judo, Singing, Tennis",38.0671,-91.4057
Michael,Butler,M,F,23,"Wrestling, Jujitsu, Treasure hunting, Pottery, Martial arts",39.1765,-90.1414
Edgar,Mason,M,M,33,"Nature, Card games, Diving, Tennis, Sewing",40.647,-88.7841
Cheyenne,Ruiz,F,M,36,"Volleyball, Skateboarding",39.5078,-77.6585
Jessica,Lopez,F,B,24,"Field hockey, Rock Climbing, Squash",47.7226,-122.7144
Angela,York,F,M,23,"Theatre, Knitting, Water polo",37.2735,-105.9597
Abigail,Buchanan,F,M,23,"Baseball, Kayaking, Boxing, Football, Ballroom dancing",38.8627,-90.8724
Adam,Foster,M,F,25,"Rock Climbing, Ballroom dancing, Field hockey, Video games, Fitness",41.9934,-79.5014
Antonio,Martinez,M,B,26,"Fishing, Sailing, Lacrosse, Mixology",40.8298,-83.2721
Brian,Ramirez,M,B,37,"Food criticism, Horseback riding, Diving, Cycling, Theater",45.7477,-87.09
Theresa,Gonzalez,F,B,27,"Equestrian, Windsurfing, Carpentry",38.6058,-94.7779
Gary,Ramirez,M,F,26,"Triathlons, Travel",40.6427,-122.246
Justin,Miller,M,B,23,"Marathons, Kickboxing, Improv",19.1993,-155.4772
Oscar,Harris,M,B,18,"Weightlifting, Board games, Wine tasting",33.6746,-94.1265
Donald,Wu,M,M,33,"Jogging, DJing, Billiards, Watercolor",34.547,-100.44
Jacqueline,Cunningham,F,M,19,"Diving, Art, Ballet, Geocaching, Bouldering",68.1421,-145.4956
John,Norris,M,B,28,"Interests, Roller hockey, Fishing, Video games, Glassblowing",32.7219,-80.3465
Tom,Rosario,M,B,36,"Surfing, Wine tasting, Advertising, Windsurfing, Roller hockey",33.7311,-117.8107
Laurie,Beck,F,B,19,"Marketing, Advertising, Kayaking, Gardening, Skiing",40.5214,-78.4217
Ryan,Wells,M,F,21,"Board games, Carpentry, Weightlifting",35.0193,-90.7317
Dominique,Rocha,F,M,21,"Jujitsu, Physics",33.0843,-97.5632
Angel,Fitzpatrick,F,F,26,"Synchronized swimming, Web design, Puzzle solving",33.6215,-100.329
Brent,Smith,M,F,26,"Improv, Horseback riding, Acting, Swimming",39.5615,-84.2348
Stacy,Wong,F,B,19,"Kickboxing, Theater",41.7991,-85.4184
Jennifer,Jones,F,M,18,"Literature, Rugby, Karate, Stock trading",43.4134,-106.2474
Olivia,Rocha,F,M,25,"Fashion design, Music production, Art history, Yoga, Rock Climbing",42.4795,-72.5947
Timothy,Conner,M,B,29,"Kayaking, Data analysis, Movies, Public relations",39.3088,-84.8969
Michele,Collins,F,F,29,"Yachting, Snowboarding, Treasure hunting, Roller hockey",36.7555,-120.3776
Robert,Thomas,M,F,25,"Teaching, DJing",39.9286,-86.626
Donna,Griffith,F,B,19,"Sculpting, Dancing, Interior design",45.316,-91.6532
Diana,Bennett,F,M,37,"Karate, Air hockey, Biking",40.3115,-104.8561
Michael,Jones,M,B,37,"Public relations, Snowboarding, Astronomy, Golf, Mixology",38.4684,-123.0148
Jeffrey,Taylor,M,B,22,"Mixology, Gardening",42.277,-88.2695
Christopher,Gibson,M,M,27,"Sailing, Kickboxing, Glassblowing",35.516,-108.4878
Brittany,Johnson,F,M,29,"Glassblowing, Drawing",46.7224,-94.3974
Sheena,Osborne,F,F,32,"Ballroom dancing, Jazz",31.6933,-92.1637
John,Cabrera,M,F,34,"Board games, Roller hockey, Squash, Running, Road cycling",36.6648,-84.4395
Karen,Holloway,F,M,20,"Biking, Art history",34.4005,-97.0514
Jordan,Evans,M,M,38,"Windsurfing, Football, Orienteering",37.0405,-99.9876
Cheryl,Arnold,F,M,27,"Self defense, Soccer, Golf",43.5607,-93.8131
Cynthia,Cortez,F,F,24,"Journalism, Skateboarding",41.8946,-70.5966
Laura,Juarez,F,F,29,"Interests, Wrestling, Acting, Baseball",41.8119,-87.8191
Gary,Lowe,M,B,37,"Baseball, Ceramics, Rappelling",33.9508,-83.3689
Samuel,Price,M,B,23,"Hiking, Interior design, Public relations",45.1089,-93.5837
Jennifer,Crawford,F,F,37,"Biking, Orienteering",39.7987,-83.8904
Bryan,Benitez,M,B,26,"Muay Thai, Biking",45.2599,-94.1205
Andrew,Davis,M,F,20,"Soccer, Choreography",41.8561,-80.9491
Jeremiah,Morgan,M,B,20,"Kickboxing, Writing, Singing, Ice skating",45.8839,-110.6059
Patrick,Hamilton,M,B,18,"Swimming, Ballroom dancing, Glassblowing, Meditation, Fitness",44.4937,-89.309
Nicholas,Walker,M,M,33,"American football, Theater, Yachting, Interests",39.6692,-102.8501
Melissa,Lewis,F,M,38,"Nature, Rock climbing, Computer programming",35.7193,-86.4129
Shelley,Rodriguez,F,B,38,"Yachting, Jujitsu, Jazz",41.882,-71.5549
Jennifer,Parker,F,F,28,"Gardening, Snowboarding, Music",41.4011,-82.808
Louis,Salazar,M,F,21,"Skiing, Filmography, Ballet",41.0352,-74.0423
Maria,Costa,F,F,18,"Running, Water polo, Geocaching, Field hockey",40.711,-77.9924
Randy,Castillo,M,F,34,"Jogging, Singing, Muay Thai, Ethical hacking",33.4471,-99.624
Cameron,Mccarthy,M,F,39,"Geocaching, Orienteering, Music",46.0653,-88.6266
Kirk,Washington,M,B,23,"Geocaching, Boxing, Squash, Sailing",40.454,-83.1847
Jennifer,Burns,F,B,32,"Skydiving, Jujitsu, Sailing, Marketing, Fashion design",44.5166,-98.9379
John,Jones,M,B,22,"Kickboxing, Art history",41.8227,-90.5448
Sarah,Callahan,F,F,25,"Mixology, Darts, Video games",40.2341,-84.4076
Angela,Wolfe,F,B,36,"Teaching, Geocaching, Volleyball, Fishing, Rappelling",41.5864,-83.493
Pamela,Smith,F,M,39,"Running, Writing",39.4522,-75.2497
Kyle,Rios,M,M,19,"Fishing, Board games, Triathlons",38.9666,-77.0963
Dana,Fernandez,F,M,28,"Football, Rock Climbing, Stand-up comedy, Mathematics, Hiking",36.7942,-81.5937
Courtney,Castillo,F,F,24,"Hiking, Woodworking, DJing, Interior design",40.6207,-80.8345
Amanda,Bailey,F,B,20,"Knitting, Table tennis, Windsurfing, Interior design, Dancing",45.6521,-95.3649
Carolyn,Hatfield,F,F,25,"Photography, Video editing, Surfing, Jogging",48.5459,-113.0127
Seth,Chung,M,B,33,"Painting, Dancing",41.5067,-95.4506
Susan,Aguilar,F,F,37,"Equestrian, Polo, Triathlons",29.5861,-98.5563
Ryan,Anderson,M,F,25,"Puzzle solving, DJing, Squash, Art, Darts",42.737,-94.666
Christian,Valencia,M,B,29,"Diving, Soccer, Poetry",41.5281,-74.0234
Anthony,Stone,M,F,34,"Diving, Poetry, Advertising, Tennis",37.7117,-81.2525
Joseph,Marsh,M,F,34,"Pottery, Food criticism, Muay Thai",35.9617,-83.1976
Daniel,Graves,M,M,30,"Public relations, Muay Thai",39.9305,-76.7011
Douglas,Park,M,B,18,"Geocaching, Bouldering",36.7998,-78.461
Kimberly,Wood,F,F,27,"Boating, Paragliding, Hang gliding, Video editing, Bouldering",40.6589,-89.8031
Christina,Brown,F,B,27,"Carpentry, Poetry",45.1863,-88.468
Brooke,Hendrix,F,M,32,"Choreography, Ballet, Web design, Blacksmithing",37.6444,-93.097
Steven,Thornton,M,B,32,"Hiking, Stand-up comedy",40.3348,-78.3958
Brittany,Blair,F,M,32,"Mobile app development, Pool, Photography, Poetry, Kickboxing",40.3966,-93.5884
Denise,Poole,F,B,20,"Boating, Travel, Marathons, Rugby",41.3855,-81.3478
