name,surname,sex,searching_sex,age,interests,latitude,longitude
Joshua,Mccoy,M,M,39,Mathematics,41.9205,-91.3916
Christopher,Holland,M,F,37,"Darts, Nature",38.1659,-97.9497
David,Barnett,M,B,18,Web design,33.1254,-86.7449
Craig,Norris,M,B,36,"Singing, Road cycling, Jogging",28.0821,-97.8828
Thomas,Wilson,M,M,39,"Interior design, Lacrosse, Mixology",39.4582,-77.9776
William,Duncan,M,F,19,Surfing,35.8269,-118.6354
Gina,Bennett,F,B,27,"Sailing, Jazz",25.8878,-80.3569
Joshua,Wilson,M,B,21,Ballroom dancing,39.5707,-89.6547
Amanda,Mclaughlin,F,F,29,"Financial analysis, Fashion design, Writing, Air hockey",40.3362,-76.0053
Lisa,Harrison,F,F,24,"Fishing, Pinball",41.8523,-95.6009
Gregory,Nelson,M,B,35,Pilates,40.907,-90.2857
Anthony,Lara,M,F,26,"Cooking, Gymnastics, Gardening",46.6594,-120.6025
Margaret,Townsend,F,M,27,"Poetry, Public relations",40.1842,-80.6911
Andrew,Cole,M,M,26,"Data analysis, Volleyball",38.9621,-78.1414
David,Schroeder,M,M,25,"Video games, Bar tending, Skiing, Poetry",37.9166,-95.1716
Jeffrey,Edwards,M,F,30,"Rock climbing, Filmmaking, Paragliding, Shuffleboard",40.0871,-121.537
Nathan,Wagner,M,B,30,Photography,40.798,-90.1632
Jennifer,Smith,F,B,23,"Kiteboarding, Hang gliding",40.2105,-99.2901
Paula,Valdez,F,M,20,"Darts, Shuffleboard",31.6308,-110.3421
Robert,Ponce,M,F,26,"Pinball, Mountain biking, Nature, Advertising",36.1698,-94.8529
Kyle,White,M,F,36,"Painting, Hiking",43.0903,-83.7039
Anthony,Warren,M,M,28,Lacrosse,41.9915,-72.5965
Heather,Christensen,F,B,21,"Ice skating, Calligraphy",33.2006,-96.0054
Katie,Rodriguez,F,F,31,"Art, Painting",43.0482,-76.5637
Natasha,Stanton,F,F,37,"Judo, Photography, Windsurfing, Skydiving",27.8589,-82.7078
Jeffery,Chan,M,B,22,Guitar,42.4301,-97.0986
Lori,Boyd,F,M,36,Roller hockey,41.4509,-81.6628
Anthony,Doyle,M,B,29,Public relations,33.9964,-86.5671
Sarah,Edwards,F,B,21,"Running, Advertising, Fitness",42.4001,-92.7988
David,Smith,M,M,24,"Kiteboarding, Hiking, Jujitsu",36.0154,-82.1582
Victoria,Walters,F,B,24,"Mixology, Pool, Food styling, Journalism",42.9648,-92.1965
Matthew,Williams,M,F,20,"Mountain biking, Kayaking",38.2153,-81.4442
John,Taylor,M,B,36,"Knitting, Road cycling, Travel",28.469,-82.5999
Ryan,Johnson,M,F,28,"Gardening, Tennis, Football",41.381,-89.2147
Joseph,Rasmussen,M,B,27,"Food styling, Muay Thai",38.6966,-90.3689
Valerie,Johnson,F,F,25,Dancing,37.9929,-121.6952
Kevin,Jensen,M,F,23,Diving,47.2641,-96.8107
Sarah,Hall,F,M,24,"Interior design, Mathematics",45.7304,-94.4714
Mariah,Zhang,F,F,20,"Skiing, Art history, Weightlifting",39.3633,-84.3767
Matthew,Richards,M,M,31,"Judo, Cycling, Rugby, Astrophysics",18.4991,-67.022
Cynthia,Gill,F,M,31,"Football, Kickboxing, Rappelling, Ballet",41.8829,-87.8762
Christina,Miller,F,B,18,"Meditation, American football, Boxing",37.7151,-89.4831
Shaun,Kelley,M,M,32,Equestrian,39.7157,-86.0871
James,Garcia,M,F,30,"Rugby, Diving",41.541,-87.6118
Joshua,Schmitt,M,M,29,"Rock climbing, Darts, Baking, Paragliding",28.4727,-81.4169
Melissa,Smith,F,B,30,"Boating, Journalism",39.3761,-121.4117
Chris,Miller,M,M,32,"Running, Yoga",46.563,-96.7363
Hannah,Roach,F,M,33,Horseback riding,36.8622,-82.9161
Paula,Bartlett,F,B,36,"Lacrosse, Journalism, Cybersecurity",38.5683,-90.3392
Derek,Johnson,M,B,35,"Blacksmithing, Acting",32.2778,-89.9896
Lauren,Cameron,F,F,21,Treasure hunting,30.443,-85.0455
Mathew,Perez,M,F,37,"Teaching, Darts, Improv, Knitting",32.5564,-114.7811
Corey,Beck,M,F,25,"Baking, Marathons, Skateboarding",35.2097,-96.9611
Phillip,Williams,M,M,30,"Fitness, Polo",35.1458,-82.82
Mary,Bryant,F,F,30,"Interior design, Blacksmithing, Rappelling",38.6155,-90.1304
Tina,Harris,F,B,24,"Music, Surfing",28.3363,-82.2588
Jacob,Harris,M,B,23,Hunting,35.1458,-82.4481
Margaret,Jensen,F,M,27,"Kayaking, Food styling, Baseball, Basketball",42.6002,-99.3283
Cynthia,Cameron,F,B,19,Theatre,40.2634,-79.7137
Christina,Wallace,F,M,25,"Travel, Pool",33.8292,-98.5403
James,Delgado,M,M,38,"Surfing, Bowling, Diving",42.2158,-74.3899
Sara,Potts,F,F,25,Badminton,39.6257,-79.32
Janet,Edwards,F,B,34,"Kiteboarding, Art history",42.1347,-87.7641
Nicholas,Harrison,M,M,28,"Volleyball, Improv, Cybersecurity, Public relations",35.7669,-86.521
Caroline,Gonzales,F,F,35,"Writing, Cycling",47.1949,-119.3178
Sharon,Green,F,F,37,"Investment banking, Ethical hacking",33.9616,-81.1119
Cole,Ramsey,M,B,19,"Cycling, Guitar",41.1485,-74.5736
John,Richardson,M,F,38,"Interests, Pilates",40.8251,-78.3511
Nathan,Turner,M,M,23,"Stand-up comedy, Sketching, Sculpting",54.8416,-163.348
Angela,Fox,F,M,24,"Hunting, Baking",36.9619,-121.9715
Alexander,Thomas,M,B,36,Jujitsu,33.7866,-82.2174
Justin,Davis,M,F,38,Fitness,40.2417,-75.2812
Jason,Coffey,M,B,24,"Golf, Cybersecurity",36.2252,-76.9316
Nicholas,Swanson,M,M,30,"Fitness, Geocaching, Art",47.7633,-114.1499
Elizabeth,Scott,F,M,37,"Literature, Teaching",40.2924,-80.2055
Peggy,Sandoval,F,F,32,"Bowling, Geocaching, Ceramics, Marathons",45.5863,-103.5434
Wanda,Carpenter,F,F,29,Landscaping,60.4945,-149.841
Henry,Young,M,M,39,"Gymnastics, Sculpting, Ceramics, Volleyball",41.2581,-101.7091
Dana,Horton,F,B,20,"Skateboarding, Rappelling",41.5483,-87.4588
Terry,May,M,B,30,"Filmmaking, Financial analysis, Water polo",32.0286,-81.1821
Robert,Smith,M,B,29,"Rock climbing, Glassblowing, Stand-up comedy",42.595,-79.0809
Tyler,James,M,B,33,"Card games, Darts, Writing",32.0277,-94.3679
Brian,Johnson,M,B,33,Art,36.1008,-115.0379
Derek,Bernard,M,M,34,Interests,38.6108,-95.4529
Carolyn,Johnson,F,M,22,"Roller hockey, Interests, Bar tending, Football",41.3284,-74.1004
Valerie,Perry,F,M,30,Jazz,36.0238,-120.9074
Kendra,Phelps,F,F,32,Nature,43.0769,-75.6622
Tonya,Brown,F,B,34,"Watercolor, Advertising, Interior design",40.7078,-77.3107
Andrea,Grant,F,F,36,"Calligraphy, Ceramics, Synchronized swimming, Roller hockey",35.1635,-85.3098
Daniel,Rodriguez,M,F,30,"Rock climbing, Judo, Ballroom dancing, Food criticism",38.1012,-97.9919
Bryan,Ross,M,F,31,Dancing,42.8424,-82.8832
Susan,Schwartz,F,M,37,"Landscaping, Pinball",34.6665,-79.5447
Michelle,Mccullough,F,B,26,"Photography, Singing, Theatre, Fashion design",43.4499,-71.6691
April,Rowe,F,B,25,"Astrophysics, Snowboarding",47.9633,-101.8029
Crystal,Richardson,F,B,29,"Teaching, Nature Photography, Poetry, Cycling",18.3125,-66.9219
Donald,Moore,M,B,31,Mixology,46.7258,-120.6909
Jeremy,West,M,M,20,"Fishing, Jogging, Marathons, Interests",44.8722,-93.0943
Elizabeth,Thomas,F,B,23,"Pottery, Pilates",41.7113,-88.3353
Catherine,Morris,F,M,35,"Windsurfing, Yachting",39.5639,-84.6391
Matthew,Smith,M,B,24,"Pool, Improv, Landscaping",18.0396,-66.4683
Austin,Harper,M,B,37,"Literature, Road cycling, Judo",40.6079,-79.7411
Jessica,Michael,F,M,29,"Puzzle solving, Bouldering, Equestrian",33.8842,-84.3007
Sharon,Stanley,F,M,22,"Ethical hacking, Cooking, Nature Photography, Snowboarding",42.4677,-122.8016
Tracy,Campbell,F,B,22,"Shuffleboard, Data analysis",43.8298,-96.0218
Michelle,Swanson,F,M,32,"Bouldering, Table tennis, Mountain biking",33.7267,-84.2723
Amanda,Tapia,F,M,32,Rock Climbing,42.3257,-85.1357
Ashlee,Cruz,F,B,24,"Board games, Video editing, Martial arts",45.2234,-122.5617
Alison,Hamilton,F,B,27,"Road cycling, Ethical hacking, Hunting",32.2115,-99.7983
Kelly,Ross,F,B,18,"Lacrosse, Nature Photography, Swimming, Music production",40.3948,-104.6893
Justin,Nicholson,M,B,37,"Guitar, Skydiving, Sailing, Computer programming",31.8591,-92.5156
Douglas,Hobbs,M,M,36,"Polo, Woodworking, Water polo",35.45,-99.1707
Victoria,Jackson,F,F,22,"Mixology, Bowling, Movies",43.3982,-88.532
Gary,Watkins,M,B,20,Writing,47.7581,-118.7117
Christopher,Smith,M,B,30,"Tennis, Computer programming",41.3562,-71.9546
Richard,Jackson,M,M,22,"Carpentry, Movies, Equestrian, Calligraphy",43.8625,-98.3526
Hunter,Wheeler,M,M,34,Hunting,26.3072,-98.6443
Lisa,Robertson,F,M,29,Public relations,34.7051,-81.2132
Tracey,Jackson,F,F,25,Rock climbing,48.7659,-96.9427
Evelyn,Perry,F,M,36,"Wrestling, Photography, Woodworking, Billiards",30.4907,-96.467
Donald,Hill,M,F,39,"Nature Photography, Puzzle solving",47.4602,-114.8842
Adam,Martinez,M,M,25,"Horseback riding, Art history, Gardening, Mixology",39.7862,-85.1562
Cynthia,West,F,B,24,"Choreography, Puzzle solving, Singing",32.9302,-95.869
Melissa,Banks,F,B,18,"Puzzle solving, Mountain biking",18.4724,-66.935
Elijah,Kelly,M,F,38,"Stand-up comedy, Filmmaking, Investment banking",46.7308,-116.9986
Sheila,Simpson,F,F,30,Biking,41.11,-78.7356
Barbara,Perkins,F,B,29,"Kiteboarding, Treasure hunting, Tennis",39.9486,-74.5409
Richard,Watts,M,F,21,"Watercolor, Photography",38.9325,-78.4615
William,Watkins,M,M,32,"Martial arts, Ceramics, Pool",44.1344,-91.5493
Maria,Carter,F,M,38,"Air hockey, Salsa, Surfing, Judo",40.5835,-89.1288
Andrea,Harris,F,F,29,"Calligraphy, Cybersecurity, Cycling",34.4293,-100.2516
Sharon,Johnson,F,B,18,"Reading, Skydiving, Music production, Billiards",40.122,-82.0131
Joshua,Gonzales,M,M,20,"Squash, Polo",39.9533,-74.2367
Katherine,Carroll,F,B,38,Marketing,36.9583,-121.7805
David,Richardson,M,B,33,"Landscaping, Writing, Windsurfing",45.6478,-98.4981
Christopher,Rangel,M,B,35,"Fishing, Filmmaking, Salsa",33.5687,-83.1872
Karl,Black,M,M,30,"Bouldering, Woodworking, Investment banking",37.6819,-82.7661
Sheila,Wilson,F,B,23,"Photography, Puzzle solving, Art, Roller hockey",45.0096,-113.0675
Dawn,Long,F,F,29,"Food styling, Mobile app development, Orienteering",41.9902,-92.5803
Diane,Robinson,F,B,29,Movies,32.5215,-81.533
Kenneth,Ball,M,M,24,"Sewing, Gardening, Drawing, Card games",46.7928,-88.4133
Tyler,Jenkins,M,F,37,"Treasure hunting, Boxing, Sketching",34.9257,-95.7734
Paul,Harding,M,F,35,"Woodworking, Football, Music production, Web design",40.0483,-80.623
Matthew,Daugherty,M,F,29,Nature Photography,38.7071,-90.3009
Tracie,Nelson,F,M,37,Board games,38.4458,-122.7067
Justin,Wilson,M,F,24,Ballroom dancing,41.524,-81.5245
Jerry,Garrett,M,B,25,"Video editing, Baking, Squash, Golf",39.0689,-96.1671
Elizabeth,Jones,F,M,26,"Tennis, Diving",37.9337,-90.775
Kevin,Manning,M,F,39,"Lacrosse, Poetry",63.9678,-145.7149
Kimberly,Harris,F,F,34,"Art history, Equestrian, Reading",35.5071,-97.6418
Karen,Snyder,F,F,32,"Board games, Sailing",37.3109,-89.5597
Aaron,Mcdaniel,M,F,32,"Computer programming, Billiards",46.2824,-119.2939
Kenneth,Davidson,M,M,21,"Ballet, Darts",26.5782,-81.8614
Sarah,Huang,F,M,34,"Air hockey, Woodworking, Muay Thai, Surfing",28.7121,-99.8353
Jordan,Jones,F,B,34,"Art history, Mixology",30.0298,-93.8406
Eric,Santiago,M,F,31,"Ballet, Baseball, Diving, Interests",33.9668,-92.0452
Cheryl,Dillon,F,M,32,Woodworking,40.7889,-78.0192
Ashley,Whitaker,F,F,28,Knitting,48.9669,-97.2475
Robert,Parks,M,F,24,"Floristry, Horseback riding",37.2498,-98.4177
Ronald,Bonilla,M,B,36,Calligraphy,44.7318,-85.1834
Amber,Anderson,F,F,38,Weightlifting,42.659,-111.5878
Rachel,Ortiz,F,B,24,Computer programming,41.0661,-72.3493
Robert,Livingston,M,M,32,"Advertising, Shuffleboard",40.2963,-98.7316
Aaron,Wang,M,M,31,"Acting, Sailing",27.7119,-98.108
Craig,Schaefer,M,B,21,Running,40.1895,-85.1273
Bryan,Rocha,M,B,19,"Sewing, Dancing",40.1126,-77.1854
Monica,Matthews,F,F,29,"Glassblowing, Filmmaking, Astrophysics",37.4741,-108.4998
Joel,Lewis,M,F,19,Stand-up comedy,33.512,-81.8344
Jared,Mcguire,M,B,25,Road cycling,31.9699,-88.7205
Carlos,Cooper,M,M,38,"Floristry, Soccer, Squash, DJing",39.2153,-84.3888
Tiffany,Mendoza,F,B,28,"Wrestling, Lacrosse, Computer programming, Fitness",41.1065,-74.2749
Jesus,Diaz,M,M,34,"Interior design, Triathlons, Calligraphy",44.3742,-72.8859
Denise,Miller,F,M,27,"Football, Floristry",40.1074,-86.7769
Lauren,Guzman,F,F,37,"Roller hockey, Treasure hunting, Painting",40.68,-82.5793
Jonathan,Martin,M,B,36,"Video games, Knitting",32.3188,-84.5177
Shannon,Rogers,F,M,32,"Weightlifting, Cybersecurity, Kiteboarding, Tennis",40.9167,-77.6908
Donna,Powell,F,F,39,"Ballet, Bowling, Knitting, Fishing",35.0497,-106.5599
Heather,Neal,F,M,21,"Nature, Fishing, Karate",39.0359,-94.6374
Kenneth,Henderson,M,F,31,Marathons,35.1737,-96.5983
Christopher,Ramirez,M,M,39,"Astronomy, Wine tasting, Skateboarding, Darts",40.417,-80.0544
Jennifer,Mcintyre,F,F,39,Salsa,42.0692,-110.9865
Cynthia,Sanchez,F,M,24,"Karate, Acting",40.8778,-75.2204
Jennifer,Olson,F,F,22,"Self defense, Equestrian, Floristry",32.6281,-117.0144
Matthew,Harris,M,M,39,"Mixology, Reading, Roller hockey, Paragliding",30.9236,-91.109
Austin,Barnes,M,B,31,"Karate, Gardening, Sewing, Geocaching",38.8546,-91.3028
Zachary,Jackson,M,M,20,"Pottery, Gardening",30.792,-83.7899
Stephanie,Thomas,F,M,32,"Mobile app development, Badminton, Teaching",37.6063,-75.6897
Andre,Mullins,M,M,30,Nature Photography,41.666,-80.4648
Ashley,Jones,F,F,31,"Music, Wine tasting",33.6582,-82.166
Daniel,Atkinson,M,B,26,"Mountain biking, Darts, Skydiving",30.879,-84.205
Teresa,Hendricks,F,B,24,"Treasure hunting, Letterboxing, Bar tending, Yachting",36.4214,-90.9018
Pamela,Rivera,F,B,36,"Glassblowing, Judo, Water polo, Reading",39.2744,-84.6705
Crystal,Jones,F,F,38,Water polo,35.6197,-90.9054
Ronald,Martinez,M,M,33,"Music, Volleyball, Landscaping",42.0734,-95.9104
Brandy,Dickerson,F,F,22,"Ice skating, Kayaking, Kickboxing",44.953,-88.0476
Kathy,Page,F,F,18,"Card games, Ethical hacking",38.9423,-76.9645
Paula,Burnett,F,B,25,"Drawing, Board games, Hang gliding, Paragliding",30.4158,-87.3027
Jade,Gordon,F,M,23,"Art, Blacksmithing, Nature",37.8593,-81.0722
Robert,Sparks,M,B,26,"Surfing, Meditation, Calligraphy",41.6267,-80.1695
Tommy,Hall,M,B,18,"Geocaching, Treasure hunting, Bar tending, Air hockey",35.3235,-87.7593
Brandon,Rodgers,M,F,30,Weightlifting,38.2478,-121.528
Heidi,Smith,F,F,20,"Jogging, Diving",37.3405,-95.2958
Sharon,Jackson,F,B,23,"Literature, Financial analysis, Rappelling",41.8181,-84.6628
Michael,Armstrong,M,B,26,"Cooking, Mixology, Wrestling, Muay Thai",36.305,-119.2083
Jeff,Olson,M,M,23,"Astronomy, Nature",39.11,-80.4085
Dwayne,Padilla,M,M,23,"Karate, Landscaping",29.5545,-98.3404
Ryan,Mccoy,M,M,23,"Music production, Judo, Guitar",30.6642,-97.8328
Patrick,Donovan,M,B,19,Road cycling,44.3341,-69.7319
Ricardo,Riley,M,M,28,"Marketing, Improv, Web design, Jujitsu",38.2389,-91.0688
Henry,Gardner,M,F,24,"Mixology, Hunting",37.1886,-79.6133
Zachary,Swanson,M,B,35,Public relations,33.8579,-96.5059
Nancy,Young,F,B,28,Woodworking,42.946,-98.8285
Shawn,Moreno,M,M,29,"Wine tasting, Lacrosse, Sewing, Food styling",44.8829,-94.0375
Melinda,Horton,F,M,20,"Choreography, Yoga, Pottery",29.4656,-90.5617
Lori,Duke,F,B,21,"Muay Thai, Horseback riding",41.2399,-81.4408
William,Hall,M,M,39,"Volleyball, Mathematics, Ballroom dancing",43.609,-103.5946
Cathy,Ortiz,F,B,26,"Cybersecurity, Volleyball",42.9156,-108.7993
Daniel,Ford,M,F,27,"Travel, Improv, Computer programming, Movies",34.5071,-88.6416
Kimberly,Parker,F,B,19,"Golf, Blacksmithing, Sailing, Investment banking",37.4053,-76.526
Jacob,Guzman,M,M,30,"Sewing, Financial analysis, Music production",39.3409,-80.0162
Thomas,Scott,M,M,35,Wrestling,47.5309,-115.0083
Tyler,Lucero,M,B,28,"Music production, Astrophysics, Rugby",33.1116,-96.1099
Molly,Morse,F,B,33,"Yachting, Guitar, Cooking, Lacrosse",41.0777,-80.5903
Joshua,Morris,M,M,20,"Dancing, Ballet",30.348,-92.2771
Beth,Miller,F,F,36,Martial arts,40.794,-73.7414
Sarah,Hicks,F,B,27,"Astronomy, Jujitsu",47.4982,-97.3264
Brianna,Hayes,F,F,36,"Kiteboarding, Music",26.2793,-97.9262
James,Boyle,M,B,28,"Poetry, Interior design, Bouldering, Volleyball",38.8054,-76.8744
Manuel,Medina,M,B,23,"Kiteboarding, Astronomy",31.8154,-93.5164
Matthew,Ward,M,M,18,"Table tennis, Kickboxing",41.4684,-75.6358
James,Murphy,M,M,20,"Mathematics, Table tennis, Knitting",42.2758,-97.1908
Catherine,Richards,F,M,37,Rock Climbing,33.7902,-82.9031
Patrick,Case,M,F,27,"Water polo, Tennis",40.2212,-74.473
Rachel,Reynolds,F,M,31,"Martial arts, Web design, Kickboxing, Music",40.7386,-74.446
Lindsey,Perkins,F,B,31,"Jujitsu, Escape rooms",37.3701,-102.8588
Sabrina,Smith,F,B,37,"Wrestling, Paragliding, Hunting, Rugby",43.7799,-89.5657
Destiny,Allen,F,B,35,"Hunting, Acting, Jujitsu",40.9466,-73.0577
Matthew,Dunn,M,F,33,"Horseback riding, Equestrian, Video games, Food styling",34.4447,-88.6641
Jesse,Sheppard,M,B,25,"Jogging, Escape rooms, Bouldering, Weightlifting",29.5241,-96.0622
Roberto,Hernandez,M,B,34,Snowboarding,38.775,-75.3102
Joshua,Wilson,M,M,39,Astronomy,34.1749,-86.1125
Amber,Daniels,F,M,22,"Escape rooms, Snowboarding, Lacrosse, Road cycling",40.0598,-97.3359
Patricia,Craig,F,B,29,"Web design, Jujitsu",35.2342,-88.6131
Alexandra,Martin,F,F,34,"Woodworking, Skiing, Fishing",34.8297,-77.4591
Tricia,Boyer,F,M,33,"Sailing, Rugby, Wine tasting",39.5455,-107.3347
Gabrielle,Parker,F,M,30,"Music production, Sailing",37.5466,-87.9879
Katie,Morales,F,B,36,"Basketball, Bar tending, Puzzle solving, Astronomy",47.6346,-121.9664
William,Romero,M,B,33,Calligraphy,46.4023,-97.8149
Terry,Cooper,M,M,39,"Sewing, Computer programming, Theater, Triathlons",35.6197,-90.9054
Dawn,Mason,F,B,35,"Marathons, Public relations, Boxing",38.3421,-86.2754
Joseph,Chandler,M,B,25,"Ceramics, Kiteboarding, Road cycling",43.5966,-84.7759
Jennifer,Wong,F,F,31,"Stand-up comedy, Video editing, Squash, Journalism",37.8163,-89.2269
Joseph,Hood,M,F,35,"Skiing, Financial analysis",37.863,-90.6144
Troy,Adkins,M,B,38,Rock Climbing,21.9159,-159.5236
Martin,Solis,M,F,36,"Blacksmithing, Calligraphy",18.4371,-66.1937
Emma,Adams,F,B,34,"Gardening, Drawing",44.5377,-72.0142
Anthony,Patel,M,F,21,"Pilates, Yoga",35.221,-88.236
Laura,Torres,F,B,19,"Nature Photography, Snowboarding, Geocaching",37.4501,-81.7029
Jeffery,Hill,M,F,23,"Billiards, Lacrosse, DJing, Mountain biking",38.4807,-95.4681
Jennifer,Rice,F,B,27,"American football, Advertising, DJing",45.8798,-92.3628
Carolyn,Moore,F,F,39,DJing,34.9884,-96.9254
Alexander,Douglas,M,B,18,"Art history, Mountain biking, Wrestling, Squash",40.9735,-78.519
Kevin,Johnson,M,B,24,"Bouldering, Art history",45.0842,-93.1358
Megan,Floyd,F,B,34,Letterboxing,27.6555,-99.6179
Karen,Reyes,F,B,25,"Astronomy, Hunting, Pilates",40.05,-76.2114
Patricia,Jackson,F,F,25,"Teaching, Cycling, Knitting, Salsa",46.9175,-92.9186
Denise,Nguyen,F,F,31,Bouldering,32.3507,-92.7236
Brian,Smith,M,B,37,Hiking,34.5166,-77.9174
Karen,Martinez,F,B,29,"Pool, Ceramics, Sewing, Theatre",41.2054,-92.8843
Joseph,Wilson,M,M,27,Kickboxing,40.0299,-78.1917
Amber,Brown,F,B,29,Salsa,29.7905,-95.8353
Jennifer,Munoz,F,F,27,"Martial arts, Fitness, Art history, Road cycling",28.6485,-81.3458
Michael,Green,M,M,24,"Interior design, Tennis",36.2403,-90.0481
Jon,Morrison,M,M,26,Art history,38.2208,-85.6778
Mark,Brown,M,M,20,"Biking, Kickboxing, Roller hockey",39.1987,-77.7239
Philip,Harris,M,M,25,Badminton,37.7578,-117.6386
Julie,Wilson,F,F,35,Roller hockey,34.9363,-98.1362
Jessica,Smith,F,B,26,"Music production, Blacksmithing, Interests",43.5018,-87.8476
Megan,Franklin,F,B,25,Marketing,47.1935,-114.892
Lori,Weber,F,F,31,"Board games, American football, Football",18.1619,-65.7584
Emily,Williams,F,M,29,"Floristry, Ice skating",40.1942,-86.9779
Oscar,Smith,M,M,39,Carpentry,43.6599,-82.6126
Kelly,Morgan,F,B,29,"Mountain biking, Lacrosse, Jogging, Bouldering",38.1004,-93.0528
Stacy,Wilkerson,F,B,27,"Puzzle solving, Gaming, Data analysis, Basketball",42.6926,-120.5452
Gregory,Murray,M,M,18,Astronomy,38.0019,-89.2323
Jeremy,Cobb,M,B,32,"Astronomy, Gaming, Knitting, Kayaking",38.668,-86.9977
Erik,Morales,M,F,21,Cybersecurity,40.5524,-76.002
Paul,Kim,M,F,21,"Weightlifting, Public relations, Interior design",31.1953,-97.3368
Melissa,Potter,F,F,20,"Yoga, Sailing",40.8441,-83.0947
Derek,Burke,M,F,29,"Fishing, Jujitsu",40.5106,-93.5299
Riley,Zuniga,M,B,32,"Water polo, Journalism, Golf",38.4811,-75.8318
Annette,Shepard,F,B,27,"Sewing, Card games, Field hockey, Nature Photography",45.134,-67.224
Amy,Robinson,F,M,34,Darts,64.7052,-158.2382
Jonathan,Waller,M,B,30,"Marketing, Knitting, Geocaching, Water polo",40.4684,-74.6559
Lisa,Robinson,F,F,39,Letterboxing,32.2436,-94.4561
Jennifer,Pena,F,M,31,"Cooking, Hunting",30.4717,-88.345
Dale,Burton,M,M,24,"Mountain biking, Physics, Guitar",40.1753,-110.394
Robert,White,M,B,28,"Paragliding, Interior design",42.3396,-94.4849
Courtney,Giles,F,F,24,"Photography, Sketching, Darts, Geocaching",40.0532,-87.436
Sherry,Reeves,F,M,24,Reading,37.2273,-76.9666
Corey,White,M,F,37,"Karate, Tennis",29.8457,-90.7238
Margaret,Williams,F,M,22,Skiing,40.1356,-76.861
Erik,Smith,M,B,36,"Diving, Food styling",40.7991,-79.3149
Timothy,Cantu,M,B,28,"Baseball, Badminton, Landscaping, Basketball",42.0262,-73.8456
Laura,Gardner,F,F,27,"Snowboarding, Muay Thai",36.2305,-99.168
Lisa,Lopez,F,B,39,"Field hockey, Fitness",48.122,-122.7877
Denise,Frey,F,M,37,Boating,44.7907,-95.8079
Jason,Greene,M,M,28,"Computer programming, Escape rooms",40.1702,-77.4016
Stacy,Campbell,F,B,38,"Marathons, Floristry",46.5965,-112.0202
Stephanie,Fuller,F,F,23,Billiards,27.2235,-97.7955
Tracy,Zimmerman,M,B,19,"Martial arts, Kiteboarding, Acting, Pilates",26.5733,-81.8903
Kristin,Mccann,F,M,25,"Lacrosse, Self defense",31.0113,-83.866
Benjamin,Blankenship,M,F,31,"Theater, Basketball",39.6858,-75.5849
Dominique,Watts,F,M,26,"Geocaching, Rock climbing, Improv, Art",38.1248,-120.857
Victoria,Glenn,F,B,36,"Hunting, Boating, Swimming",47.4602,-114.8842
Linda,Schneider,F,B,25,"Ballroom dancing, Marketing, Acting, Hunting",48.6897,-104.454
Lauren,Glover,F,M,19,"Kiteboarding, Art, Yoga",39.2055,-89.4052
Karen,Cunningham,F,M,22,"Badminton, Interior design, Surfing",36.6771,-80.6997
Jenna,Fernandez,F,M,20,Advertising,45.6114,-113.447
Kim,Gibson,F,M,38,Gardening,40.7486,-81.8333
Danielle,Lawrence,F,B,23,"Sculpting, Music",36.175,-82.7454
Kaylee,Holloway,F,M,22,Gardening,38.0902,-88.5388
Thomas,Dean,M,F,35,"Literature, Ceramics, Jazz, Travel",34.001,-117.4706
Darren,Lynch,M,F,22,"Soccer, Judo",40.9325,-74.7179
Megan,Hunter,F,B,20,"Wine tasting, Floristry, Investment banking, Nature Photography",33.8324,-113.5432
Julia,Johnson,F,B,23,"Fashion design, Soccer, Ballet, Golf",44.4381,-103.6434
Mary,Schultz,F,B,21,"Air hockey, Jazz, Food criticism",39.4508,-108.0529
Lindsey,Watts,F,F,38,"Food criticism, Filmmaking, Skateboarding, Computer programming",40.6877,-89.6731
Alec,Cruz,M,F,39,"Gaming, Calligraphy, Glassblowing",27.1959,-80.2444
Michelle,Burch,F,F,30,"Watercolor, Investment banking, Badminton",39.9019,-84.4958
Pamela,Jimenez,F,M,19,"Synchronized swimming, Astrophysics",39.1553,-84.3765
Emily,Guerrero,F,B,22,"Weightlifting, Theatre, Nature, Public relations",36.3774,-92.2155
Nicole,Guerrero,F,F,26,"Card games, Yoga, Travel",39.7051,-77.3217
Michele,Smith,F,M,32,"Weightlifting, Wrestling, Surfing, Boxing",41.6268,-75.7862
Troy,Church,M,F,32,"Skateboarding, Glassblowing, Yoga",41.9804,-88.2071
Derrick,Fleming,M,B,19,"Muay Thai, Yoga, Music production, Boxing",41.2993,-73.5383
Sarah,Stevens,F,B,19,"Tennis, Polo, Journalism, Equestrian",39.2755,-93.9729
Angela,Roth,F,F,33,"Video games, Photography, Swimming, Judo",43.7487,-118.0789
Antonio,Buchanan,M,B,39,"Yachting, Theatre",31.6492,-97.3048
Carl,Allen,M,M,33,"Video editing, Knitting, Photography, Judo",37.3342,-82.8733
Barbara,Jordan,F,F,37,"Journalism, Jazz, Volleyball",45.5231,-118.4396
Terry,Lowe,M,M,18,Cybersecurity,29.8415,-81.2713
Matthew,Winters,M,B,35,Rock Climbing,38.0958,-94.3633
Tanya,Davis,F,F,21,"DJing, Jogging",42.3834,-83.1024
David,Thompson,M,M,28,"Carpentry, Geocaching",37.162,-83.378
Richard,Munoz,M,F,39,"Hiking, Photography, Sailing",30.4871,-95.9899
Veronica,Barnes,F,F,34,"Art history, Woodworking, Card games, Skiing",43.9273,-100.3011
Karen,Novak,F,F,20,"Muay Thai, Computer programming, Web design, Soccer",39.9075,-75.2679
Amanda,Walker,F,B,22,"Bouldering, Blacksmithing, Sculpting",39.621,-77.4076
Jay,Rodriguez,M,M,31,"Teaching, Ballroom dancing, Boxing",40.5965,-75.1988
Mary,Jones,F,M,39,"Astrophysics, Improv",37.8244,-92.1532
Katie,Ward,F,B,21,Judo,33.3234,-99.6736
Patricia,Frost,F,B,34,"Rock Climbing, Squash",40.3317,-75.9703
Jill,Curry,F,B,37,"Poetry, Geocaching, Journalism, Equestrian",34.486,-83.5497
Ryan,Roberts,M,M,31,Theatre,43.3718,-92.1163
Anna,Simmons,F,F,31,"Food styling, Music production, Teaching, Interests",41.4557,-89.6692
Robert,Rhodes,M,F,22,"Art, Pinball",39.5574,-78.9912
Sarah,Wilson,F,F,30,"Yoga, Acting",34.2519,-106.9158
Jessica,Bryan,F,M,29,"Movies, Photography, Soccer, Kickboxing",35.3433,-118.9987
Kevin,Little,M,B,37,Shuffleboard,38.007,-122.0873
Cassandra,Dixon,F,F,20,"Fishing, Road cycling",33.6277,-83.8721
Christina,Whitehead,F,M,38,"Jujitsu, Calligraphy, Kayaking",29.5836,-95.7966
Renee,Bolton,F,M,22,"Snowboarding, Dancing, Watercolor, Bowling",45.0495,-101.6013
Alice,Glover,F,M,29,"Biking, Watercolor, Mobile app development, Boxing",40.992,-88.7299
Kayla,Hess,F,B,19,"Poetry, Landscaping",40.5834,-74.1496
Paul,Huerta,M,M,27,Soccer,31.9872,-99.6253
Joshua,Hines,M,B,35,"Journalism, Choreography, Skateboarding, Filmmaking",35.0699,-80.6452
Julia,Roberts,F,B,24,"Skateboarding, Mountain biking, Computer programming, Ballet",33.5287,-86.9572
Laura,Delgado,F,B,39,"Weightlifting, Orienteering",37.9878,-122.07
Diane,Stafford,F,F,35,"Paragliding, Dancing, Skiing",37.3792,-89.6522
Destiny,Mosley,F,B,26,"Basketball, Gardening, Yachting, Baking",43.4401,-92.8879
Robin,Williams,F,F,28,Calligraphy,44.9657,-93.5908
Todd,Mcknight,M,B,18,"Music, Teaching",43.0482,-76.5637
Patrick,Horton,M,F,32,"Air hockey, Sculpting",36.258,-83.1966
Monica,Johnson,F,F,23,"Escape rooms, Kickboxing, Road cycling, Pinball",46.5573,-120.6138
Jesus,Palmer,M,B,37,"Horseback riding, Rock Climbing",41.1613,-82.2255
Heidi,Francis,F,M,35,"Mobile app development, Painting, Woodworking, Self defense",47.8301,-101.0843
Paul,Jenkins,M,B,21,"Sculpting, Painting, Art",29.0007,-81.424
Denise,Wallace,F,B,31,"Shuffleboard, Lacrosse, Darts",40.3644,-99.1693
Shirley,Serrano,F,F,24,"Music production, Cycling, Glassblowing, Treasure hunting",43.9427,-115.946
Lori,Brown,F,F,21,"Running, Hiking",34.4289,-103.6296
Rebecca,Miller,F,M,20,"Skydiving, Marketing, Movies, Data analysis",29.807,-82.5955
Terry,Ball,M,F,30,"Nature, Wrestling, Data analysis",42.1091,-91.2758
Kendra,Joyce,F,M,32,"Bouldering, Knitting, Blacksmithing, Filmmaking",31.3218,-83.917
Kristopher,Thomas,M,F,23,"Golf, Yachting, Running",18.4412,-66.2156
Timothy,Morales,M,M,34,Rappelling,41.1856,-74.3787
Ryan,Castaneda,M,M,19,"Knitting, Martial arts",41.531,-83.2126
Stephanie,Clarke,F,M,29,"Rock climbing, Badminton, Orienteering, Field hockey",37.5525,-92.7871
Stephanie,Zuniga,F,M,31,Board games,32.7906,-95.6343
Alex,Salazar,M,B,35,"Hunting, Basketball",42.3827,-111.3228
Teresa,Arroyo,F,B,34,"Judo, Gaming, Football, Yachting",37.5254,-120.7974
Dennis,Franklin,M,M,23,Hang gliding,37.1165,-94.1682
Jessica,Mcdonald,F,B,36,"Letterboxing, Badminton, Video games",30.3855,-87.5888
Matthew,Wilson,M,B,37,"Baking, Rugby, Mixology, Nature Photography",32.9229,-85.9358
Chris,White,M,B,24,Water polo,41.6431,-87.7081
Mark,Cummings,M,B,22,"Swimming, Stand-up comedy, Lacrosse",38.2183,-108.5665
Jeremy,Robinson,M,F,33,Data analysis,37.2093,-86.8921
Amanda,Howard,F,B,24,"Yoga, Billiards",47.0784,-109.4735
Eugene,Novak,M,F,25,Advertising,33.6281,-81.3079
Desiree,Yates,F,B,30,Darts,46.3076,-123.6345
Jack,Leach,M,F,23,"Volleyball, Boxing, Advertising",47.0043,-108.3466
Tracy,Adams,M,M,36,"Volleyball, Meditation, Hunting, Nature Photography",40.5842,-74.2716
Tabitha,Lee,F,M,33,"Kickboxing, Darts, Karate, Football",48.3132,-99.5733
Elizabeth,Kirby,F,F,39,Data analysis,30.2365,-92.193
Megan,Dominguez,F,B,30,"Polo, Gaming, Woodworking, Astrophysics",44.7669,-121.2898
Christopher,Johnson,M,B,21,Wine tasting,30.3005,-97.7522
Monica,Russo,F,M,37,"Ballroom dancing, Astrophysics, Jazz, Cybersecurity",64.7434,-141.1138
Michael,Carter,M,F,32,"Landscaping, Sewing",40.8157,-73.502
Taylor,Joseph,F,M,34,Stock trading,38.531,-90.4087
Rachael,Vasquez,F,B,24,"Art, Interior design, Salsa",35.6283,-86.697
Michael,Mccoy,M,F,26,"Rock Climbing, Diving, Astrophysics, Wrestling",41.685,-72.1845
Megan,Ross,F,M,23,"Skiing, Water polo, Blacksmithing",33.3951,-110.8724
Vanessa,Wells,F,B,20,Financial analysis,32.6692,-79.95
Samantha,Brown,F,M,31,Hunting,35.064,-77.3553
Jason,Hahn,M,B,25,"Improv, Field hockey",47.0656,-120.6709
Daniel,Walton,M,F,35,"Jogging, DJing, Filmmaking",41.2756,-86.0459
Jose,Rivas,M,F,32,"Theatre, Nature",47.8563,-121.6921
Danny,Nolan,M,B,18,"Soccer, Bowling, Calligraphy, Tennis",35.1487,-120.6493
Trevor,Mitchell,M,F,32,Stand-up comedy,39.8956,-78.5174
Samuel,Martinez,M,F,32,"Wine tasting, Reading, Mobile app development, Swimming",21.4756,-157.9948
Edward,Jones,M,B,26,"Tennis, Theater, Letterboxing, Floristry",35.1349,-87.5377
Erika,Rogers,F,M,35,"Art history, Mountain biking",41.427,-78.7297
Taylor,King,F,M,26,"Photography, Soccer, Marathons",37.571,-81.3614
Diane,Davis,F,B,36,"Hunting, Treasure hunting, Theatre",36.2304,-90.7256
Debra,Alvarez,F,B,28,"Rugby, Music, Bar tending, Landscaping",38.7773,-77.2633
Belinda,Higgins,F,M,38,Rugby,38.4384,-112.2544
Joel,Davidson,M,B,23,"Art history, Skydiving, Ethical hacking",42.4407,-94.1192
Eugene,Kemp,M,B,32,Gymnastics,41.4545,-92.2383
Thomas,Thompson,M,F,19,"Road cycling, Skiing",37.3677,-89.8097
Benjamin,Ramirez,M,M,18,"Salsa, Martial arts, Astrophysics",32.9069,-111.7624
Scott,Shaw,M,B,19,Lacrosse,30.7812,-89.8633
Jade,Ellis,F,B,18,"Bar tending, Treasure hunting, Jogging",30.2736,-97.7867
Julie,Morris,F,B,35,"Cycling, Pool, Filmography",32.968,-102.8318
Troy,Hall,M,M,22,"Wrestling, Ethical hacking, Board games",31.1656,-92.5098
Richard,King,M,F,19,"Mathematics, Horseback riding",42.8195,-84.232
Christopher,Flores,M,M,20,Gymnastics,34.8387,-89.6144
Jennifer,Cortez,F,M,26,"Singing, Gardening, Food criticism",41.6923,-70.0694
Michael,Ferguson,M,F,29,"Financial analysis, Field hockey",25.6415,-80.4
Samantha,Oneill,F,F,28,American football,61.804,-148.4103
Katie,Brown,F,M,32,"Badminton, Investment banking, Muay Thai, Sewing",33.8616,-117.5649
Alexandra,Walker,F,B,30,"Painting, Sketching, Baseball, Public relations",39.2245,-82.1975
James,Robinson,M,F,21,Soccer,38.89,-84.2481
Deborah,Gonzales,F,F,33,"Filmography, Data analysis, Rock Climbing, Rugby",43.0768,-98.2934
Ashley,Taylor,F,M,31,"Board games, Jujitsu",46.4727,-117.5445
Alexandra,Baldwin,F,M,25,"Journalism, Marathons",42.6643,-104.0913
Cameron,Hogan,M,F,23,"Cooking, Kiteboarding, Literature, Kayaking",36.8533,-120.4535
Cheryl,Harmon,F,B,24,"Squash, Photography, Floristry, Bowling",32.3796,-84.4401
Anthony,Rodriguez,M,F,28,"Geocaching, Air hockey",42.4276,-76.4612
Anthony,Taylor,M,M,18,"Horseback riding, Literature",35.9032,-79.9591
Melissa,Clements,F,F,27,Movies,34.0292,-94.7426
Jessica,Vasquez,F,B,27,"Computer programming, Field hockey, Boxing",38.9252,-111.2522
Charles,Davis,M,M,35,"Stock trading, Astronomy, Rock climbing, Cybersecurity",45.415,-110.6533
Andres,Graham,M,F,37,"Data analysis, Food styling, Web design",64.8006,-147.3877
Jennifer,Hensley,F,M,20,"Food criticism, Marathons",42.9895,-71.8141
Sarah,Torres,F,F,19,"Sailing, Equestrian, Woodworking",30.402,-83.96
John,Ramos,M,B,37,Sailing,37.863,-90.6144
Casey,Huffman,M,F,34,"Wine tasting, Salsa, Reading",42.7468,-84.5926
Vincent,Smith,M,F,33,"Pilates, Filmmaking, Mixology, Surfing",34.7795,-96.7755
Colleen,Smith,F,B,19,"Investment banking, Mixology, Hiking",43.9308,-96.9436
Katie,Goodman,F,B,31,Mathematics,34.0123,-117.9043
Crystal,Andrews,F,F,18,"Darts, Data analysis",44.3654,-123.3559
John,Stanton,M,F,39,"Fishing, Cycling",45.5974,-122.9948
Rebecca,Watson,F,B,23,Basketball,34.733,-80.0778
Kimberly,Ramirez,F,M,35,"Ethical hacking, Drawing, Weightlifting, Card games",39.3241,-77.7517
Sydney,Reyes,F,M,38,Bowling,43.5191,-96.5561
Steven,Price,M,F,18,"Nature Photography, Woodworking, Biking, Skydiving",34.9937,-94.5156
Eric,Smith,M,M,31,"Photography, Boating, Ice skating, Bouldering",35.1205,-114.5461
Michael,Becker,M,B,24,Surfing,41.7733,-112.445
Ariel,Ramirez,F,B,27,"Synchronized swimming, Rugby",48.1781,-117.0546
Tyler,Thompson,M,M,30,DJing,42.5665,-76.1329
Damon,Davis,M,M,23,"Self defense, Badminton",42.1736,-94.1061
Timothy,Carter,M,M,20,"Public relations, Fashion design, Cybersecurity",33.9007,-86.0238
Brittany,Flores,F,M,30,"Sewing, Paragliding, Food criticism, Polo",37.3665,-118.3958
Carla,Smith,F,F,22,"Art history, Drawing, Astrophysics",40.3362,-76.0053
Diane,Mckee,F,F,27,"Marathons, Soccer",34.2051,-83.0309
April,Simon,F,B,22,Food criticism,41.5614,-88.0587
Kelly,Fernandez,F,B,19,"Guitar, Hang gliding",33.6757,-108.7768
James,Richardson,M,F,23,Card games,41.3875,-83.3216
Catherine,Sutton,F,F,29,"Badminton, Fashion design, Skydiving, Interests",38.3725,-81.7558
Marcia,Rios,F,B,38,"Water polo, Sketching, Journalism, Gymnastics",44.7696,-93.7931
Robert,Lowe,M,M,19,Wine tasting,39.4889,-74.5417
Chelsea,Davis,F,M,24,Food criticism,31.4424,-100.4504
Danielle,Garza,F,M,32,"DJing, Roller hockey, Knitting",41.7222,-73.9333
Amber,Nash,F,M,33,"Video editing, Jazz",26.6994,-80.0989
Angela,Stewart,F,M,39,"Ballet, DJing",40.5176,-111.9636
Nicole,Jenkins,F,F,32,"Sailing, Yoga, Equestrian, Nature Photography",43.8183,-83.1809
Tyler,Evans,M,F,33,"Triathlons, Theater, Cycling, Pinball",41.358,-89.7391
Jasmine,Gibson,F,B,31,"Mountain biking, Video editing, Snowboarding",40.877,-85.1683
Robert,Morrison,M,M,39,"Boxing, Bouldering",45.1975,-92.5321
Lorraine,Castro,F,B,23,"Interests, Pinball, Rock Climbing, Kickboxing",39.2711,-74.9729
Andrew,Adams,M,B,23,Gaming,40.3044,-78.3323
Lorraine,Duke,F,F,38,Public relations,39.5674,-97.2937
Kelly,Ortiz,M,F,24,"Meditation, Fitness, Art, Surfing",46.5999,-95.5771
Erica,Summers,F,F,38,"Interests, Mobile app development, Reading",43.1892,-112.5306
Jody,Smith,F,F,28,DJing,44.0364,-71.6968
Natasha,Gould,F,M,38,"Photography, Martial arts, Pool, Ethical hacking",39.0393,-77.0723
Jesse,Moore,M,B,37,"Golf, Filmmaking, Sewing",42.4667,-75.0969
Darlene,Irwin,F,B,30,"Golf, Roller hockey",40.7586,-74.4169
Robert,Boyer,M,F,34,"Kiteboarding, American football",36.187,-109.4348
Steven,Webb,M,M,31,"Painting, Water polo, Dancing, Choreography",44.599,-92.8196
Mark,Hanson,M,B,28,"Kiteboarding, Sketching, Art",37.3411,-89.2535
Edward,Estrada,M,B,25,"Landscaping, Advertising, Drawing, Woodworking",32.2486,-93.6895
Peter,Newman,M,F,32,"Yachting, Horseback riding, Fishing",41.6147,-93.798
Jennifer,Robinson,F,F,32,"Cycling, Floristry",39.6153,-104.9131
Brian,Johnson,M,B,30,Cooking,40.5376,-78.3542
Kimberly,Armstrong,F,M,33,"Pilates, Skydiving",47.5371,-116.142
Dustin,Williamson,M,B,39,"Salsa, Cycling, Guitar",28.6114,-82.0493
Robert,Griffith,M,M,25,Choreography,35.8407,-114.9257
Sierra,Larson,F,M,29,"Yachting, Nature, Filmmaking, Blacksmithing",40.9382,-74.2564
Christopher,Parker,M,M,29,"Pilates, Astrophysics, Rugby, Ballroom dancing",48.5537,-96.1671
David,Griffin,M,F,39,Rock Climbing,40.9196,-80.9964
Lee,Dorsey,M,F,21,Volleyball,42.0278,-87.8099
Earl,Blevins,M,M,30,Board games,18.2865,-67.1868
Angela,Lambert,F,M,23,Rock Climbing,34.3729,-83.2328
Rebecca,Holland,F,F,21,"DJing, Video editing",59.6745,-151.4363
Eric,Alexander,M,B,22,"Improv, Lacrosse, Marathons, Ceramics",40.8757,-111.3847
Tami,Ward,F,B,37,Golf,43.0407,-76.1437
Jeffrey,Rosario,M,M,31,"Physics, Investment banking",45.392,-108.9065
Christopher,Suarez,M,B,22,"Food styling, Interests",26.7123,-81.8684
Kelly,Fitzgerald,F,M,35,"Muay Thai, Knitting, Puzzle solving",35.1865,-85.3303
Matthew,Munoz,M,F,24,"Drawing, Ballet",44.9944,-123.9783
Donna,Norman,F,F,25,"Volleyball, Reading, Shuffleboard, Sketching",33.1017,-98.5779
Crystal,Owens,F,M,22,"Gardening, Letterboxing",39.9497,-76.701
Charles,Shields,M,B,34,Video editing,38.9016,-76.9153
Jasmine,Barrett,F,B,39,"Data analysis, Music, Fishing",41.7102,-111.9776
Robert,Pena,M,B,23,"Marathons, Table tennis, Wine tasting, Woodworking",32.8837,-105.9625
Lisa,Walton,F,B,36,Puzzle solving,40.6539,-81.455
Michael,Baker,M,F,22,"Football, Weightlifting, Skiing, Nature",33.9064,-86.5178
Patrick,George,M,B,21,"Theater, Filmography, Kickboxing, Nature Photography",42.2445,-87.9197
Julie,Wong,F,B,21,"Nature Photography, Skateboarding, Theatre",34.0754,-80.9547
Elaine,Jordan,F,B,27,Hunting,29.2018,-82.3098
Donna,Castillo,F,B,19,"Journalism, Stand-up comedy",48.4614,-115.8909
Mary,Barry,F,F,24,"American football, Floristry",20.9767,-156.6646
Tamara,Harris,F,B,38,"Lacrosse, Singing",40.1364,-74.7315
Matthew,Reeves,M,B,25,"Data analysis, Financial analysis, Fishing, Skateboarding",41.639,-93.7812
Tyrone,Williams,M,F,32,"Astrophysics, Watercolor",38.799,-107.7133
Timothy,Scott,M,F,39,"Baking, Snowboarding",40.5559,-79.1558
Christopher,Brady,M,F,23,"Knitting, Billiards, Boating, Singing",33.7435,-116.2874
Mary,Martinez,F,F,20,"Theater, Rock climbing",29.9457,-93.9164
Megan,Morris,F,B,39,Pottery,41.8443,-71.8823
Wanda,Wiley,F,M,26,"Karate, Web design, Cooking, Mathematics",37.5405,-100.6288
Jeremy,Doyle,M,M,28,Choreography,38.2608,-85.6594
Samuel,Gentry,M,F,36,"Squash, Wrestling",36.4291,-94.3712
Jesse,Smith,M,M,29,"Music, Pilates, Badminton",19.0698,-155.5751
Nicholas,Bean,M,M,38,"Video games, Sculpting",40.7651,-74.2117
Andrew,Middleton,M,M,21,"Woodworking, Field hockey, Soccer",34.2394,-86.963
Kristen,Lucas,F,B,31,"Ceramics, Literature",37.9819,-120.3828
Antonio,Richards,M,B,39,"Improv, Interests",32.8004,-99.6232
Jason,Allen,M,F,18,"Baking, Surfing, Salsa, Marathons",48.945,-98.9969
Samuel,Middleton,M,M,29,"Gaming, Puzzle solving",20.7706,-156.3284
Alexis,Harris,F,F,36,"Self defense, Judo",43.5133,-92.5079
Emily,Hunt,F,B,30,"Ballroom dancing, Literature, Equestrian",44.1613,-75.0363
Christopher,Page,M,B,33,"Lacrosse, Puzzle solving, Web design",34.235,-92.9195
Robin,Logan,F,M,27,"Wine tasting, Guitar",39.0082,-119.9307
Jeffery,Cruz,M,F,26,"Hunting, Ballet, Theatre, Rugby",39.6385,-89.1921
Miranda,Avila,F,B,18,"Fitness, Writing, Astronomy",38.422,-80.6548
Kelly,Joyce,F,F,28,"Card games, Food criticism, Lacrosse, Ballroom dancing",42.0577,-94.7266
Crystal,Marshall,F,M,36,"Skydiving, Kickboxing, Golf, Financial analysis",34.3292,-77.9141
Claudia,Garcia,F,F,33,Football,30.7509,-98.6763
Matthew,Cline,M,B,25,Biking,36.1345,-99.7727
Evan,Adams,M,B,36,"Soccer, Table tennis",30.4568,-97.3979
Allen,Sanchez,M,F,37,"Computer programming, Sculpting, Marketing",27.9772,-97.7766
Richard,Lee,M,B,28,"Bouldering, Music production, Nature Photography, Muay Thai",38.8676,-88.8505
Chad,Flores,M,M,33,"Sewing, Table tennis",29.4874,-95.1087
Kevin,Davis,M,B,18,"Rock climbing, Mountain biking, Weightlifting, Baking",40.5058,-80.0814
Jesse,Barton,M,F,33,"Landscaping, Writing",47.1706,-110.3397
Jimmy,Burgess,M,M,34,Blacksmithing,33.7643,-86.4742
Kenneth,Sexton,M,F,38,"Travel, Self defense, Martial arts, American football",40.2623,-76.8342
Candace,Oneal,F,F,37,"Ethical hacking, Badminton",38.0266,-78.8357
Jessica,Wood,F,F,39,"Advertising, Pilates",40.1407,-120.1782
Joshua,Little,M,M,27,"Web design, Pilates, Jogging, Muay Thai",39.5017,-85.1877
Michelle,Ellis,F,B,30,"Gaming, Poetry",43.5569,-119.0803
Veronica,Blevins,F,M,39,"Table tennis, Bouldering, Yachting",31.2649,-88.0284
Jacqueline,Murphy,F,B,35,"Muay Thai, Salsa, Horseback riding",42.8087,-88.215
Cynthia,Jimenez,F,M,21,"Air hockey, Treasure hunting, Surfing",31.1741,-84.7319
Amanda,Hahn,F,M,30,"Road cycling, Drawing, Biking, Travel",43.507,-90.6735
Stephen,Ferguson,M,B,33,"Writing, Woodworking",38.4683,-93.6251
Amber,French,F,F,20,Geocaching,18.4387,-66.2159
Harold,Mckinney,M,B,37,"Poetry, Letterboxing",43.0616,-88.0347
Roger,Spencer,M,M,36,"Marketing, Knitting, Nature Photography, Bouldering",42.4234,-71.1087
Rebecca,Brooks,F,F,32,"Horseback riding, Pottery, Landscaping",35.682,-89.577
Franklin,Love,M,M,21,"Biking, Rock Climbing",38.8621,-77.7743
Kimberly,Harrison,F,F,21,"Marathons, Skydiving, Yoga, Video editing",40.3552,-78.4305
Kevin,Esparza,M,F,21,"Golf, Pilates",33.6399,-84.3376
Stephanie,Ramirez,F,M,28,Theatre,38.1384,-97.7704
Christina,Price,F,B,26,"Fitness, Advertising, Ethical hacking, Karate",34.4429,-92.1844
Emma,Hernandez,F,B,28,"Diving, Golf",31.7641,-82.3509
Leonard,Murphy,M,M,36,"Pool, Kickboxing, Interests, Poetry",41.9877,-83.8304
Patrick,Adams,M,F,18,"Ice skating, Baking",38.7694,-79.928
Steven,Campbell,M,M,18,Baseball,44.2036,-89.8377
Tanner,Rubio,M,M,20,"Wine tasting, Squash",36.9399,-107.0049
Jessica,Carney,F,B,33,"Ceramics, Mobile app development, Volleyball",41.3792,-86.5831
Noah,King,M,F,22,"Karate, Escape rooms, Swimming",40.0409,-75.3945
Shirley,Lopez,F,M,34,"Movies, Stock trading, Horseback riding",33.978,-81.1468
Tracy,Bradley,F,M,23,"Football, Judo, Music, Mobile app development",47.0572,-109.6362
Kimberly,Marquez,F,M,21,"Data analysis, Tennis, Interests, Investment banking",38.7793,-119.8077
Thomas,Hickman,M,M,35,"Choreography, Ceramics",45.326,-92.171
Misty,Parker,F,F,19,"Literature, Woodworking, Mixology",41.239,-80.8174
Bryan,Walker,M,B,26,"Boxing, Carpentry",38.8717,-77.397
Maria,Hodge,F,B,18,"Marketing, Running, Yachting, Journalism",42.9591,-74.2381
Jessica,Jackson,F,M,23,"Marathons, Fishing, Wine tasting",32.7318,-94.9461
Samuel,Aguirre,M,B,26,"Interests, Journalism",35.4067,-89.297
Mary,Sanchez,F,B,22,"Singing, Floristry, Pottery",34.7594,-112.412
Mallory,Taylor,F,F,27,"Field hockey, Card games",37.7674,-90.6224
Katherine,Hill,F,F,31,"Drawing, Mixology",41.0149,-74.664
Robin,Lopez,F,F,23,"Gaming, Mathematics",37.6924,-77.6123
Patrick,Ramos,M,B,22,Bowling,44.3328,-91.4172
Robin,Jones,F,F,19,"Synchronized swimming, Bar tending, Boating, Squash",41.1742,-80.4557
Stacy,Davila,F,F,21,Calligraphy,42.9553,-91.6354
Amy,Owens,F,F,23,"Computer programming, Glassblowing",34.9318,-85.246
Larry,Davis,M,B,30,"Golf, Horseback riding, Investment banking, Mathematics",46.886,-103.1952
Michelle,Mayo,F,B,35,"Ceramics, Windsurfing, Puzzle solving",36.6565,-119.5981
Christopher,White,M,B,19,"Swimming, Theatre, Financial analysis",39.7341,-77.528
Keith,Acosta,M,M,20,Guitar,38.2552,-87.2588
Aaron,Mack,M,F,38,"Writing, Skiing",39.577,-107.451
Megan,Harmon,F,B,29,"Food criticism, Golf, Synchronized swimming, Shuffleboard",33.3552,-81.2835
Morgan,Flynn,F,M,26,"American football, Golf, Nature",31.7544,-95.6471
Taylor,Wolf,M,B,31,"Pilates, Financial analysis",27.6964,-82.3034
Catherine,Johnson,F,B,39,"Pool, Floristry, Yoga, Sailing",33.8308,-94.3542
Holly,Wilkerson,F,B,21,"Floristry, Treasure hunting",41.7572,-103.323
Christopher,Delgado,M,B,25,"Treasure hunting, Skateboarding, Woodworking",44.9712,-116.2857
Kevin,Hernandez,M,M,38,"Ballroom dancing, Karate",47.9091,-97.6269
Jason,Anderson,M,M,33,"Hunting, Nature, Darts, Theatre",32.1792,-88.3002
April,Stevens,F,B,27,"Poetry, Bar tending, Cybersecurity, Travel",30.5735,-84.2055
John,Garcia,M,M,19,"Nature, American football, Cybersecurity, Video editing",44.9907,-71.5311
Tina,Richardson,F,M,26,"Music production, Advertising, Pinball",40.1913,-74.0166
Angela,Jensen,F,B,19,Puzzle solving,37.7837,-85.6804
Eric,Hunt,M,M,32,"Sailing, Boxing, Astronomy",40.7411,-85.5619
Michael,Stevens,M,B,26,"Skydiving, Rugby, Running, Web design",38.7008,-76.3353
Michael,Freeman,M,B,37,"Teaching, Salsa",47.4602,-114.8842
Kimberly,Haney,F,B,19,"Rock Climbing, Financial analysis",39.9671,-84.7082
Brooke,Robinson,F,F,35,"Filmmaking, Writing, Bar tending, Landscaping",42.6879,-73.6449
Richard,Smith,M,F,29,Journalism,40.0915,-75.1463
Jonathan,Gonzales,M,M,37,"Ice skating, Kickboxing",37.1057,-122.1106
Eric,Jensen,M,B,34,"Lacrosse, Road cycling, Photography, Ballet",32.1148,-103.19
Joe,Morgan,M,M,23,Bowling,38.2579,-90.3948
Michael,Lee,M,F,19,Basketball,40.4572,-96.5129
Emily,Benton,F,F,18,"Stock trading, Rappelling, Pinball, Weightlifting",36.3513,-75.9526
Thomas,Carpenter,M,F,39,Kiteboarding,43.0491,-89.0762
Jenny,Parker,F,M,38,"Bouldering, Calligraphy",35.9454,-95.8776
Alex,Lane,M,M,20,"Karate, Golf, Teaching, Woodworking",39.5792,-89.408
Michael,Edwards,M,F,37,Wine tasting,47.7926,-99.6528
Nicole,Sandoval,F,M,26,"Karate, Geocaching, Boating, Table tennis",47.8533,-122.2762
Louis,Gomez,M,F,20,Synchronized swimming,40.3122,-78.905
Dawn,Garner,F,B,31,"Running, Swimming, Fashion design, Rock Climbing",42.9773,-85.0727
James,Chase,M,B,30,"Acting, Wine tasting, Jogging, Art",31.5254,-81.432
Michael,Hall,M,B,34,"Movies, Literature",41.6846,-70.5082
Timothy,Townsend,M,B,21,"Marketing, Diving",61.5617,-145.0656
Belinda,Craig,F,F,25,Volleyball,33.1707,-91.9367
Robert,Rodriguez,M,F,30,"Choreography, Roller hockey, Self defense",39.0061,-122.0051
Charles,Wallace,M,F,20,"Muay Thai, Theatre, Stock trading, Guitar",40.4981,-98.9672
Michael,Anthony,M,F,38,"Escape rooms, Watercolor, Bowling, Pinball",42.5839,-77.7914
Robert,Ho,M,F,30,"Gymnastics, Travel, Boxing",39.8452,-97.1724
Susan,Yang,F,B,25,"Watercolor, Ballroom dancing, Marketing, Triathlons",40.9298,-94.981
Michael,Shelton,M,F,37,"Rock climbing, Shuffleboard, Knitting, Journalism",38.6162,-89.6087
Steven,Spencer,M,M,30,"Martial arts, Watercolor, Yachting, Wrestling",33.8671,-96.6596
James,Rollins,M,M,29,"Card games, Horseback riding, Judo",40.1221,-96.6642
Melinda,Smith,F,M,21,"Orienteering, Basketball",44.2179,-85.962
Linda,Harris,F,B,30,"Improv, Pilates",45.6586,-118.6655
Michael,Chavez,M,B,26,"Ice skating, Painting, Triathlons",30.594,-91.6179
Leah,Edwards,F,F,38,"Video editing, Salsa, Puzzle solving",41.4557,-89.6692
Brett,Ortiz,M,F,18,American football,34.8821,-82.3336
Shane,Whitaker,M,B,21,"Glassblowing, Jogging, Running, Boxing",36.1783,-115.0487
Cheryl,Levy,F,F,21,"Kiteboarding, Interior design",40.8019,-75.6611
Amanda,Mcmillan,F,B,18,Knitting,39.7871,-98.2083
Benjamin,Hall,M,B,38,"Yoga, Running",25.9706,-97.4775
Rebekah,Caldwell,F,B,22,Drawing,30.0849,-94.1451
Molly,Harrison,F,M,31,"Air hockey, Bowling",37.9144,-88.7622
Louis,White,M,M,18,"Baking, Carpentry, Treasure hunting",29.081,-95.6372
Brian,Green,M,F,35,"Food criticism, Nature, Rock climbing, Karate",38.1125,-122.2342
Caitlyn,Joseph,F,M,22,"Ice skating, Diving, Nature Photography, Music",42.0639,-76.1567
David,Hart,M,B,21,"Wine tasting, Squash, Shuffleboard",42.2417,-113.8824
Terri,Warner,F,F,21,"Sketching, Fashion design, Singing",41.9213,-85.5259
Courtney,Johnson,F,M,18,"Sailing, Food styling, Teaching, Pottery",26.1563,-80.1452
Jeremy,Day,M,B,18,"Darts, Rock climbing, Puzzle solving",37.7742,-82.7557
Brad,Parrish,M,B,32,"Literature, Gaming",32.4681,-80.9178
Joseph,Sanchez,M,F,33,"Windsurfing, Ballroom dancing, Choreography, Mixology",44.5394,-90.0315
Jessica,Gardner,F,F,26,"Fitness, Photography, Muay Thai",39.337,-78.9223
William,Valentine,M,B,37,"Gaming, Badminton, Kayaking",47.436,-120.3295
Theresa,Dunn,F,F,25,"Pottery, Boxing, Yachting, Marathons",44.0084,-97.5956
Rebecca,Weber,F,F,27,"Pilates, Billiards",40.7452,-74.0281
Maria,Gardner,F,B,26,"Stock trading, Mountain biking, Biking, Acting",32.8961,-105.496
Megan,Sheppard,F,F,36,Rock climbing,39.7763,-80.8647
Lisa,Fox,F,M,30,"Dancing, Ceramics, Drawing",36.9969,-94.3152
Michele,Jacobs,F,M,22,"Mixology, Drawing, Kickboxing, Geocaching",35.529,-84.7933
Dalton,Summers,M,M,29,"Volleyball, Art, Sketching, Pinball",37.9823,-81.5367
Jason,Krueger,M,B,22,Squash,37.0811,-78.7485
Emily,Murray,F,F,25,"American football, Darts, Kiteboarding",41.5906,-88.0293
Kenneth,Thompson,M,B,19,"Martial arts, Marathons",46.5565,-87.4417
Jacqueline,Neal,F,M,34,"Cooking, Puzzle solving",40.7922,-76.283
Christopher,Gregory,M,B,36,Mobile app development,40.7599,-73.168
Karla,Porter,F,F,30,Board games,45.0904,-97.642
Jeremy,Ellis,M,F,34,Judo,34.0005,-93.3377
Megan,Wright,F,M,20,"Literature, Billiards, Knitting",48.6344,-112.3304
Kevin,Simmons,M,M,26,Boating,39.4993,-79.0511
Alyssa,Harmon,F,M,32,"Diving, Polo, Darts",43.064,-88.1231
Michelle,Rose,F,F,39,"Lacrosse, Ceramics, Music",38.2561,-119.2123
Shannon,Roman,F,F,18,"Swimming, Investment banking, Roller hockey, Fishing",39.1682,-90.7879
Vincent,Morton,M,F,22,"Astrophysics, Sculpting, Boxing, Tennis",35.6137,-95.0703
Cory,Armstrong,M,F,20,"Video editing, Meditation, Nature",39.4534,-78.9732
Leslie,Perez,F,B,23,"Diving, Biking, Art history",44.547,-95.1031
Shannon,Lyons,F,M,20,"Skiing, Fashion design",41.7932,-70.6389
Troy,Ruiz,M,B,24,"Carpentry, Yoga",41.2021,-76.7854
Robert,Williams,M,B,31,"Travel, Hiking, Soccer",36.1709,-94.6852
John,Huff,M,M,37,"Weightlifting, Swimming",43.8261,-87.8232
Peggy,Howe,F,B,28,"Video editing, Kiteboarding",30.8441,-83.3085
Diana,Glover,F,B,24,"Video editing, Fitness, Biking",44.7457,-93.2004
Joe,Reed,M,F,20,"Horseback riding, Paragliding, Fashion design, Polo",39.3832,-76.5519
James,Mason,M,F,36,"Bar tending, Board games, Letterboxing, Puzzle solving",41.5758,-87.6503
Sara,Crane,F,F,34,"Windsurfing, Jazz, Treasure hunting",40.4261,-74.0802
Abigail,Kelly,F,F,25,"Marathons, Music production",40.6658,-74.1913
Nichole,Valencia,F,M,23,"Knitting, Glassblowing",34.8476,-79.1396
Kelly,Mitchell,F,F,23,"Wrestling, Mountain biking, Meditation",33.3575,-91.8511
Rhonda,Terry,F,B,32,"Knitting, Badminton, Landscaping, Pilates",37.4184,-87.4809
Kelly,Jones,F,M,32,"Soccer, Floristry, Wine tasting, Skiing",31.8322,-89.4342
Jeffrey,Walton,M,B,23,"Theatre, Baseball",35.0246,-99.0875
David,King,M,F,26,"Escape rooms, Interests",43.5466,-116.8094
Abigail,Weaver,F,M,38,"Video editing, Fashion design, Jogging, Baking",35.5182,-108.7431
Edwin,Harris,M,F,26,Improv,27.477,-81.453
Adam,Black,M,F,20,"Filmography, Rappelling, Mountain biking",32.0256,-93.3406
Samantha,Long,F,M,20,"Fashion design, Muay Thai",48.0429,-98.3468
Preston,Henry,M,F,30,"Diving, Basketball, Theater",39.042,-76.063
Anthony,Callahan,M,B,33,"Boxing, Pilates, Astrophysics, Art history",45.8776,-95.3767
Thomas,Sullivan,M,F,33,"DJing, Drawing, Physics, Web design",38.5422,-122.8089
Annette,Randall,F,B,33,"Biking, Golf, Kayaking",42.9316,-74.6278
Billy,Norris,M,B,39,"Baking, Geocaching, Jujitsu, Yachting",18.0378,-66.6847
Sophia,Wallace,F,M,28,"Baseball, Painting, Triathlons, Card games",39.574,-75.5938
Robert,Abbott,M,B,38,Marketing,47.5125,-97.8373
Matthew,Harrington,M,F,25,"Marathons, Volleyball, Pottery, Baking",44.07,-123.3588
Kimberly,Johnson,F,F,34,"Meditation, Skiing, Pottery",26.6348,-80.0969
Cindy,Butler,F,F,24,"Video editing, Lacrosse",35.1881,-105.1163
Dakota,Becker,M,B,33,Geocaching,33.3935,-86.7041
Matthew,Keller,M,M,38,"Cooking, Lacrosse, Surfing",38.8149,-79.5451
Benjamin,Wilson,M,M,24,"Floristry, Cybersecurity",32.0764,-85.5244
Susan,Hendrix,F,M,34,Reading,35.6478,-82.3001
Kim,Chavez,F,F,38,"Orienteering, Baking, Hunting",34.2611,-111.2197
Lynn,Spencer,F,F,23,"Filmography, Bowling, Roller hockey, Glassblowing",41.3803,-81.6736
Jeffrey,Phillips,M,F,28,"Soccer, Bowling, Polo, Wrestling",41.7948,-91.9015
Angela,Thomas,F,B,31,"Mathematics, Sculpting, Web design, Field hockey",40.9615,-76.6121
Deborah,Lopez,F,M,38,Woodworking,31.0512,-93.2159
Clayton,Sims,M,F,31,"Bouldering, Pinball, Letterboxing, Acting",39.2047,-94.5738
Andrew,Jenkins,M,F,19,"Singing, Filmography, Blacksmithing, Basketball",45.3241,-88.5904
Stephanie,Nielsen,F,F,35,"Journalism, Gardening, Pilates",36.9912,-121.8934
Melissa,Mccoy,F,M,23,"Swimming, Poetry, Marathons, Meditation",40.7839,-73.2522
Aimee,Thomas,F,M,30,"Public relations, Interior design, Table tennis",35.1087,-89.9663
Dillon,Jones,M,M,25,"Investment banking, Basketball",38.7978,-77.3815
Katrina,Fields,F,M,33,Filmography,38.2991,-78.4368
Stacey,Hart,F,B,34,"Escape rooms, Diving, Pottery, Jazz",42.9794,-90.6491
Nicholas,Berg,M,F,29,Choreography,33.3011,-82.2025
Amanda,Murray,F,F,39,"Marketing, Bowling, Rappelling",46.8751,-114.0214
Samantha,Wood,F,F,33,"Filmmaking, Marathons",18.0411,-66.2064
Anthony,Murphy,M,F,38,"Mountain biking, Ice skating",33.6746,-94.1265
Tracy,Griffin,F,B,22,"Polo, Equestrian, Orienteering",41.6893,-81.3362
Nicole,Martin,F,F,18,"Basketball, Painting",38.314,-121.1596
Molly,Wilkinson,F,F,24,"Watercolor, Video games",35.4214,-81.3027
Seth,Glenn,M,B,30,Public relations,41.0349,-73.866
Amy,Mills,F,M,26,"Astrophysics, Letterboxing, Carpentry, Self defense",35.92,-86.8516
Michele,Sanders,F,B,35,Lacrosse,31.6727,-106.2399
Michaela,Webb,F,B,31,Public relations,41.9311,-71.295
Bradley,Phillips,M,M,26,"Woodworking, Sewing, Gymnastics",41.2732,-94.8705
Tiffany,Murphy,F,F,29,"Investment banking, Sculpting, Equestrian, Fashion design",26.7645,-82.0507
John,Lee,M,F,33,"Wine tasting, Video editing, Mathematics",31.8688,-95.4917
John,Sutton,M,B,39,"Ethical hacking, Diving",37.8225,-122.2301
Stephen,Montgomery,M,B,19,"Yoga, Tennis, Ballet, Computer programming",46.4817,-93.9978
Debra,Frey,F,B,27,"Mathematics, Baseball, Tennis, Fishing",42.9781,-71.6937
Glenn,Smith,M,F,18,"Music, Singing, Hiking, Movies",38.7422,-120.6808
Luis,Ewing,M,B,38,Rappelling,36.5715,-119.6143
Michelle,Henderson,F,M,39,"Knitting, Fashion design, Glassblowing",29.6493,-81.6705
Brian,Watson,M,F,29,Ballroom dancing,38.8024,-76.8419
Alicia,Garcia,F,B,26,Hiking,31.343,-87.8378
Kara,Carter,F,F,24,"Weightlifting, Wrestling",38.2141,-121.2675
Karen,Smith,F,F,24,"Running, Cycling, Snowboarding",44.0505,-91.6684
Jordan,Willis,M,B,18,"Nature Photography, Baseball, Calligraphy, Rock Climbing",42.1055,-89.1791
Joseph,Blackburn,M,M,30,Board games,43.8281,-115.8307
Adrian,Smith,M,B,24,"Filmmaking, Floristry, Art",34.5146,-106.7679
Dana,Wolfe,F,B,29,"Synchronized swimming, Skiing",47.1615,-122.02
James,Smith,M,F,35,"Roller hockey, Shuffleboard, Filmography",36.3033,-109.2157
George,Ramirez,M,F,26,Public relations,40.6079,-79.7411
Joseph,Montoya,M,M,38,Drawing,39.6319,-78.9515
Christopher,Wolf,M,M,26,Rock Climbing,31.6383,-106.2601
Matthew,Velasquez,M,B,30,Billiards,33.0093,-80.1078
Edward,Knox,M,F,27,"Skateboarding, Calligraphy",33.4501,-84.471
Amy,Thompson,F,M,30,"Skiing, Fishing, Roller hockey, Woodworking",40.8118,-73.6262
Devon,Berg,M,F,24,Dancing,36.1151,-106.0371
Miguel,Herrera,M,M,29,Rock Climbing,41.2869,-75.836
Theresa,Perez,F,M,37,"Theater, Lacrosse",39.9168,-81.5205
Cynthia,Evans,F,B,33,"Marketing, Landscaping, Roller hockey, Writing",39.7054,-90.5604
James,Taylor,M,B,24,"Photography, Judo, Acting, Fashion design",40.8964,-76.1196
William,Evans,M,F,27,"Woodworking, Advertising, DJing",32.8652,-114.4369
Andrew,Park,M,F,28,"Rugby, Writing, Windsurfing",18.3389,-65.7111
Felicia,French,F,F,30,"Air hockey, Choreography, Horseback riding, Nature",43.3317,-88.2798
Shannon,Smith,F,B,22,"Ethical hacking, Writing, Synchronized swimming, Jogging",35.6936,-78.6181
Robert,Rollins,M,M,26,"Writing, Food criticism, Knitting, Yoga",43.7583,-91.5706
Joseph,Walker,M,F,19,Cooking,39.0334,-97.5932
Justin,Le,M,F,35,Rock climbing,38.8754,-91.3776
Bryan,Wright,M,B,31,"Basketball, Journalism, Roller hockey",40.6969,-80.0141
Jason,Stephens,M,B,31,"Calligraphy, Interests, Geocaching",47.1943,-120.9539
Greg,Brown,M,F,39,Guitar,38.0889,-88.8528
Sarah,House,F,B,32,"Theater, Baking, Journalism",42.0705,-83.243
Gerald,Howell,M,M,32,Running,40.7474,-93.1498
Samantha,Callahan,F,B,29,"Roller hockey, Astronomy, Shuffleboard",41.9676,-90.8181
Amy,Roberts,F,B,35,Writing,41.3651,-89.2728
Nicole,Murray,F,B,36,Rock Climbing,30.3865,-86.9944
Janet,Gray,F,B,18,"Diving, Orienteering, Karate",35.5929,-79.3286
David,Mann,M,F,19,Soccer,36.5139,-86.5629
Robert,Wilson,M,B,29,"Tennis, Rock Climbing, Knitting, Skiing",27.4345,-82.5793
Erin,Ramirez,F,F,28,"Squash, Dancing",28.4773,-81.337
Steven,Anderson,M,F,32,"Boating, Lacrosse",41.5048,-88.1248
Alexandra,Potter,F,B,33,"Mixology, Gaming, Nature, Poetry",42.7293,-95.1835
Angelica,Morton,F,M,26,"Badminton, Video editing",32.2862,-104.0976
Robert,Pugh,M,M,39,"Improv, Video games",37.0117,-89.6003
Dennis,Williams,M,M,26,"Astronomy, Baking",31.9379,-81.9305
Sarah,Davis,F,F,19,Writing,44.1006,-85.1438
Mary,Burns,F,M,26,"Self defense, Volleyball, Windsurfing, Darts",34.9614,-110.3274
Jon,Thompson,M,F,35,Martial arts,45.7322,-91.9033
Amber,Morrison,F,F,37,Running,38.2669,-90.4325
Micheal,Clark,M,B,35,"Music production, Ice skating",35.5151,-93.3335
Jamie,Potter,F,B,38,"Pottery, Poetry",35.8145,-89.2239
John,Wilson,M,B,23,"Hang gliding, Diving, Equestrian, Filmography",35.0717,-77.1504
Zachary,Walker,M,M,20,Nature Photography,46.6501,-96.4164
Tanner,Castillo,M,B,39,Air hockey,36.4022,-90.0249
Regina,Strickland,F,M,31,"Reading, Skateboarding, Painting",34.5454,-91.9675
Darrell,Jarvis,M,M,27,"Yachting, Interests, Movies, Pool",29.9704,-98.9046
Michael,Miller,M,F,20,"Hiking, Baking, Bowling",45.9976,-121.529
Michael,Martin,M,M,33,"Journalism, Card games",34.3087,-90.8533
Pamela,Madden,F,F,38,"Ballet, Astrophysics, Glassblowing",34.6299,-93.735
Christopher,Johns,M,F,24,"Music, Pinball, Food styling",34.3355,-83.4986
George,Carson,M,B,23,"Darts, Surfing, Horseback riding, Stock trading",44.2445,-97.044
Timothy,Williams,M,M,18,"Muay Thai, Mobile app development, Pilates",38.5385,-90.24
Christopher,Reed,M,B,26,Mixology,43.7146,-89.4684
Keith,Graham,M,F,35,Road cycling,44.3297,-85.2085
Joanna,Manning,F,M,28,"Interests, Lacrosse",39.3609,-97.8372
Cynthia,Jordan,F,F,24,"Swimming, Equestrian, Pilates",44.2612,-121.181
Katherine,Short,F,F,38,Kayaking,42.8364,-84.575
Patrick,Thompson,M,B,33,Volleyball,30.9236,-91.109
Jason,Santiago,M,F,24,"Mountain biking, Photography, Sketching",27.9609,-97.6754
Carolyn,Solis,F,M,31,"Skateboarding, Salsa, Bowling",63.1481,-142.4947
Lindsey,Smith,F,B,39,"Puzzle solving, Bouldering",37.6974,-77.8943
Tiffany,Hicks,F,F,22,"Bowling, Mixology",36.8659,-81.4045
Gregory,Ibarra,M,B,31,Filmmaking,29.335,-103.5421
Sheri,Mosley,F,B,30,Golf,35.2425,-111.8138
Catherine,Smith,F,B,26,"Fashion design, Art history, Bar tending, Skiing",34.1695,-80.0649
Matthew,Reynolds,M,F,19,"Billiards, Jujitsu, Carpentry, Music production",37.4945,-94.2791
Dan,Kennedy,M,M,36,"Interior design, Bar tending",36.489,-86.6057
Erin,Butler,F,M,35,"Soccer, Rock Climbing, Woodworking, Sailing",41.6834,-88.3372
Eric,Castro,M,F,30,Interior design,44.7721,-93.9192
Mary,Kelly,F,M,35,Road cycling,33.4679,-82.4968
Henry,Taylor,M,B,25,"Writing, Muay Thai",41.5774,-75.2524
Jessica,Ferguson,F,F,34,"Painting, Snowboarding, Data analysis",31.4508,-85.6473
Antonio,Campbell,M,M,27,"Astrophysics, Video games",38.746,-89.2737
Angela,Evans,F,M,35,Sculpting,41.282,-81.2223
Julia,Meyer,F,B,18,"Fashion design, Horseback riding, Table tennis, Mobile app development",39.9357,-80.0752
Thomas,Miller,M,B,19,"Filmmaking, Poetry, Sailing, Knitting",44.6198,-123.9341
Shelly,Cabrera,F,F,27,"Tennis, Cooking, Darts",38.0906,-89.051
Gabriel,Wilson,M,M,35,Calligraphy,40.6588,-76.6931
Leslie,Vasquez,F,F,35,"Rappelling, Mountain biking",43.3489,-95.1635
Darius,Ho,M,M,31,"Nature, Badminton, Karate, Carpentry",35.1312,-114.1267
Travis,Bailey,M,B,19,Football,41.9818,-88.1446
Kara,Mason,F,F,18,Music production,42.5342,-114.3699
Cheyenne,Cummings,F,B,20,"Knitting, Video editing",41.5837,-92.0046
James,Davis,M,F,39,"Boxing, Blacksmithing",40.2218,-88.9612
Alicia,Mckenzie,F,B,36,"Boxing, Synchronized swimming, Reading",44.5332,-94.5242
Stephen,Smith,M,B,20,"Stand-up comedy, Ice skating, Yoga",39.0618,-101.2449
Christopher,Newman,M,B,23,"Jogging, Sketching, Triathlons",39.9651,-76.7315
Samuel,Zhang,M,M,38,"Football, Teaching",42.978,-76.1417
Christopher,Cook,M,M,35,Pilates,41.9989,-90.608
Joseph,Martin,M,F,21,"Knitting, Glassblowing",41.3075,-84.3919
Cameron,Gonzales,M,F,27,"Surfing, Snowboarding, Music production, Football",33.0937,-84.5755
Matthew,Crosby,M,B,35,Pottery,33.2495,-94.1162
Alexandra,Miranda,F,B,35,"Jujitsu, Table tennis",26.3537,-98.7676
Kyle,Ball,M,F,25,American football,34.6492,-103.9038
Jeff,Boyd,M,F,22,"DJing, Bowling, Mixology",30.5639,-98.2955
Billy,Graves,M,M,26,"Journalism, Board games, Advertising, Choreography",45.7826,-92.3823
Sarah,Rogers,F,M,36,"Board games, Video games",36.8379,-81.5156
Christopher,Acevedo,M,F,36,"Food criticism, Soccer, Fashion design",42.2316,-88.5448
Brittney,Smith,F,F,27,"Gymnastics, Board games",35.6197,-90.9054
Elizabeth,Russell,F,F,18,Public relations,33.1528,-111.8167
Lisa,Roman,F,F,23,"Journalism, Jazz, Water polo",39.965,-86.146
Kiara,Butler,F,F,19,"Wrestling, Computer programming, Singing",37.4158,-81.4463
Chris,Roberts,M,F,28,Video games,26.1547,-80.2997
Angela,Nash,F,F,23,"Shuffleboard, Photography",36.0319,-80.3861
Casey,Daniel,M,B,25,"Advertising, Theatre",40.3242,-76.0235
Christine,Gonzalez,F,F,23,"Improv, Singing, Sailing, Baseball",45.2441,-95.9112
Deborah,Dorsey,F,F,39,"Golf, Carpentry, Financial analysis",39.7238,-82.9575
Anita,Lucas,F,B,38,"Skateboarding, Squash, Nature, Choreography",39.6957,-105.7264
Rebecca,Holland,F,F,21,"Road cycling, Pinball",41.7662,-75.0222
Austin,Powell,M,B,20,Food criticism,39.5544,-83.2595
Angela,Williams,F,F,26,"Football, Board games, Bar tending",48.2918,-119.6955
Cory,Ball,M,B,30,"Swimming, Triathlons, Letterboxing",36.0679,-79.0991
Samantha,Smith,F,B,33,"Weightlifting, Investment banking, Filmmaking, Skiing",38.1872,-87.7086
Lisa,Harrison,F,B,24,Pinball,39.2589,-84.6342
Megan,Phillips,F,B,31,"Horseback riding, Pool, Boating, Karate",41.0466,-71.9465
Breanna,Vaughn,F,M,25,Video games,30.7792,-95.9469
Megan,Duran,F,M,38,"Food styling, Ballroom dancing, Theater, Biking",37.6636,-120.4635
Brenda,Daniel,F,B,23,"Karate, Kickboxing",42.3548,-88.9392
Jessica,Warner,F,B,37,Acting,42.3631,-88.5086
Elizabeth,Warren,F,B,30,Polo,33.8943,-118.3072
Heather,Rodriguez,F,F,29,Lacrosse,28.4952,-82.3017
Michael,Craig,M,B,23,"Soccer, Gardening, Salsa, Squash",32.341,-81.4224
Logan,Estrada,M,F,36,"Puzzle solving, Jogging, Ballroom dancing",41.3249,-112.0011
Kristin,Thomas,F,F,23,"Shuffleboard, Sketching, Movies",29.6,-98.0439
Martha,Allen,F,M,37,"Fashion design, Hiking",39.1755,-84.2275
Samuel,Hicks,M,B,38,"Meditation, Blacksmithing",39.8313,-81.1646
William,Cisneros,M,B,28,"Journalism, Photography, Running, Stand-up comedy",35.0663,-85.6227
Kyle,Green,M,F,23,Acting,48.6153,-101.5892
Brandon,Davis,M,B,34,"Badminton, Music production",45.934,-118.3909
Anne,Scott,F,B,38,Theater,38.4719,-84.9471
James,Bradley,M,B,23,Swimming,42.1235,-93.1975
Rebecca,Jackson,F,F,19,"Road cycling, Mountain biking, Karate",35.3136,-81.0073
Sarah,Martin,F,M,33,Running,30.0758,-97.8487
Bryan,Hawkins,M,F,31,"Tennis, Jazz, Orienteering",39.3433,-89.2186
Carrie,Fleming,F,M,18,Woodworking,34.4689,-94.6461
Ashley,Rogers,F,F,38,"Theatre, Cooking, Fishing, Orienteering",45.5749,-96.0504
William,Shaw,M,B,25,"Ice skating, Astrophysics, Salsa, Food criticism",64.9339,-148.0083
Steven,Barker,M,M,37,"Card games, DJing, Letterboxing, Bouldering",38.0671,-97.9081
Jason,Gillespie,M,B,37,Hunting,34.1189,-110.9559
David,Nielsen,M,M,29,"Badminton, Sailing, Karate",38.7112,-75.9087
Kevin,Smith,M,F,29,"Physics, Photography, Jogging, Boxing",43.828,-95.2058
Jeremy,Walls,M,M,24,Travel,31.4988,-97.2314
Hannah,Silva,F,M,32,"Yachting, Travel",37.3566,-79.9055
Jessica,Rivera,F,M,30,"Pool, Bar tending",35.0117,-91.9577
Amanda,Clark,F,F,35,"Physics, Puzzle solving",47.6459,-117.5792
Brianna,Barnes,F,B,26,Woodworking,42.2531,-79.503
Jason,Cohen,M,M,28,"Public relations, Theater, Improv, Knitting",41.7016,-72.6002
Michael,Escobar,M,M,20,"Air hockey, Nature",37.7551,-81.2079
Faith,Rivera,F,M,31,Kickboxing,32.8169,-109.5957
Michael,Arnold,M,B,26,"Paragliding, Field hockey",34.9079,-85.488
Krista,Landry,F,B,39,"Jazz, Watercolor, Carpentry",42.9253,-88.8442
Keith,Bradford,M,B,18,"Physics, Cybersecurity",37.8878,-122.076
Joshua,Odonnell,M,M,36,Filmmaking,39.9384,-75.0117
Sherry,Meyers,F,B,24,"Computer programming, Acting, Marathons, Boating",41.227,-93.9295
Jessica,Smith,F,M,22,"Surfing, Guitar, Meditation, Jogging",40.0607,-87.6328
Douglas,Schmidt,M,B,18,"Cooking, Acting, Jujitsu, Sewing",42.4635,-92.2766
Adam,Bennett,M,F,38,Geocaching,42.4612,-78.9339
Brian,Roy,M,M,21,"Sculpting, Stand-up comedy, Roller hockey",32.6788,-97.4637
Jessica,Mccall,F,M,27,"Fishing, Kayaking, Darts, Music production",61.0963,-146.2596
Richard,Martin,M,M,28,Guitar,40.0242,-92.4914
Jeffrey,Ferguson,M,M,20,Physics,40.4376,-84.9833
Rebecca,Poole,F,F,30,"Art history, Synchronized swimming, Skydiving, Salsa",37.5006,-79.8749
Trevor,Briggs,M,F,29,"Glassblowing, Wine tasting, Writing, Astrophysics",38.8945,-77.2315
Christopher,Gregory,M,B,25,"Triathlons, Improv, Diving, Air hockey",35.1877,-85.1959
Benjamin,Macias,M,M,18,"Polo, Surfing, Wrestling, Pool",39.5352,-85.7793
Luis,Lewis,M,F,36,"Polo, Jujitsu",39.6062,-79.8812
Michael,Owens,M,M,39,Mathematics,34.7705,-80.5487
Vanessa,Hicks,F,M,22,Running,31.5901,-106.2289
Donald,Anderson,M,B,20,"Fishing, Rock climbing",39.0949,-76.8622
Alexis,Kelly,F,M,33,"Guitar, Art",42.3758,-88.1276
John,Escobar,M,M,34,Theatre,38.6047,-86.0976
Allison,Holland,F,B,39,"Paragliding, Kayaking, Horseback riding",29.6443,-90.5324
Stephen,Armstrong,M,F,33,"Astronomy, Dancing",47.9642,-117.4398
Christopher,Pruitt,M,F,26,"Wine tasting, Improv, Lacrosse",45.7136,-122.6115
Diana,Townsend,F,F,39,"Basketball, Stock trading, Mathematics, Advertising",34.8781,-95.4742
Robert,Armstrong,M,M,23,"Stock trading, Fitness, Snowboarding, Jogging",41.9856,-76.5207
Eugene,Thornton,M,F,25,"Bowling, Self defense, Public relations, Ethical hacking",37.6132,-77.4768
James,Woods,M,F,39,"Water polo, Computer programming, Interests, Running",48.9955,-122.2694
Stephanie,Callahan,F,F,28,"Computer programming, Theatre",38.9909,-119.8837
Tabitha,Chen,F,F,31,Ballet,41.6191,-74.5902
Denise,Jensen,F,B,27,"Triathlons, Music, Calligraphy",45.803,-87.9958
Tina,Larson,F,B,24,"Gaming, Financial analysis",40.3125,-79.8038
Regina,Wright,F,M,29,"Poetry, Biking",41.7932,-70.6389
Daniel,Henderson,M,F,26,"Pool, Triathlons, Tennis, Skateboarding",39.0726,-89.7277
Arthur,Gonzalez,M,B,36,"Board games, Blacksmithing",44.2475,-117.5187
Alejandra,Mcdonald,F,B,25,Travel,38.1407,-81.2967
Diana,Rios,F,B,32,"Pinball, Kayaking, Theater, Music production",65.4087,-149.9915
Aaron,Larson,M,F,36,"Marathons, Woodworking, Ice skating, Board games",37.3434,-79.9534
Scott,Harvey,M,B,38,"Knitting, Sailing, Board games",37.1638,-82.7495
Anne,Green,F,B,33,Hang gliding,39.9111,-80.4322
Amy,Davis,F,F,29,"Golf, Computer programming, Volleyball",40.4549,-101.5355
William,Hernandez,M,B,23,"Sailing, Nature Photography",35.3865,-81.4127
Dennis,Cantu,M,F,24,"Sewing, Roller hockey, Muay Thai",41.0031,-78.1112
Gina,Williams,F,M,24,"Marathons, Skydiving",40.1416,-87.4687
Ronald,Morgan,M,F,39,"Food styling, Air hockey",36.2305,-99.168
Jimmy,Garrett,M,B,29,Windsurfing,42.3396,-88.2039
Daisy,Melendez,F,F,26,"Filmography, Financial analysis",30.8557,-89.1386
Zachary,Palmer,M,F,27,"Gardening, DJing, Yoga, Nature",39.0249,-76.9737
James,Berry,M,B,35,Roller hockey,33.6165,-112.2819
Frederick,Rowland,M,B,19,"Cycling, Sailing",41.0236,-73.7193
Alice,Woodward,F,F,35,Windsurfing,40.7592,-73.6809
Troy,Curtis,M,F,25,"Boxing, Mixology",36.3075,-97.5865
Scott,Howard,M,F,18,"Ceramics, Kickboxing, Ice skating, Gaming",36.4137,-92.9067
Kayla,Hill,F,F,30,"Fishing, Photography, Air hockey, Wine tasting",42.1848,-91.7798
Brenda,Ward,F,M,18,"Field hockey, Blacksmithing, Judo",35.8887,-106.0386
Rachel,Hoffman,F,F,27,"Writing, Biking",35.1647,-119.4584
Jaime,Saunders,F,M,31,Golf,32.4232,-80.7456
Linda,Johnson,F,B,21,Woodworking,35.4276,-98.193
Bradley,Ramsey,M,B,22,"Rappelling, Bowling, Muay Thai, Improv",38.9633,-77.0898
Stephanie,Contreras,F,B,19,"Mountain biking, Rugby, Drawing, DJing",33.6126,-93.8138
Michael,Chen,M,M,28,"Bar tending, Sketching, Nature Photography",33.1586,-94.9727
Jason,Kane,M,M,32,"Sketching, Mobile app development, Guitar",42.3583,-97.599
Gina,Townsend,F,F,34,Advertising,41.6438,-89.231
Patrick,Fisher,M,B,37,"Water polo, Watercolor, Escape rooms",45.5371,-122.65
Rebecca,Collins,F,M,33,Advertising,43.0617,-124.1327
Sheila,Sullivan,F,M,37,"Puzzle solving, Cycling",45.1863,-88.468
Beth,Fischer,F,B,18,"Cooking, Puzzle solving, Computer programming",32.2693,-106.8091
Jennifer,Perry,F,B,23,Filmmaking,40.3278,-91.1996
Michael,Graves,M,F,26,Web design,40.1783,-74.8524
Denise,Ramos,F,B,18,"Theater, Mixology, Swimming, Food styling",33.9269,-85.6149
Abigail,Myers,F,M,34,Surfing,40.5286,-74.2936
Matthew,Wood,M,F,29,Mobile app development,38.6083,-89.6852
Amy,Woods,F,F,20,"Fashion design, Bar tending",40.955,-73.9568
Teresa,Bailey,F,B,24,"Woodworking, Badminton",42.7048,-121.9943
Nicole,Walker,F,F,27,"Blacksmithing, Escape rooms, Investment banking, Skateboarding",32.7431,-116.002
Cheryl,Ward,F,F,32,"Physics, Hunting",27.9193,-82.2293
Jessica,Johnson,F,B,37,"Biking, Rock climbing, Basketball",32.9305,-95.5761
April,Barajas,F,M,31,Drawing,33.1674,-84.9027
Joshua,Edwards,M,F,36,Board games,26.2719,-98.3404
George,Williams,M,M,39,"Rappelling, Guitar, Filmography, Muay Thai",40.2117,-78.0062
Eric,Rojas,M,F,32,"Rock climbing, Muay Thai, Pool",38.1931,-95.7452
Timothy,Deleon,M,B,22,"Hang gliding, Rappelling",38.1505,-91.2494
Connie,Long,F,M,36,"Marketing, Music, Skiing",32.677,-109.072
Grace,Rosales,F,F,32,"Interior design, Stand-up comedy, Interests, Jogging",41.7023,-97.2398
Elizabeth,Wright,F,F,19,"Stand-up comedy, Polo, Calligraphy",34.995,-78.1841
Maria,Tucker,F,M,34,Geocaching,31.811,-106.1643
Jake,Young,M,B,19,Table tennis,33.6943,-87.8307
Todd,Newton,M,B,24,Self defense,30.6651,-98.4545
Matthew,Avila,M,F,18,"Poetry, Squash, Filmmaking, Sailing",35.9412,-121.0802
Maurice,Pham,M,F,18,"Orienteering, Acting, Snowboarding, Pottery",41.3867,-74.1419
Whitney,Schneider,F,M,20,Swimming,38.7486,-106.0764
Randy,Garcia,M,F,32,Hang gliding,36.9052,-76.8978
Kyle,Phillips,M,B,20,"Equestrian, Jogging, Astronomy, Hiking",39.7982,-120.6645
Sabrina,Page,F,B,37,Rugby,34.4285,-119.7202
Michael,Davis,M,F,31,"Letterboxing, Triathlons",39.8516,-90.1978
Stacey,Johnson,F,F,23,"Stand-up comedy, Theater, Biking, Martial arts",33.795,-84.2634
April,Cole,F,M,37,"Nature Photography, Mathematics, Mountain biking",45.7138,-122.7103
James,Rodriguez,M,F,39,"Literature, Yoga, Running",33.815,-116.3545
Danielle,Baker,F,B,22,"Photography, Paragliding, Filmmaking",40.1142,-81.019
Benjamin,Sheppard,M,M,34,"Martial arts, Sewing, Carpentry, Hang gliding",27.638,-81.8244
Katie,Morgan,F,F,19,"Yoga, Painting, Meditation, Horseback riding",39.0348,-87.054
Michael,Williams,M,B,24,"Drawing, Journalism, Poetry",38.4834,-101.3579
Sarah,Owen,F,M,36,"Wrestling, Pool, Diving",38.9909,-119.8837
Dwayne,Lewis,M,B,34,"Improv, Carpentry",46.1832,-93.7822
Derek,Garcia,M,F,26,Literature,37.9431,-84.6411
Sydney,Dixon,F,F,26,"Card games, Diving, Horseback riding, Yachting",43.18,-83.3257
Alejandro,Small,M,F,27,"American football, Rock Climbing, Food styling, Stand-up comedy",29.6513,-95.5874
Mark,Smith,M,B,33,Kiteboarding,34.9551,-78.5137
John,Reyes,M,F,32,"Muay Thai, Filmmaking",36.7031,-108.0648
Erika,Rasmussen,F,B,29,"Public relations, Acting, Pottery",36.1308,-77.4214
William,Robertson,M,F,20,"Singing, Sailing, Self defense",36.3871,-105.5803
Natalie,Ortiz,F,M,29,"Self defense, Bar tending, Boxing, Ice skating",37.4499,-88.3052
Jennifer,Levy,F,F,20,Pilates,32.6037,-99.8111
John,Hayes,M,B,31,Marathons,37.7999,-83.4173
Timothy,Watkins,M,B,30,"Synchronized swimming, Card games",41.7241,-97.0043
Jason,Walker,M,F,26,"Video editing, Physics, Choreography",42.1399,-88.2034
Shane,Sanders,M,B,35,Escape rooms,38.4776,-120.8584
Jennifer,Hendricks,F,F,22,"Floristry, Teaching",33.1861,-80.5794
Samantha,Jennings,F,F,33,Muay Thai,40.1506,-84.2441
Jake,Meza,M,B,30,"Rock Climbing, Singing, Polo, Bar tending",47.0978,-95.8445
Katie,Gomez,F,F,21,Volleyball,40.7207,-81.1247
Diana,Snow,F,M,30,"Journalism, Guitar, Horseback riding, Geocaching",39.8379,-75.1524
Paul,Clark,M,F,22,"Sailing, Rugby",38.8374,-76.7144
Denise,Brown,F,B,27,"Mobile app development, Rappelling, Filmography",47.2018,-121.9897
Erica,King,F,B,29,"Nature Photography, Treasure hunting, Landscaping",32.8149,-88.1608
Steve,Wade,M,B,21,"Advertising, Choreography",32.3046,-110.8838
Caleb,Russo,M,M,18,"Fitness, Squash, Filmography, Reading",33.5694,-84.7441
Elizabeth,Gallagher,F,B,37,"Stand-up comedy, Hiking, Weightlifting, Martial arts",43.2623,-93.4232
Katie,Miller,F,M,20,Pilates,40.2125,-88.5084
James,Soto,M,M,21,"Sewing, Skateboarding, Billiards",39.8603,-95.2649
Lynn,Cervantes,F,M,21,"Weightlifting, Kickboxing",40.8574,-72.7915
Kara,Flores,F,M,34,"Biking, Soccer, Yoga",34.284,-83.1459
Sara,Liu,F,M,30,"Calligraphy, Travel, Dancing, Poetry",30.947,-97.529
Natalie,Taylor,F,F,37,"Bar tending, Filmography, American football, Interests",36.7921,-89.3716
Benjamin,Carter,M,B,25,"Wine tasting, Water polo",40.8197,-75.9161
Brandon,Walker,M,B,18,"Marketing, Gardening, Volleyball, Rock climbing",35.8713,-84.4959
Kevin,Malone,M,F,29,Filmography,41.4015,-73.4709
Ann,Rivas,F,M,34,"Jujitsu, Ballet, Skiing",37.5516,-77.3285
Chris,Mack,M,F,28,"Hunting, DJing, Meditation, Gymnastics",35.1524,-84.8541
Stephanie,Davidson,F,F,32,"Filmography, Woodworking",32.2939,-86.09
Taylor,Miranda,F,B,36,Marketing,37.9615,-120.2428
George,Harris,M,B,30,"Boxing, DJing, Gardening",44.9245,-92.7657
Megan,Chan,F,B,29,"Salsa, Rugby, Dancing, Badminton",41.027,-73.952
Brandon,Pope,M,F,20,"Floristry, Astrophysics",30.8859,-87.2218
Jason,Rodriguez,M,M,22,"Card games, Music, Advertising, Golf",43.8937,-90.9934
Randy,Carter,M,B,20,"Mathematics, Kiteboarding, Gymnastics",30.3751,-90.0904
Christopher,Gardner,M,M,30,"Art history, Marathons, Swimming, Meditation",45.8337,-91.3545
Brandon,Clay,M,M,36,Puzzle solving,38.0329,-121.9615
Donald,Garcia,M,F,36,"Self defense, Baseball",45.26,-95.4683
Michele,Walters,F,F,34,"Fashion design, Soccer, Self defense, Football",43.9837,-75.6021
Mary,Gonzalez,F,F,33,"Table tennis, Kiteboarding, Hunting",37.3899,-97.643
Laura,Bryant,F,F,24,Data analysis,37.0749,-107.5933
James,Perry,M,F,32,"Mountain biking, Equestrian, Mobile app development, Letterboxing",33.4503,-91.8496
Sharon,Hernandez,F,F,34,Wrestling,32.9882,-97.5526
James,Cook,M,M,32,"Sketching, Nature Photography, Pottery",41.2157,-88.505
Thomas,Brown,M,B,37,"Hunting, Tennis, Volleyball, Painting",31.6799,-106.1903
Adam,Davidson,M,F,36,"Boating, Stand-up comedy, Astronomy",44.9122,-93.555
Joan,Matthews,F,B,31,"Floristry, Baseball",39.0616,-81.3979
James,Williams,M,F,37,"Boxing, Fashion design, Choreography, Kickboxing",37.4754,-122.2034
Patrick,Hamilton,M,M,20,"Pinball, Ethical hacking",39.2493,-88.8593
Michael,Morrison,M,F,36,"Travel, Public relations, Blacksmithing",40.5658,-77.2361
Pamela,Leach,F,M,30,"Teaching, Meditation, Mountain biking",43.1141,-124.4158
Crystal,Carter,F,F,30,"Yachting, Nature Photography, Reading",41.3924,-95.3636
Richard,Jordan,M,F,37,"Advertising, Investment banking, Music production",38.3036,-77.7277
Angel,Owens,M,B,24,"Astrophysics, Billiards, Basketball, Fishing",39.7288,-86.7122
Timothy,Stevens,M,B,28,Carpentry,40.5534,-74.3243
Karen,Stone,F,F,31,"Synchronized swimming, Watercolor",38.3149,-86.6961
Michele,Simmons,F,B,37,"Paragliding, Photography, Mobile app development, Teaching",32.0105,-102.3587
Ruth,Sanchez,F,M,33,Carpentry,42.5485,-99.8576
Eddie,Lee,M,M,34,"Acting, Stand-up comedy, Sewing, Biking",35.7664,-77.129
Ryan,Turner,M,F,19,"Music, Cybersecurity, Rappelling, Orienteering",39.5328,-74.4852
Stephanie,Davis,F,M,21,"Weightlifting, Fitness, Synchronized swimming, Sculpting",40.7585,-75.4013
Briana,Hayes,F,F,27,"Baseball, Bar tending, Mixology",48.1009,-103.2548
Nathan,Shelton,M,M,23,"Golf, Nature",43.5364,-90.4267
Jason,King,M,F,24,"Squash, Biking, Surfing",47.3527,-102.6233
Belinda,Collier,F,B,37,Jujitsu,43.6281,-95.599
Stephanie,White,F,M,22,"Golf, Poetry, Letterboxing, Movies",41.1722,-111.9576
Darren,Valenzuela,M,M,31,Mathematics,47.8816,-120.162
Nicholas,Ingram,M,M,39,"Gardening, Improv",41.3265,-73.0833
Lacey,Heath,F,M,37,"Glassblowing, Kiteboarding",35.7305,-91.6856
Kevin,Henderson,M,M,26,"Equestrian, Ballet, Yoga, Karate",45.705,-95.519
Carlos,Leonard,M,F,31,Stock trading,38.9656,-76.8775
Christopher,Young,M,B,22,"Volleyball, Card games",37.4045,-120.8504
Ashley,Rodriguez,F,M,29,"Skateboarding, Music",39.7444,-105.5006
Todd,Elliott,M,M,20,"Badminton, Theatre, Fitness",37.4484,-98.1658
Richard,Garcia,M,B,36,"Hunting, Drawing, Karate, Roller hockey",39.5015,-75.219
Lauren,Jones,F,M,23,Badminton,36.4243,-86.7975
Calvin,Howard,M,B,21,"Martial arts, Swimming, Cybersecurity",38.2146,-85.6143
Heather,Carney,F,B,18,"Fitness, Fashion design, Snowboarding",40.852,-91.6206
Alexis,Johnson,F,B,33,Baking,41.5439,-73.2048
Kimberly,Green,F,M,24,"Baking, Bouldering",33.7635,-116.4271
Brian,Jones,M,B,31,Financial analysis,42.3225,-96.4912
John,Morris,M,F,29,"Floristry, Drawing, Movies, Pool",31.9867,-98.4304
James,Estrada,M,M,38,"Photography, Self defense, Music production, Sailing",41.769,-87.8977
Daniel,Davis,M,B,37,"Astrophysics, Muay Thai",40.0962,-75.1296
Kathleen,Rosales,F,M,22,"Marathons, Pilates, Astronomy",40.8161,-73.7405
Richard,Gibson,M,F,33,"Gymnastics, Biking, Salsa, Mathematics",42.4667,-75.0969
Laura,Mercado,F,M,24,"Mountain biking, Knitting, Football, Reading",40.0118,-104.7271
Elizabeth,Duarte,F,F,37,"Air hockey, Investment banking, Pinball",42.0597,-83.2654
Steve,Young,M,M,27,Gardening,38.1429,-88.0181
Christina,Mcdonald,F,B,19,Blacksmithing,52.8955,173.123
Michael,Lawson,M,B,34,Jujitsu,33.7887,-118.0803
Brian,Underwood,M,M,19,"Judo, Painting, Stand-up comedy, Marathons",33.0895,-80.8142
Amanda,Chen,F,B,37,"Self defense, Choreography, Guitar",34.0131,-98.2313
Mason,Blair,M,F,32,Movies,43.6137,-92.4263
Daniel,Reeves,M,B,19,"Mixology, Nature, Reading, Football",40.946,-72.8811
Christopher,Franco,M,F,27,"Rappelling, Billiards, Triathlons, Investment banking",42.7012,-78.9819
Andrew,Diaz,M,B,27,"Triathlons, Filmmaking, Running",28.8563,-81.6771
Brian,Nelson,M,M,34,"Rappelling, Public relations, Sculpting",46.585,-111.9158
Tyler,Cook,M,F,25,"Reading, Hunting, Karate, Basketball",35.3075,-93.9557
Rachel,Hall,F,F,27,Investment banking,33.8177,-83.8043
Kelly,Thomas,F,F,25,"Gaming, Astrophysics, Theatre",39.5557,-104.8958
Daniel,Mccoy,M,M,19,"Web design, Martial arts, Jujitsu, Gaming",38.9884,-87.0812
Ronald,Carrillo,M,F,23,"Jujitsu, Judo, Soccer",39.8888,-94.8927
Joy,Hernandez,F,B,20,"Improv, Marketing, Biking",33.532,-96.6958
Andrea,Harris,F,F,30,"Calligraphy, Horseback riding, Cycling, Lacrosse",36.9326,-82.4846
Sara,Pruitt,F,F,39,"Billiards, Watercolor",41.1105,-104.7871
Brenda,Moody,F,M,36,"Biking, Sewing",41.3916,-79.2634
Derek,Decker,M,M,32,"Running, Public relations, Hang gliding",31.262,-100.8208
Anna,Ibarra,F,M,32,"Bowling, Soccer",39.7969,-97.784
Sherri,Chapman,F,M,26,Self defense,46.6087,-93.3055
Jon,Barker,M,M,27,Pinball,40.6262,-123.4689
Raymond,Lopez,M,F,18,Meditation,34.2902,-83.8294
Daniel,Guzman,M,M,20,"Sculpting, Music production",38.5042,-81.6398
Ashley,Kane,F,M,33,"Woodworking, Tennis, Field hockey",35.0693,-108.8558
Lori,Mcgrath,F,B,29,"Video games, Journalism, Biking, Interior design",60.3497,-149.3199
Ryan,Adams,M,F,18,"Music production, Bar tending, Reading, Glassblowing",43.0443,-91.192
Charles,Higgins,M,F,20,"Stand-up comedy, Synchronized swimming, Theater",38.8048,-87.1515
Judy,Solomon,F,F,35,"Journalism, Public relations, Music",34.1618,-119.2036
Eric,Church,M,B,30,"Ballet, Food styling, Investment banking",39.5993,-105.0352
Terri,Garcia,F,M,37,"Carpentry, Air hockey, Wrestling",44.0325,-84.0194
Jaclyn,Wilson,F,M,30,Painting,18.2943,-65.9037
Ashley,Cabrera,F,B,37,"Football, Meditation, Soccer, Bouldering",30.9589,-85.1622
Julia,Price,F,B,21,"Ballet, Treasure hunting",40.5296,-78.4356
Carla,Harris,F,B,37,"Darts, Bowling, Filmography, Baseball",34.8247,-98.3752
John,Willis,M,F,30,"Ceramics, Fishing",42.4825,-89.026
Sarah,Davis,F,M,18,"Kickboxing, Stand-up comedy, Kiteboarding, Choreography",41.7023,-97.2398
Bruce,Carroll,M,F,27,"Marathons, Improv, Hang gliding",41.6767,-86.2696
Patrick,Sandoval,M,M,39,"Jazz, Treasure hunting, Roller hockey",28.1782,-80.6019
Joshua,Williams,M,F,39,"Travel, Escape rooms, Astrophysics",41.0217,-79.7168
Craig,Thompson,M,F,25,"Martial arts, Jujitsu, Synchronized swimming",43.0594,-91.4557
Robert,Harris,M,M,23,Fishing,38.5172,-121.4573
Todd,Orr,M,B,22,"Movies, Art history, Poetry",29.8604,-90.9955
Gregory,Buchanan,M,M,36,"Football, Art",41.4174,-72.8992
Keith,Fuller,M,M,31,"Teaching, Music production, Photography, Yoga",48.0842,-123.1697
Theresa,Spencer,F,M,39,"Lacrosse, Water polo, Bowling, Dancing",30.1706,-81.7041
Richard,Potter,M,B,18,"Kayaking, Guitar",39.7154,-87.9336
Dana,Tate,F,B,20,"Puzzle solving, Guitar, Knitting",42.128,-95.5749
John,Harper,M,M,34,"Badminton, Gardening, Volleyball, Pottery",40.6004,-81.5293
Lisa,Flores,F,F,24,"Volleyball, Darts, Computer programming",29.0683,-98.4722
Vanessa,Hahn,F,B,30,"Rock Climbing, Fashion design, Lacrosse, Equestrian",40.8019,-75.6611
Johnny,Rivera,M,B,24,"Baseball, Squash, Running, Nature Photography",40.5533,-81.9171
Kelly,Roberson,F,B,34,"Weightlifting, Glassblowing",28.4364,-99.2367
Andrew,Richardson,M,B,38,Hiking,28.4757,-80.8104
Jessica,Romero,F,M,20,"Road cycling, Jujitsu",37.026,-80.5739
Jeffrey,Jones,M,F,22,"Weightlifting, Yachting, Meditation, Letterboxing",34.2651,-87.7164
Samantha,Herring,F,B,18,"Wrestling, Mountain biking, Music, Astronomy",40.8863,-80.3393
Eduardo,Russell,M,B,24,"Letterboxing, Improv, Music, Judo",44.2773,-88.2641
Shane,Christian,M,B,28,Bar tending,46.7223,-122.9696
Misty,Clark,F,M,28,"Fitness, Ballet, Kayaking, Filmmaking",40.4804,-95.9601
Nathan,Wright,M,F,22,"Interior design, Mountain biking, Stand-up comedy",38.443,-105.2203
Travis,Tucker,M,B,35,"Self defense, Bowling, Financial analysis, Theatre",26.9918,-82.114
Latoya,Andrews,F,M,39,Jogging,40.1702,-77.4016
Martha,Perez,F,M,31,"Baseball, Watercolor",33.9076,-116.9766
Brittany,Francis,F,M,27,"Writing, Soccer, Public relations",41.0935,-76.5189
Barbara,Graham,F,M,22,Muay Thai,33.7907,-109.9873
Christina,Phillips,F,F,19,Self defense,38.5215,-75.2342
David,Barr,M,M,19,Swimming,31.7324,-84.1688
Taylor,Johnson,F,M,20,Baseball,34.595,-87.6719
Kimberly,Paul,F,F,34,"Basketball, Astronomy",31.4096,-87.2394
Dustin,Ponce,M,F,29,"Polo, Marketing, Baseball",38.3026,-109.2646
Erica,Barker,F,M,34,Board games,59.0693,-160.4728
Jimmy,Bennett,M,B,24,"Skiing, Landscaping, Drawing, Boxing",40.877,-85.1683
Randy,Lloyd,M,F,36,"Theatre, Journalism",38.7872,-77.1085
Cody,Grant,M,M,29,"Ballroom dancing, Dancing",37.4695,-96.2631
Mallory,Thomas,F,F,27,Computer programming,43.1445,-93.0093
Brittney,Brown,F,F,27,"Art history, Rappelling, Glassblowing",38.0784,-85.6934
Julie,Davis,F,B,25,"Puzzle solving, Financial analysis, Swimming, Ice skating",42.5845,-71.9868
Paul,Potter,M,F,23,"Jazz, Investment banking, Rock Climbing, Geocaching",39.6265,-120.4357
Benjamin,Harvey,M,B,20,"Muay Thai, Field hockey, Filmography",40.5879,-76.181
Erin,Smith,F,B,21,"Ceramics, Billiards, Synchronized swimming, Baseball",39.0698,-77.0467
Dominic,Parker,M,B,21,"Pinball, Judo, Literature",34.6147,-106.7631
Robert,Ingram,M,B,38,"Nature Photography, Field hockey",39.5879,-105.0694
Carla,Ortiz,F,F,24,"Ballet, Financial analysis, Acting, DJing",39.1432,-84.3972
Justin,Perry,M,B,29,"Web design, Interests",29.5164,-90.3291
Jeremy,Cole,M,F,35,"Poetry, Skiing, Painting",34.9994,-78.0928
Jason,Guzman,M,F,39,"Basketball, Bar tending, Pool",40.7306,-81.1023
Joanne,Smith,F,M,20,"Art history, Darts, Sailing",43.1726,-89.0613
Nancy,Weiss,F,F,23,"Physics, Poetry",44.6266,-90.0144
Olivia,Ross,F,B,32,Acting,36.6404,-80.2687
Scott,Carter,M,F,27,"Air hockey, Darts",37.604,-87.5187
Katrina,Glover,F,B,31,"Mixology, Stock trading",42.9184,-90.2742
John,Martinez,M,F,29,Boating,38.623,-112.1196
Nancy,Lewis,F,F,29,Journalism,27.836,-80.4885
Brittany,Bowers,F,M,30,Art,46.0062,-95.6869
Autumn,Lawrence,F,B,25,"Investment banking, Gymnastics, Video games, Bowling",40.6129,-80.5628
Alexis,Simmons,F,F,37,"Billiards, Yoga, Mountain biking, Ice skating",30.7646,-90.5114
Bryan,Bonilla,M,B,30,"Cycling, Literature",18.4842,-66.8802
Erin,James,F,F,28,"Advertising, Geocaching",43.9649,-89.2159
Justin,Stanley,M,B,32,"Soccer, Astrophysics, Escape rooms",35.5116,-78.7402
Adam,Reyes,M,F,30,"Improv, Tennis, Data analysis, Sketching",42.3628,-79.051
Samuel,Miles,M,B,36,"Writing, Knitting, Bar tending, Boxing",38.0405,-78.5164
Allison,Carlson,F,F,28,"Volleyball, Marketing",38.2986,-85.6009
Jesus,Smith,M,M,32,"Squash, Polo, Baking",32.746,-100.3795
Natasha,Johnson,F,M,33,"Journalism, Video editing, Boating, Acting",42.7274,-87.8135
David,Schwartz,M,B,34,"Investment banking, Field hockey",35.3187,-92.4253
Bryan,Mendez,M,M,33,"Jazz, Investment banking",34.1113,-117.165
Laura,Gonzalez,F,M,20,"Improv, Interior design, Knitting",37.1812,-78.1307
Dylan,Harper,M,F,38,"Floristry, Literature",35.8066,-95.0437
Alexis,Reilly,F,F,21,"Investment banking, Ceramics, Golf",45.7045,-111.7844
Vincent,Patrick,M,M,31,Squash,39.931,-120.9548
Michael,Cochran,M,F,23,Nature Photography,59.7703,-151.7052
Roger,Pineda,M,F,27,"Journalism, Filmmaking, Baking, Billiards",44.5875,-121.176
Crystal,Gill,F,M,18,"Biking, Pilates",36.2773,-92.5935
Casey,Levine,M,M,23,"Pool, Filmography, Synchronized swimming, Pilates",40.8631,-77.0562
Hunter,Salas,M,B,39,"Ice skating, Mountain biking, Music production, Running",43.3452,-72.9946
Laura,Coleman,F,M,37,"Tennis, Cycling, Mountain biking, Painting",39.9671,-84.7082
Johnathan,Adkins,M,B,36,Diving,40.7003,-75.0121
Corey,Ellis,M,M,25,"Teaching, Yachting",46.7125,-93.4894
Ryan,James,M,B,20,"Self defense, Synchronized swimming, Woodworking",41.4551,-70.5657
Shannon,Hernandez,M,M,27,"Puzzle solving, Yachting, Filmography, Art",42.4328,-124.4232
Judith,Pacheco,F,M,31,Data analysis,42.5084,-78.6696
James,Hines,M,M,35,"Swimming, Gymnastics",34.5225,-110.0913
Christina,Bond,F,M,29,"Meditation, Floristry",34.4818,-118.6316
Amanda,Munoz,F,M,39,"Interior design, Astronomy, Landscaping",40.854,-74.8257
Adam,Watts,M,B,19,"Investment banking, Choreography, Paragliding, Synchronized swimming",33.5088,-88.4096
Kevin,Gray,M,M,29,"Biking, Ceramics, Calligraphy",47.0656,-120.6709
Dean,Silva,M,M,30,"Mixology, Muay Thai, Volleyball, Fitness",36.4209,-81.4686
Daniel,Rios,M,M,18,"Hunting, Guitar, Salsa",44.349,-122.7855
Patrick,Hines,M,B,19,Yoga,44.4931,-93.6265
Christopher,Norris,M,M,24,Art,39.32,-89.288
Daniel,Jones,M,M,38,"Music production, Roller hockey, Marketing",40.9167,-77.6908
Evan,Lee,M,M,24,"Filmmaking, Theater",43.7814,-85.5067
Ian,Spears,M,F,26,"Blacksmithing, Kayaking",37.8366,-94.882
Robert,Hudson,M,M,22,"Literature, Calligraphy",44.6743,-88.8903
Ryan,Aguilar,M,M,37,"Synchronized swimming, Field hockey",40.3029,-75.967
Janet,Taylor,F,F,22,Poetry,39.7771,-86.1458
Jennifer,Harris,F,M,39,"Stand-up comedy, Kiteboarding",40.0812,-79.8813
Zachary,Chapman,M,F,37,Glassblowing,39.9832,-81.46
Jose,Holland,M,F,27,"Astronomy, Hiking",37.6063,-75.6897
Joseph,Jones,M,M,24,"Volleyball, Music",38.8621,-117.933
Cheyenne,Williams,F,M,24,"Cooking, Choreography",35.8072,-77.3763
William,Carrillo,M,M,22,"Shuffleboard, Poetry",32.5138,-96.8563
Andrew,Allison,M,M,19,"Weightlifting, Biking, Watercolor",34.7986,-86.1228
Scott,Lee,M,M,32,"Golf, Acting, American football, Writing",40.3509,-91.4277
Andrew,Mooney,M,M,27,"Road cycling, Hunting, Kayaking",34.3664,-90.522
Elizabeth,Sherman,F,M,37,Art,37.958,-88.8356
James,Faulkner,M,B,21,"Squash, Gardening, Basketball, Martial arts",43.6602,-92.7065
Tracey,Garner,F,B,37,"Paragliding, Air hockey",36.907,-100.5381
Jacob,Cowan,M,M,32,"Rappelling, Painting",41.0221,-80.3566
Wesley,Rowe,M,B,38,"Poetry, Rock climbing, Computer programming, Investment banking",40.9701,-76.0142
Morgan,Wilson,F,F,38,"Sewing, Basketball, Cooking, Data analysis",40.0499,-107.8947
Tammy,Lane,F,M,19,"Rock climbing, Weightlifting",39.002,-77.074
Sheila,Gilbert,F,B,21,"Choreography, Kickboxing, Football",37.7117,-81.2525
Ronald,Brady,M,B,36,"Biking, Snowboarding, Mathematics",38.2691,-78.8251
Carolyn,Cowan,F,M,19,"Roller hockey, Diving",38.4153,-122.5387
Blake,Sanders,M,M,27,"Nature, Theatre, Rock climbing, Ethical hacking",42.6983,-97.3628
Heather,Lambert,F,M,30,"Stand-up comedy, Ballet, Cybersecurity, Roller hockey",37.6915,-75.718
Christopher,Davis,M,B,18,"Food criticism, Puzzle solving, Data analysis",45.0825,-92.909
Taylor,Mejia,F,F,39,"Letterboxing, Art history, Darts, Synchronized swimming",41.1781,-97.5498
John,Garcia,M,M,34,Synchronized swimming,40.5727,-78.0506
Paul,Mcdonald,M,B,23,"Escape rooms, Shuffleboard, Glassblowing",41.361,-89.5828
Kayla,Mccarthy,F,F,24,"Fishing, Tennis, Interests",46.3115,-119.3999
Samantha,Murray,F,B,27,"Reading, Weightlifting",33.1861,-80.5794
Ryan,Odonnell,M,F,36,"Kiteboarding, Orienteering, Writing, Judo",39.2138,-120.8033
Sarah,Ball,F,M,38,"Gymnastics, Stock trading",30.0451,-90.7488
Troy,Nguyen,M,F,30,"Diving, Gaming, Music production, Lacrosse",46.8403,-123.2337
Jay,Landry,M,M,32,"Stand-up comedy, Basketball",38.2913,-121.2318
Steven,Smith,M,B,39,"Mobile app development, Ice skating, Gardening, Acting",39.6278,-78.7896
Donna,May,F,F,38,"Wine tasting, Windsurfing, Music production",45.8047,-89.1708
Deborah,Mckenzie,F,B,21,"Writing, DJing, Self defense",44.3501,-117.2668
Jacqueline,Bray,F,B,18,"Board games, Jujitsu, Baking",39.0986,-119.9341
Kelly,Nelson,F,B,23,Darts,41.0851,-76.8646
Melissa,Gonzalez,F,B,33,"Billiards, Gaming, Wine tasting",40.4752,-93.928
John,Johnson,M,F,35,"Gaming, Road cycling",34.9295,-85.294
Vicki,Santos,F,F,23,"Fitness, Skydiving, Data analysis",39.7354,-79.9008
Claudia,Conley,F,M,20,"Muay Thai, Squash, Pilates, Wrestling",41.0946,-96.4332
Derek,Foster,M,B,22,"Acting, Stand-up comedy, Snowboarding",44.6427,-72.8282
David,Fitzgerald,M,F,37,"Yachting, Hang gliding, Mixology, Filmography",37.5864,-94.1581
Nicole,Richardson,F,M,24,Financial analysis,40.0147,-83.8386
Matthew,Taylor,M,M,20,"Photography, Ballroom dancing",30.327,-89.2436
Emily,Johnson,F,M,19,"Food criticism, Yachting",37.6915,-75.718
Tamara,Williams,F,B,19,"Dancing, Floristry, Video games, Equestrian",43.2372,-94.0413
Jessica,Clark,F,F,21,Boxing,44.8478,-88.7856
Tina,Sanchez,F,F,22,"Volleyball, Kayaking, Muay Thai, Bouldering",34.3709,-84.9212
Susan,Gomez,F,B,18,"Tennis, Equestrian",42.868,-106.2524
Ronald,Swanson,M,M,38,"Bar tending, Tennis, Orienteering",42.0184,-93.4633
Stacy,Sutton,F,B,23,"Skiing, Snowboarding",41.1909,-104.359
Amanda,Dunn,F,M,28,"Bar tending, Nature Photography",42.4127,-88.127
Melissa,Miller,F,F,37,"Choreography, Pool, Drawing, Kayaking",40.4692,-82.1913
Kenneth,Colon,M,F,23,"Rock climbing, Salsa",36.2635,-90.9706
Lindsay,Schmidt,F,M,35,"Sailing, Wrestling, Advertising",36.2252,-76.9316
John,Hernandez,M,M,25,"Music production, Cycling, Basketball, Kickboxing",35.6378,-118.482
Alexis,Fields,F,B,28,"American football, Ballroom dancing",39.8379,-75.1524
David,Torres,M,B,39,Ceramics,40.2916,-80.675
John,Wiley,M,B,35,"Polo, Food styling, Skateboarding",37.7511,-89.06
Christian,Barrera,M,B,20,Salsa,41.5004,-94.3182
Tina,Lin,F,F,22,"Snowboarding, Hiking, Martial arts",36.6063,-92.4245
Jessica,Williams,F,M,25,"Sculpting, Skiing, Golf, Marketing",37.1812,-76.7966
Billy,Castillo,M,M,33,Interests,39.8056,-75.4862
Erin,Clark,F,B,29,Roller hockey,44.5394,-90.0315
Taylor,Spence,F,F,39,"Writing, Movies, Puzzle solving, Mathematics",40.8937,-83.6529
Cheryl,Fisher,F,F,25,"Stock trading, Sketching, Salsa, Martial arts",32.6863,-83.3433
David,Fields,M,M,19,"Weightlifting, Mobile app development, Choreography, Nature",30.1656,-84.2078
William,Lee,M,M,27,"Synchronized swimming, Boxing, Music, Windsurfing",37.2071,-95.4046
Adam,Adams,M,F,31,"Filmmaking, Financial analysis",41.525,-76.3987
Michael,Mcgrath,M,B,25,Gymnastics,34.6825,-78.9889
Robert,Hill,M,M,23,Horseback riding,42.5519,-93.0528
Donald,Jackson,M,F,22,"Baseball, Acting, Ballet",46.9637,-119.3508
Craig,Adams,M,F,24,"Geocaching, Cycling, Advertising",41.283,-96.9607
Brianna,Bailey,F,M,24,"Singing, Swimming, Art",35.3886,-113.6591
Scott,Aguilar,M,M,22,"Mountain biking, Cooking",41.0273,-74.0956
Angela,Ellis,F,M,27,Sculpting,29.3568,-100.7829
Jimmy,Higgins,M,F,24,Orienteering,41.0351,-73.6657
Jesus,Vasquez,M,M,19,"Art history, Boxing",42.4718,-91.3391
Lauren,Hart,F,B,26,"Ethical hacking, Board games, Stand-up comedy, Movies",41.631,-75.4703
Virginia,Sparks,F,M,23,Ceramics,37.5561,-94.6235
Barry,Robertson,M,B,38,"Skiing, Astronomy, Fitness, Hiking",40.6539,-81.455
Virginia,Gregory,F,M,32,"Water polo, Music production",30.462,-87.312
Matthew,Martin,M,M,31,"Bar tending, Nature Photography",40.7529,-81.4684
Jessica,Williams,F,F,29,"Judo, Watercolor",43.912,-113.6128
Denise,Webb,F,M,24,"Guitar, Jujitsu, Geocaching, Gardening",39.7935,-76.7307
Kayla,Rodriguez,F,F,37,Poetry,38.6665,-120.9371
Jason,Hernandez,M,M,24,"Public relations, Theater, Rock climbing",38.1997,-86.3454
Thomas,Rios,M,B,27,Biking,43.2503,-83.7911
Angela,May,F,F,29,"Darts, Shuffleboard",30.3165,-81.4118
Timothy,Jackson,M,F,25,Gardening,47.338,-117.2312
Isaiah,Benson,M,B,27,DJing,33.6624,-101.6838
Brian,Mclaughlin,M,F,21,Sailing,18.3869,-66.3789
Patrick,Miller,M,B,25,Air hockey,43.3351,-89.3726
Kenneth,Wood,M,F,36,Mathematics,47.0743,-98.5866
Jennifer,Brooks,F,M,21,"Judo, Ballet, Table tennis",37.9826,-75.5291
Rebecca,Hansen,F,F,24,"Roller hockey, Theater",41.71,-83.7092
Cody,Williams,M,F,38,"Landscaping, Treasure hunting, Jogging, Tennis",30.408,-91.0906
Beth,Dalton,F,M,25,"Mobile app development, Filmography, Pottery, Muay Thai",29.4399,-95.7765
Cameron,Jones,M,F,31,"Kiteboarding, Karate, Ice skating, Ballet",34.1636,-97.5964
Dennis,Roberts,M,B,19,"Gymnastics, Art",47.8393,-103.6426
Renee,Fletcher,F,F,34,"Surfing, Investment banking",36.8828,-88.7706
Johnny,Foster,M,M,26,"Gaming, Lacrosse, Golf, Bar tending",31.9596,-106.5935
Patricia,Harris,F,M,36,"Music, Road cycling",41.0287,-94.0499
Susan,Martin,F,F,30,"Swimming, Fashion design, Table tennis",38.4562,-82.6978
Franklin,Woods,M,F,25,"Interior design, Bouldering, Table tennis, Bowling",42.0119,-76.5406
Kimberly,Chan,F,F,32,"Hang gliding, Football",32.0815,-111.8959
Ashley,Barnes,F,F,23,"Wine tasting, Rappelling, Filmography",34.6861,-77.0833
Travis,Benjamin,M,M,39,"Mountain biking, Wine tasting, Snowboarding",43.2916,-90.8257
Gary,Mercer,M,M,23,"Polo, Sewing",38.739,-78.651
Kyle,Anderson,M,F,26,"Knitting, Tennis",43.2236,-75.289
Donald,Rodriguez,M,B,21,Cooking,43.3148,-83.1793
James,Tanner,M,M,36,"Blacksmithing, Fitness, Polo",44.2825,-94.8466
John,Chen,M,M,22,"Cooking, Soccer, Video games, Yoga",27.8342,-81.5281
Alicia,Reyes,F,B,38,"Diving, Darts, DJing",37.7912,-120.9982
Richard,Peters,M,M,32,"Tennis, Skiing",34.8898,-79.0725
Jessica,Mcgee,F,B,27,Watercolor,34.7904,-82.6961
Willie,Coleman,M,M,22,"Martial arts, Floristry",32.9359,-82.8134
Christopher,Stewart,M,B,36,"Rappelling, Jogging, Kayaking",35.0829,-89.7824
Hailey,Haney,F,M,21,"Guitar, Board games",34.2388,-96.683
Charles,Thompson,M,B,25,"Travel, Watercolor, Pool, Interests",32.5422,-93.2947
Paul,Herrera,M,F,23,Bowling,34.559,-88.2303
Sandy,Kennedy,F,B,31,"Volleyball, Roller hockey, Rappelling, Yachting",32.7196,-84.0104
Angela,Porter,F,B,28,"Bowling, Gardening, Ballroom dancing",41.9262,-73.0675
Daniel,Smith,M,B,34,"Roller hockey, Financial analysis, Stock trading, Data analysis",33.022,-92.7236
Ryan,Mcdonald,M,B,38,"Paragliding, Windsurfing, Theater, Interior design",27.9058,-81.9873
Brandon,Johnson,M,F,18,"Rugby, Carpentry",40.3781,-93.9379
Jordan,Washington,M,B,30,"Pottery, Hunting, Rappelling",42.4482,-122.1096
Katherine,Brown,F,M,32,Cybersecurity,34.2819,-119.1454
Wanda,Roberts,F,M,21,"Investment banking, Bowling, Drawing",33.047,-102.4275
Brian,Brown,M,B,22,"Gardening, Teaching, Windsurfing",31.9503,-110.7835
Brandy,Jones,F,B,28,"Ethical hacking, Pilates, Mobile app development",47.5661,-122.232
Tina,Stewart,F,M,37,"Sculpting, Meditation, Blacksmithing",18.3953,-65.894
Lydia,Weeks,F,B,25,Sculpting,40.9231,-91.4012
Steven,Reyes,M,M,21,Art,42.5124,-97.9083
Laura,Cannon,F,F,18,Lacrosse,33.5792,-117.7289
Evan,James,M,F,23,Literature,41.2157,-88.505
Evan,Blevins,M,B,19,"Pool, Landscaping, Ceramics, Poetry",40.1942,-86.9779
Steven,Hancock,M,F,29,DJing,40.7461,-98.8458
Joseph,Brown,M,M,31,"Stock trading, Volleyball, Computer programming",39.9418,-74.2087
Michael,Green,M,M,30,"Meditation, Floristry",45.3134,-107.9296
Kyle,Russell,M,F,26,"Shuffleboard, Puzzle solving, Snowboarding, Sewing",36.9789,-122.0346
Beth,Olson,F,M,33,"Water polo, Mixology, Rugby, Pool",34.0378,-80.9036
Jeffrey,Tucker,M,M,27,Bouldering,48.9179,-122.0943
Nicole,Gardner,F,F,27,"Sailing, American football",38.7081,-98.1581
Mallory,Lloyd,F,B,32,"Painting, Drawing, Field hockey, Orienteering",34.4976,-117.3472
Danny,Russell,M,M,29,Billiards,42.4635,-92.2766
William,Williams,M,F,38,Treasure hunting,37.7439,-75.7786
Dennis,Richardson,M,B,33,"Kayaking, Landscaping",34.1551,-106.9122
Stephanie,Aguirre,F,B,38,Art history,47.8563,-121.6921
Autumn,Stewart,F,B,38,"Theatre, Journalism, Darts",37.9917,-120.2617
Deanna,Gonzales,F,B,21,"Basketball, Food styling",40.7779,-99.7461
Jennifer,Johnson,F,M,21,"Boating, Physics, Darts",40.061,-79.7656
David,Cunningham,M,M,18,"Cooking, Badminton, Cybersecurity, Road cycling",38.5657,-90.501
Blake,Bauer,M,M,30,Ice skating,38.33,-90.6577
Lee,Mahoney,M,M,34,Boxing,34.1824,-111.343
Jeffrey,Morgan,M,F,26,"Calligraphy, Water polo, Judo, Volleyball",46.3934,-116.9933
Manuel,Cobb,M,F,24,Lacrosse,40.1208,-123.822
Kimberly,Dillon,F,F,30,"Kayaking, Golf",40.5072,-79.1688
Zachary,Garcia,M,B,27,Writing,41.0594,-74.4308
Kelly,Perez,F,B,23,"Writing, Baseball",39.2105,-92.1342
Lynn,Buchanan,F,B,28,"Meditation, Nature, Polo, Improv",45.2985,-96.4657
Dylan,Campbell,M,B,31,"Literature, Shuffleboard, Filmography, Snowboarding",39.8491,-86.8004
Robert,Kennedy,M,F,32,"Video games, Travel",33.5722,-112.0892
Alex,Lam,M,F,29,"Billiards, Sewing",35.2477,-116.6834
Anthony,Carlson,M,B,29,Blacksmithing,44.2737,-92.5403
Sherri,Lopez,F,M,39,"Jogging, Bar tending, Poetry",47.1949,-119.3178
Olivia,Preston,F,B,36,"Road cycling, American football, Mountain biking",31.9379,-81.9305
Margaret,Shields,F,B,37,"Geocaching, Mountain biking, Shuffleboard, Acting",40.9104,-79.9157
Angela,Cabrera,F,B,29,"Poetry, Paragliding",41.8024,-96.0479
Jamie,Trujillo,F,M,22,"Fishing, Ballroom dancing, Boating",64.9008,-157.6946
Susan,Black,F,B,36,Watercolor,40.3595,-80.385
Terry,Anderson,M,M,23,"Shuffleboard, Fashion design",38.7723,-84.0003
Ryan,Dickerson,M,M,25,"Jogging, Dancing, Squash",36.9773,-112.9869
Leslie,Murray,F,F,21,"Roller hockey, Glassblowing",36.564,-84.4455
Gina,Gonzalez,F,F,20,"Journalism, Jazz, Martial arts, Pool",35.6366,-77.9326
David,Rice,M,M,34,"Golf, Mathematics, Fishing",40.5321,-74.5415
Jeffrey,Key,M,M,22,"Baseball, Rock Climbing, Bowling, Karate",36.358,-119.0646
Brian,Hahn,M,B,34,Road cycling,28.1529,-80.5976
Michael,Cummings,M,M,33,Kiteboarding,32.1909,-89.696
Brittany,Brooks,F,F,25,"Darts, Kiteboarding, Puzzle solving",44.9385,-93.5865
Kirsten,Hall,F,M,23,Watercolor,31.8282,-83.7302
Ryan,Hines,M,B,27,"Letterboxing, Air hockey",30.8518,-94.8578
Heather,Jackson,F,B,35,Equestrian,32.0194,-83.0631
Ryan,Hardy,M,M,24,"Muay Thai, Interests, Gaming",28.456,-81.4465
Tommy,Knapp,M,M,32,Ceramics,35.534,-86.0832
Keith,Harvey,M,M,29,Advertising,39.0035,-91.2403
Hector,Hodge,M,F,33,Acting,38.5305,-106.2156
Whitney,Vaughn,F,F,25,"Field hockey, Photography",37.4336,-121.8921
Elizabeth,Fitzgerald,F,F,19,Interior design,44.6038,-92.9329
Ryan,Patel,M,F,30,"Financial analysis, Computer programming, Fitness, Writing",33.1102,-97.1867
Eric,Perkins,M,M,31,Gymnastics,38.5676,-92.1759
Tabitha,Wagner,F,F,18,"Equestrian, Road cycling",31.5429,-86.7246
Hector,Brown,M,B,37,"Financial analysis, Fishing",38.7369,-86.4755
Christopher,Young,M,B,30,"Ice skating, Marketing",26.4017,-98.9322
Phillip,Mccarthy,M,M,30,"Meditation, Gardening, Fishing, Blacksmithing",39.6894,-84.69
Daniel,Nguyen,M,B,32,"Physics, Water polo, Skydiving",35.1943,-86.857
Amanda,Jones,F,B,37,"Table tennis, Video editing, Food styling, Ballroom dancing",35.4976,-77.055
Joshua,Myers,M,B,32,"Swimming, Martial arts, Floristry, Rappelling",37.1751,-104.4908
Kayla,Gonzalez,F,B,22,Food styling,41.9831,-98.0828
Alexander,Garner,M,M,29,"Music, Literature",27.3926,-82.6341
Katie,Carroll,F,F,19,"Orienteering, Stand-up comedy, Cycling, Writing",34.2773,-112.7653
Mark,Burns,M,F,29,"Floristry, Pinball",36.7555,-108.1823
William,Meyer,M,F,23,"Rock climbing, Woodworking, Baseball",27.3318,-99.5028
Paul,Lopez,M,M,29,"Equestrian, Improv, Landscaping",28.6938,-99.1761
