name,surname,sex,searching_sex,age,interests,latitude,longitude
David,Lawrence,M,F,25,"Reading, Mathematics, Sailing, Calligraphy, Financial analysis",26.4255,-99.0761
Natalie,Edwards,F,M,29,"Board games, Swimming, Air hockey, Rappelling",38.7059,-93.234
Melissa,Perkins,F,F,35,"Mountain biking, Horseback riding, Mathematics, Teaching, Biking",41.1875,-75.7553
Taylor,Estrada,M,F,33,"Nature, Fitness, Karate",45.4358,-122.5081
Kathryn,Nicholson,F,M,35,"Stock trading, Karate, Investment banking",40.1098,-95.2894
Anthony,Henry,M,M,33,"Blacksmithing, Gardening",46.8207,-94.5148
Jennifer,Smith,F,M,20,"Dancing, Journalism, Poetry",40.2337,-76.2615
Kenneth,Robinson,M,F,30,"Ice skating, Self defense, Rock climbing, Ceramics",39.0382,-119.9397
Mark,Howard,M,F,35,"Judo, Muay Thai, American football, Painting",38.6917,-77.3507
Cheryl,Tran,F,F,28,"Running, Pottery",43.2951,-94.5074
John,Smith,M,M,30,"Field hockey, Improv, Hunting, Mountain biking, Floristry",41.5866,-75.4047
Margaret,Houston,F,F,28,"Water polo, Cybersecurity",27.1331,-80.8868
Gary,Franco,M,B,25,"Tennis, Ballroom dancing, Travel",41.5465,-81.173
Holly,Taylor,F,F,30,"Rugby, Jujitsu, Reading, Theatre, Kickboxing",35.8692,-84.6731
Mary,Conrad,F,F,20,"Yachting, Travel",37.4759,-81.6475
Paul,Clark,M,B,34,"Financial analysis, Investment banking",37.8234,-97.2891
Brandi,Arroyo,F,F,33,"Landscaping, DJing",43.5272,-98.5894
Michelle,Hernandez,F,B,38,"Skiing, Mountain biking, Food styling, Journalism, Skateboarding",36.7898,-90.0918
Mary,Weeks,F,B,38,"Data analysis, Weightlifting",42.398,-91.1207
Lindsey,Coleman,F,F,36,"Windsurfing, Rugby, Ethical hacking, Geocaching",40.371,-75.6307
Jennifer,Allen,F,F,24,"Astrophysics, Skydiving, Ethical hacking",44.8505,-123.2284
Jonathan,Hall,M,F,28,"Horseback riding, Puzzle solving",43.0052,-98.0593
Caroline,Roberts,F,B,30,"Judo, Ballet, Mobile app development, Teaching",33.4503,-81.1266
Jennifer,White,F,B,18,"Orienteering, Music, Movies",40.2926,-79.9329
Tara,Hawkins,F,M,25,"Pilates, Surfing, Hang gliding, Bouldering",39.1842,-91.0168
Jennifer,Stewart,F,M,23,"Watercolor, Letterboxing, Running, Fitness, Financial analysis",47.0055,-123.4112
Janet,Walker,F,F,39,"Choreography, Mobile app development, Rock Climbing",47.4584,-96.8197
Kim,Perkins,F,B,36,"Art history, Squash, Food styling",45.6873,-123.8871
Kevin,Valenzuela,M,B,28,"Card games, Rugby, Yachting, Journalism",40.8709,-73.6287
Janice,Little,F,B,34,"Journalism, Writing, Pottery, Filmography, Swimming",37.3637,-96.3025
Rachel,Todd,F,B,24,"Floristry, Water polo",36.2015,-77.2398
Alice,Pierce,F,B,39,"Running, Glassblowing, Sculpting",18.341,-66.3124
John,Fields,M,B,23,"Kiteboarding, Surfing, Salsa",41.5041,-72.8969
Ricky,Ferguson,M,B,37,"Guitar, Nature, Shuffleboard, Soccer, Baking",34.1113,-117.165
Timothy,Jefferson,M,F,22,"Acting, Basketball, Calligraphy, Triathlons",40.5362,-74.5744
Kristina,Brewer,F,B,32,"Sewing, Rock climbing, Food criticism, Reading, Journalism",37.4672,-98.5515
Julia,Moore,F,B,33,"Kickboxing, Boxing, Biking, Lacrosse",36.8003,-95.074
Michelle,White,F,M,32,"Windsurfing, Jogging, Sewing, Escape rooms",41.0001,-74.0972
Jeffrey,Little,M,F,25,"Movies, Basketball",33.6263,-83.6112
Ronald,Cook,M,M,28,"Watercolor, Triathlons, Blacksmithing",31.5725,-91.4884
Brittany,Wilson,F,B,35,"Financial analysis, Snowboarding",24.6893,-81.3676
Edwin,Rogers,M,B,20,"Data analysis, Food styling, Martial arts, Badminton",42.0416,-88.5508
Cheyenne,Gill,F,F,20,"Ethical hacking, Landscaping, Literature, Interior design, ",43.7294,-98.0337
Theresa,Rogers,F,B,19,"Escape rooms, Pinball, Pool, Investment banking, Art",34.1538,-78.8737
Carol,Flynn,F,M,34,"Billiards, Horseback riding, Reading, Mathematics, Landscaping",41.2538,-90.3827
Deborah,Allen,F,F,36,"Fitness, Biking",38.7539,-82.8605
Christine,Carr,F,B,29,"Photography, Filmmaking",34.0536,-80.9615
Jay,Taylor,M,F,37,"Pool, Martial arts, Windsurfing, Floristry, DJing",39.2133,-94.1254
Tracey,Munoz,F,F,33,"Stock trading, Paragliding",34.5509,-77.9224
Nathan,Anderson,M,M,23,"Bar tending, Mountain biking, Mobile app development",41.378,-81.6385
Angel,Smith,F,F,24,"Calligraphy, Kayaking",37.1885,-119.7723
Jennifer,Jenkins,F,B,20,"Boating, Ice skating, Baking, Investment banking",30.6901,-92.2746
Cole,Barnes,M,F,19,"Darts, Gaming",46.8665,-89.3122
Travis,Conway,M,F,37,"Filmmaking, Physics",37.9477,-122.3389
Kurt,Crane,M,M,20,"Movies, Football",35.9981,-95.9736
Sydney,Murray,F,F,32,"Orienteering, Karate, Art history, Rappelling, Improv",35.1708,-88.5955
Jennifer,Gregory,F,F,26,"Advertising, Geocaching",32.0885,-84.6625
Jason,Rodriguez,M,M,39,"American football, Guitar, Gymnastics, Karate, Wine tasting",30.6092,-94.9467
Erin,Mccormick,F,B,38,"Web design, Painting",43.7218,-111.9925
Pamela,Cooper,F,F,20,"Board games, Knitting",34.5563,-90.9153
Benjamin,Hunt,M,M,37,"Calligraphy, Triathlons",35.3721,-86.2172
Jimmy,Henderson,M,F,31,"Darts, Bar tending, Baking, Martial arts",41.418,-81.6681
Raymond,Bishop,M,M,26,"Shuffleboard, Baking, Ballet, Road cycling",38.1148,-79.0668
Amanda,King,F,B,32,"Cooking, Journalism, Poetry",43.1468,-95.1534
Rebecca,Poole,F,M,23,"Treasure hunting, Mixology, Bar tending, Roller hockey",38.3481,-88.5895
Jocelyn,Ingram,F,F,39,"Singing, Painting, Choreography, Web design, Jazz",38.3485,-120.7728
James,Hughes,M,M,18,"Stock trading, Snowboarding",32.0562,-97.7507
Anne,Mclean,F,M,23,"Biking, Running, Improv",32.5985,-80.7961
Kelly,Harrington,F,M,20,"Pottery, Bowling",39.5791,-106.0915
Denise,Frederick,F,M,20,"Volleyball, Travel, Ethical hacking, Billiards",39.9286,-74.2022
Robin,Buchanan,F,B,27,"Baking, Nature, Filmmaking, Public relations, Marathons",33.2553,-103.3112
Kathleen,White,F,F,32,"Equestrian, Filmography, Mobile app development, Field hockey, Hunting",35.4292,-96.2998
Edward,Smith,M,F,36,"Teaching, Nature Photography, Muay Thai, Theater",41.5648,-87.5462
Barbara,Villarreal,F,F,34,"Skateboarding, Horseback riding, Kayaking, Soccer, Triathlons",33.9392,-80.393
William,Adams,M,M,29,"Kayaking, Jujitsu",40.3147,-75.9886
Shawn,Olson,M,F,26,"Landscaping, Astronomy, Calligraphy, Hunting, Boating",40.416,-78.4134
Angela,Potter,F,M,39,"Ice skating, Gardening, Singing, Biking",34.0418,-90.7459
Jacob,Jones,M,M,38,"Puzzle solving, Martial arts, Tennis",40.6445,-97.4489
Steven,Thompson,M,F,30,"Rock Climbing, Jujitsu",41.5127,-109.471
Ann,Rodriguez,F,M,39,"Windsurfing, Basketball",31.3287,-94.8014
Marcus,Martin,M,M,25,"Bouldering, Music",36.7238,-85.9561
Sara,Roberts,F,F,22,"Bowling, Soccer, Fitness",33.3452,-89.0458
Lisa,Payne,F,B,21,"Interests, Escape rooms, Advertising, Ballroom dancing, Travel",41.2778,-73.2022
Mark,Copeland,M,B,33,"Fashion design, Jujitsu, Kiteboarding, Improv, Bar tending",38.4699,-85.9491
Felicia,Ingram,F,M,38,"Lacrosse, Investment banking, Blacksmithing, Sketching, Filmmaking",40.8723,-96.3865
Danny,Jimenez,M,F,29,"Letterboxing, Painting, Dancing, Rugby",38.7286,-90.36
Ashley,Torres,F,M,38,"Interests, Interior design, Video editing, Ice skating",35.9525,-107.3445
Jeffery,Jones,M,F,20,"Travel, Investment banking, Volleyball, Music",43.6531,-96.2148
Gregory,Alvarez,M,F,20,"Ballet, Boxing, Pinball",40.8789,-123.5132
Tammy,Scott,F,M,35,"Hang gliding, Bouldering, Blacksmithing, Gymnastics, Equestrian",42.1184,-76.0219
Brianna,Scott,F,F,19,"Cycling, Soccer",45.685,-121.3951
Michele,Garrison,F,F,39,"Movies, Triathlons",43.2115,-82.988
Melanie,Larson,F,M,23,"Calligraphy, Physics, Boxing, Poetry",35.4446,-88.6531
Cassandra,Jordan,F,M,21,"Skiing, Rock climbing",35.5483,-87.1872
Katherine,Park,F,M,27,"Travel, Poetry, Rock Climbing",35.0788,-90.8135
John,Turner,M,M,34,"Gymnastics, Sewing, Cycling, Woodworking",34.6072,-105.2126
Michael,Clark,M,F,23,"Volleyball, Billiards, Improv",39.0116,-89.791
Megan,Rodriguez,F,F,19,"American football, Mixology, Guitar",36.768,-99.1126
Lee,Curry,M,M,24,"Jujitsu, Basketball, Skydiving, Video editing, Martial arts",24.8247,-80.8128
Wayne,Smith,M,F,27,"Wrestling, Investment banking, Fashion design, Snowboarding",31.0927,-87.4762
Nicole,White,F,M,32,"Sewing, Sketching, Journalism, Badminton",33.99,-96.2304
Charles,Young,M,F,34,"Kickboxing, Guitar",32.2521,-87.9492
Emily,Andrews,F,M,38,"Paragliding, Glassblowing",34.3592,-91.7928
Joseph,Klein,M,F,30,"Equestrian, Astrophysics",40.7405,-99.5374
Michael,Scott,M,B,39,"Boxing, Lacrosse, Advertising, Self defense, Hunting",35.9666,-78.196
Ana,Chambers,F,B,34,"Food criticism, Skateboarding",36.3,-91.3871
Matthew,Thomas,M,F,26,"Badminton, Fishing",40.464,-86.1277
Matthew,Oliver,M,B,27,"Skateboarding, Judo, Food styling, Mobile app development",29.8604,-90.9955
Brooke,Mason,F,M,20,"Photography, Windsurfing, Roller hockey, Treasure hunting, Bar tending",38.3955,-96.537
Matthew,Brock,M,B,32,"Glassblowing, Floristry, Advertising",41.3184,-110.3894
Matthew,Paul,M,F,18,"Equestrian, Interior design",60.1124,-149.3925
Brian,Reyes,M,F,36,"Soccer, Board games",46.7252,-108.4882
Aaron,Peterson,M,B,18,"Polo, Mathematics, Sculpting, Ballroom dancing, Theater",26.3845,-98.9084
Anthony,Richards,M,M,23,"Ceramics, Hang gliding, Singing, Gymnastics, ",32.1792,-111.1266
Scott,Moreno,M,B,32,"Dancing, Photography",37.809,-121.3131
Danielle,Hernandez,F,B,25,"Filmography, Food criticism",42.0451,-91.585
Michael,Sandoval,M,B,39,"Orienteering, Ceramics, Filmmaking",38.6799,-85.1658
Laura,Lopez,F,F,32,"Investment banking, Judo, Carpentry, Boating",39.7248,-82.6049
Nancy,Ruiz,F,B,29,"Theater, Cooking",39.1293,-94.0857
Crystal,Walsh,F,M,31,"Boating, Yoga",33.4474,-92.1714
Annette,Garcia,F,B,39,"Kayaking, Stand-up comedy, Blacksmithing",34.2693,-87.8303
Joseph,Randolph,M,F,18,"Kickboxing, Travel, Music production",39.3671,-81.4854
Zachary,Byrd,M,M,18,"Singing, Gymnastics, Dancing, Puzzle solving, Hunting",41.1319,-73.7138
David,Bridges,M,B,21,"Darts, Improv",35.5637,-90.7216
Gregory,Jones,M,F,26,"Ballroom dancing, Marketing, Shuffleboard, Investment banking, Treasure hunting",46.1415,-115.9765
Jonathan,Williams,M,M,31,"Choreography, Ethical hacking",33.5874,-102.1636
Matthew,Jacobs,M,F,33,"Travel, Theatre, Basketball, Geocaching",42.6585,-94.8982
Elizabeth,Anderson,F,M,27,"Calligraphy, Wine tasting, Theatre, Equestrian",38.2201,-85.5907
Cassandra,Peters,F,F,19,"Choreography, Nature Photography, Equestrian, Pinball",36.2615,-83.0788
Julian,Pena,M,M,30,"Yoga, Jogging, Yachting, Art",41.7634,-98.0816
Peter,Miller,M,F,19,"American football, Boxing, Sewing, Yoga, Art",40.6374,-78.2948
Amanda,Nelson,F,M,26,"Judo, Basketball, Weightlifting, Cycling, Marketing",41.5776,-95.3308
Keith,Soto,M,M,28,"Singing, DJing, Web design, Baking",36.7543,-98.156
Shirley,Young,F,B,32,"Theatre, Polo, Geocaching",35.7517,-91.5003
Edward,Morris,M,B,37,"Pool, Mobile app development",31.3327,-81.9517
Karen,Cox,F,M,30,"Swimming, Gaming",40.7656,-82.5275
Erica,Carrillo,F,F,30,"Squash, Photography",41.4122,-93.6501
Samantha,Carson,F,F,39,"Billiards, Horseback riding",43.2121,-116.5485
William,Baker,M,M,31,"Acting, Wrestling",34.5693,-93.1726
Kenneth,Duncan,M,B,18,"Judo, Darts, Self defense, Ballroom dancing, Billiards",38.2702,-85.6378
Jeffrey,Barnes,M,M,36,"Self defense, Hiking, Glassblowing",44.9478,-93.1039
Matthew,Ford,M,B,19,"Yoga, Marathons, Pilates",63.0305,-163.553
Alexandra,Hensley,F,F,27,"Reading, Triathlons, Landscaping, Rugby, Wine tasting",29.1696,-80.9796
Kevin,Allison,M,B,25,"Wrestling, Rugby, Astrophysics",46.9124,-103.5251
Savannah,Reyes,F,F,24,"Ice skating, Skydiving, Bowling, Poetry, Diving",42.5758,-88.2311
Joe,Harrison,M,M,34,"Mountain biking, Nature Photography, Choreography, Web design",40.7486,-81.8333
Kelly,Baker,F,F,37,"Surfing, Floristry, Filmography, Rappelling, Fishing",39.1452,-75.9808
Amanda,Lopez,F,B,33,"Weightlifting, Soccer",35.7844,-92.2996
Heather,Hale,F,F,26,"Woodworking, Surfing, Music production, Yachting",36.125,-105.7846
Claire,Long,F,B,38,"Rugby, Weightlifting, Guitar",43.2361,-87.9785
Tina,Wise,F,B,38,"Interior design, Baking, Diving, Football",33.4288,-81.8905
Jason,Jenkins,M,F,37,"Movies, Skiing, Mobile app development",29.7914,-95.1144
Jackie,Johnson,F,F,19,"Skiing, Data analysis, Literature, Knitting",38.3513,-85.9372
Patrick,Hawkins,M,F,31,"Kickboxing, Muay Thai, Biking, Theater, Letterboxing",38.2792,-75.6533
Theresa,Paul,F,B,31,"Orienteering, Rappelling, Nature, Acting",18.0767,-67.1858
Steven,Jones,M,F,24,"Jazz, Self defense",31.8495,-86.2057
Eric,Smith,M,B,18,"Interior design, Basketball",39.2581,-84.8225
David,Hayes,M,M,28,"Travel, Skydiving, Letterboxing",40.6653,-74.2666
Laura,Romero,F,M,36,"Painting, Karate, Horseback riding",43.7468,-98.9569
Logan,Anderson,M,M,26,"Travel, Weightlifting, Yachting",41.3131,-90.5787
Rebecca,Marquez,F,F,22,"Gymnastics, Martial arts, Water polo",42.2874,-91.781
Melinda,Roberts,F,B,23,"Volleyball, Investment banking",43.9332,-93.6976
Sheila,James,F,B,27,"Stand-up comedy, Ice skating, Shuffleboard",35.4109,-76.325
Matthew,Pollard,M,F,29,"Rappelling, Public relations",42.8692,-71.4819
Jeanne,Cannon,F,B,31,"Fashion design, Bouldering, Yoga, Boating",40.0077,-75.2634
Amanda,Cummings,F,M,26,"Bouldering, Physics, Synchronized swimming, Carpentry",37.7669,-113.0449
David,Navarro,M,F,21,"Badminton, Art, Video games, Pool",40.8761,-73.1521
Scott,Walter,M,B,28,"Ceramics, Baking, Kiteboarding",32.3486,-98.2971
Bryan,Hughes,M,B,31,"Nature, Jazz, Field hockey, Roller hockey, Gaming",38.6309,-90.3332
Ryan,Wall,M,M,24,"Interests, Glassblowing, Bar tending",38.6194,-90.3475
Peter,Hudson,M,B,36,"Astronomy, Computer programming, Snowboarding",47.2901,-102.0652
Sandy,Bowman,F,F,31,"Photography, Pinball, Tennis",38.2875,-81.833
Katherine,Miller,F,F,37,"Theater, Pinball",40.6219,-78.9152
Sheila,Bauer,F,F,28,"Music production, DJing",45.5974,-122.9948
Alan,Castillo,M,B,39,"Advertising, Bouldering",35.5468,-97.5445
Ryan,Martinez,M,B,19,"Web design, Pool, Bar tending",39.415,-118.7165
Steven,Jacobson,M,F,30,"Equestrian, Ballroom dancing",36.7906,-85.3675
Audrey,Brewer,F,F,34,"Ballet, Horseback riding, Pool, Running",31.5599,-97.1882
Jacob,Villarreal,M,M,24,"Field hockey, Salsa, Rock climbing, Public relations, Card games",40.7461,-73.0546
Jason,Taylor,M,M,18,"Physics, Web design",25.6415,-80.4
Chris,Bowen,M,F,34,"Meditation, Sketching, Karate, Marathons, Wine tasting",24.7233,-81.0216
Kari,Villanueva,F,M,32,"Hiking, Puzzle solving, Hang gliding",41.3426,-111.8649
Ivan,Barnett,M,B,38,"Filmmaking, Financial analysis, Journalism, Jogging, Swimming",48.9437,-99.7132
Jacob,Hernandez,M,M,19,"Wine tasting, Improv, Yachting",45.1018,-96.7998
Belinda,Wise,F,B,21,"Poetry, Kiteboarding, Weightlifting, Art history, Data analysis",29.0683,-98.4722
Dean,Wilson,M,M,37,"Darts, Mathematics",40.2409,-91.7977
Miranda,Hardy,F,F,35,"Soccer, Cooking",42.691,-73.7271
Steven,Bryant,M,M,27,"Self defense, Stock trading, Carpentry, Cycling",41.2493,-84.1292
Darryl,Williams,M,B,35,"Pool, Hunting, Triathlons, Water polo",37.5859,-122.3667
Kimberly,Navarro,F,M,32,"Pool, Gardening, Rappelling, Calligraphy",33.5382,-105.7119
Justin,Dixon,M,M,19,"Sailing, Judo",38.6058,-89.4321
Stephanie,Bridges,F,B,35,"Fishing, Billiards",42.0265,-96.0909
Susan,Jones,F,M,36,"Skiing, Wine tasting, Improv, ",18.1883,-65.8079
Frank,Rich,M,M,36,"Swimming, Investment banking, Equestrian, Football",42.5574,-88.868
Julie,Foster,F,F,21,"Skiing, Art history",29.7355,-81.2413
Michael,Fields,M,M,25,"Sailing, Computer programming",42.8667,-91.2362
Sarah,Taylor,F,F,37,"Marketing, Triathlons, Road cycling",33.0271,-108.1381
James,Johnson,M,B,33,"DJing, Gymnastics, Wine tasting, Journalism",40.9646,-80.5597
Lawrence,Davila,M,F,21,"Hang gliding, Jazz",34.9564,-102.1094
Marcus,Ayers,M,F,26,"Meditation, Sketching",42.6777,-110.9408
Julia,Harrison,F,M,22,"Weightlifting, Rock climbing, Public relations",40.9786,-89.2349
Corey,Norman,M,F,19,"Filmography, Skateboarding, Blacksmithing",29.9063,-96.6758
Cheryl,Moore,F,F,38,"Web design, Cybersecurity, Baseball, Yoga, Hang gliding",48.5427,-109.6804
Daniel,Mcgrath,M,B,25,"Acting, Triathlons, Pottery, Gymnastics, Photography",19.1993,-155.4772
Don,Le,M,M,29,"Marketing, Wine tasting",30.3608,-89.1651
Crystal,Palmer,F,F,21,"Journalism, Theater, Public relations, Swimming",40.5126,-89.9156
Gabriel,Eaton,M,F,33,"Gaming, Hiking, Rugby, Skydiving, Web design",41.4274,-84.8721
Gregory,Barnes,M,M,33,"American football, Karate, Water polo, Literature",35.9625,-77.3051
William,Ryan,M,F,35,"Music, Reading, Skateboarding, Pool, ",39.5976,-80.0191
Jacqueline,Jackson,F,F,35,"Public relations, Billiards, Journalism, Improv, Football",38.937,-83.5753
Veronica,Robinson,F,B,28,"Gardening, Video editing, Jazz",44.5148,-87.9895
Gregory,Gillespie,M,B,36,"Theatre, Photography, Improv, Nature Photography",37.1249,-79.7076
Amanda,Gonzalez,F,M,34,"Landscaping, Equestrian, DJing",34.9273,-95.2099
Karen,Williams,F,F,32,"Video games, Interests, Nature Photography, Wine tasting, ",47.0749,-96.5058
Victor,Johnson,M,B,38,"Polo, Drawing, Pottery, Ice skating",38.3283,-89.0345
Kayla,Lindsey,F,F,23,"Water polo, Sailing, Jujitsu, Nature Photography, Equestrian",41.9243,-87.8379
Frances,Walker,F,B,39,"Basketball, Muay Thai, Public relations, Skydiving",40.9735,-78.519
Jessica,Greene,F,M,29,"Choreography, Glassblowing",34.6956,-79.9084
Erin,Lawson,F,F,18,"Field hockey, Ice skating, Stock trading",43.0331,-71.4254
Robert,Velasquez,M,B,18,"Tennis, Board games, Cooking, Gaming, Literature",32.2806,-82.1387
Nathan,Mcdowell,M,B,29,"Boating, Horseback riding",38.3836,-123.0733
Richard,Powell,M,B,35,"Marathons, Jogging, Board games",38.603,-100.6176
Lisa,Miranda,F,B,37,"Golf, Judo, Orienteering, Field hockey, Gaming",37.9629,-122.3426
Thomas,Byrd,M,B,39,"Sewing, Cooking, Skydiving, Hiking, Literature",26.2585,-97.695
Brian,Gill,M,B,29,"Drawing, Cooking, Roller hockey, Snowboarding",36.2082,-119.0897
Stephanie,Smith,F,B,32,"Video games, Drawing, Jogging, Air hockey",39.9301,-75.2958
Erin,Kelly,F,B,31,"Theater, Pool, Sketching, Writing, Rock Climbing",32.1469,-82.7798
Gary,Simmons,M,F,39,"Investment banking, Interior design, Marathons, Pottery, Roller hockey",37.1038,-89.912
Lori,Jennings,F,F,39,"Hiking, Ballroom dancing, Nature, Cycling, Theatre",37.8408,-121.9565
Lori,Thomas,F,F,37,"Music production, Windsurfing, Hang gliding",38.9528,-75.8828
Jose,Kramer,M,F,25,"Board games, Mixology, Skateboarding, Filmography",46.5335,-88.0627
Doris,Russell,F,B,33,"Sewing, Carpentry, Pilates",34.9688,-92.4224
Jonathan,Kennedy,M,B,34,"Table tennis, Boating, Public relations, Squash",38.4676,-90.8854
Jonathon,Lopez,M,F,28,"Calligraphy, Stand-up comedy, Watercolor, Food criticism, Salsa",43.4911,-97.3848
Philip,Hammond,M,F,35,"Treasure hunting, Video editing",38.9254,-76.9141
Patrick,Mills,M,B,21,"Food criticism, Yoga, Astronomy, Financial analysis",43.844,-95.4666
Anthony,Sharp,M,F,24,"Squash, Filmmaking, Gaming",41.636,-84.4943
George,Allen,M,M,32,"Football, Kiteboarding, Card games, Badminton",42.868,-94.2863
Lorraine,Henderson,F,F,22,"Boxing, Theater",28.3698,-81.3467
Daniel,Dalton,M,B,31,"Interior design, Improv, Board games",34.3789,-84.3707
Leah,Beard,F,F,28,"Sailing, Physics, Gaming, Acting, Knitting",26.6753,-80.108
Cheryl,Lewis,F,F,39,"Soccer, Theatre",41.7661,-72.6834
Peter,Pacheco,M,M,36,"Journalism, Advertising, Gardening, Woodworking, Escape rooms",40.6607,-75.2364
Andrew,Allen,M,M,38,"Kickboxing, Music production, Running, Road cycling",31.3344,-105.9028
William,Stewart,M,F,35,"Pilates, Boating, Baking",43.117,-72.9025
Daniel,Davis,M,B,28,"Pottery, Music production, Baseball",34.869,-89.689
Tommy,Harris,M,M,19,"Choreography, Salsa, Cycling, Hang gliding",40.3834,-80.2153
Elizabeth,Todd,F,F,37,"Biking, Reading",42.0926,-88.6964
Sara,Gomez,F,M,37,"Ballroom dancing, DJing, Windsurfing",41.7444,-87.7686
Eric,Richardson,M,F,25,"Gardening, Paragliding",44.6611,-85.6883
Christine,Jones,F,F,34,"Salsa, Advertising",38.5768,-90.3849
Julie,Jimenez,F,F,26,"Self defense, Bar tending, DJing, Treasure hunting, Darts",38.2833,-85.5725
Michael,Jensen,M,M,20,"Theatre, Hunting, Poetry, Astrophysics",33.4521,-88.3399
Gary,Guerra,M,M,22,"Geocaching, Filmmaking, Literature",40.5188,-86.7122
Alex,Brown,M,M,37,"Yachting, Yoga, Triathlons",42.9892,-89.5383
Sarah,Evans,F,M,35,"DJing, Judo, Theatre, Billiards, Orienteering",41.2154,-106.7813
Julie,Burgess,F,B,32,"Nature Photography, Guitar, Investment banking",40.2982,-89.4851
Andrew,Santos,M,B,26,"Teaching, Nature Photography, Acting, Billiards, Card games",41.1261,-77.2364
Gerald,Quinn,M,F,32,"Improv, Boxing, Theatre, Table tennis, Skiing",18.01,-67.0855
Christopher,Thomas,M,B,36,"Fashion design, Filmography, American football",40.6886,-112.0123
Matthew,Hutchinson,M,B,30,"Hiking, Volleyball, Rappelling",39.9612,-95.9713
Kaitlin,Ross,F,B,30,"Stock trading, Skateboarding, Billiards, Mixology",46.886,-103.1952
Victor,Howard,M,F,20,"Computer programming, Financial analysis, Journalism, Diving, Rock climbing",40.3147,-75.9886
Cheryl,Arias,F,M,31,"Ceramics, Darts",42.036,-87.74
Jonathan,Spears,M,M,35,"Yachting, Hiking, Salsa, Marketing, Boating",43.7599,-70.1284
Tony,Kirk,M,M,21,"Biking, Ballet, Stand-up comedy, Golf, Gardening",35.4613,-89.4012
John,Soto,M,M,31,"Self defense, Treasure hunting",39.0047,-94.0659
Sarah,Ramsey,F,B,29,"Road cycling, Windsurfing",31.4763,-96.9303
Sherry,Johnson,F,B,32,"Teaching, Stand-up comedy, Theatre, Swimming",34.2319,-84.9444
Erin,Ramirez,F,B,20,"Table tennis, Skydiving, Cooking, Yoga",40.5911,-122.4797
Brittany,Mitchell,F,M,39,"Reading, Photography",40.0077,-75.2634
Spencer,Davidson,M,B,34,"Jazz, Football, Rock Climbing, Sketching, Food styling",38.3899,-78.834
Michael,Rose,M,M,38,"Blacksmithing, Horseback riding",32.4396,-86.0857
Stacy,Blair,F,B,18,"Data analysis, Ethical hacking, Football, Snowboarding, Movies",36.4413,-88.3324
Lori,Harris,F,F,22,"Drawing, Weightlifting, Art history",31.0906,-87.0556
Phillip,Underwood,M,F,36,"Golf, Gaming, Fitness, Bar tending",38.4595,-93.2025
Joshua,Choi,M,M,25,"Hunting, Ballroom dancing, Water polo, Photography",43.4128,-86.3636
Cathy,White,F,F,29,"Karate, Lacrosse, Squash, Pilates",32.1526,-81.9743
James,Duffy,M,F,20,"Horseback riding, Football, Gardening, Knitting",36.1008,-115.0379
David,Fuller,M,F,27,"Snowboarding, Mountain biking, Judo",42.9834,-84.9456
Brian,Robinson,M,F,33,"Orienteering, Financial analysis",41.7192,-95.3937
Kim,Norris,F,B,34,"Rock Climbing, Road cycling, Bowling, Sailing",36.6758,-79.7981
Aaron,Miller,M,F,18,"Video editing, Movies, Rugby, Soccer, Blacksmithing",32.7974,-96.5577
Theresa,Jacobs,F,F,27,"Kiteboarding, Football, Skiing, Nature, Interior design",36.4489,-89.9128
Courtney,Williams,F,B,23,"Karate, Jazz, Kiteboarding, Air hockey, Boxing",48.487,-122.4628
Jackie,Johnson,F,M,23,"Weightlifting, Woodworking, Stand-up comedy, Bouldering, Roller hockey",35.1635,-78.737
Eileen,Strickland,F,B,39,"Gaming, Food criticism, Cooking, Landscaping, Escape rooms",41.9314,-88.7481
Martin,Smith,M,F,29,"Air hockey, Dancing, Calligraphy, ",38.017,-77.5593
Glen,Wells,M,M,19,"Swimming, Public relations, Improv, Food styling, Ice skating",26.9629,-82.0571
Jesse,Ritter,M,M,29,"Table tennis, Pottery, Surfing, Stock trading",39.7602,-94.9396
Elizabeth,Campbell,F,M,29,"Biking, Music production, Puzzle solving, Geocaching",41.5492,-117.8235
Melissa,Martin,F,F,26,"Table tennis, Geocaching, Watercolor",44.9364,-93.632
Anthony,Baker,M,B,32,"Food styling, Fishing",36.9688,-119.8927
Amy,Acosta,F,B,30,"Choreography, Drawing, Snowboarding, Soccer",40.8547,-76.8231
Kristina,Williams,F,F,30,"Pottery, Cycling, Marketing, Paragliding, Blacksmithing",30.1226,-93.7607
Amy,Smith,F,F,19,"Mixology, Karate, Soccer, Horseback riding",28.5767,-97.798
David,Garcia,M,B,21,"Ballroom dancing, Diving, Fishing",39.9844,-81.7925
Keith,Mcclure,M,M,31,"Hiking, Basketball, Football",40.2115,-77.006
Jessica,Taylor,F,F,35,"Jujitsu, Guitar, Gymnastics, Gardening, Woodworking",41.7053,-75.7674
Trevor,Palmer,M,M,31,"Sketching, Literature, Skydiving",41.1365,-77.4521
Kimberly,Stevens,F,B,27,"Escape rooms, Salsa",33.9193,-84.5445
Gabriel,Campbell,M,B,37,"Food styling, Pool, Martial arts",40.4299,-91.7742
Antonio,Edwards,M,F,30,"Food criticism, Baking, Polo",25.9407,-80.3102
Nicholas,Robbins,M,B,24,"Choreography, Roller hockey, Surfing",44.598,-95.2134
Theresa,Miller,F,B,21,"Nature Photography, Shuffleboard, Writing, Muay Thai, Glassblowing",29.4013,-95.4816
Traci,Stone,F,M,29,"Filmmaking, Polo, Jujitsu, Roller hockey, Geocaching",35.2347,-119.0829
Jamie,Lane,F,B,27,"Letterboxing, Rock Climbing, Polo",30.7509,-98.6763
Sharon,Cruz,F,B,27,"Diving, Pool, Equestrian, Ballet",44.9356,-93.7107
Christopher,Morales,M,M,32,"Interior design, Stock trading, Cybersecurity, Marketing, Choreography",40.877,-74.9034
Deborah,Flowers,F,F,18,"Mixology, Video editing, Water polo, Reading, American football",34.4346,-77.5644
Sarah,Graves,F,B,33,"Rappelling, Improv, Painting",43.5934,-88.048
James,Summers,M,B,21,"Billiards, Wrestling, Blacksmithing, Travel",47.2348,-124.2024
Jimmy,Manning,M,F,27,"Fishing, Music production, Filmmaking, Equestrian",38.88,-76.8289
Christopher,Logan,M,M,33,"Roller hockey, Watercolor, Financial analysis, Stock trading",40.5001,-97.3882
Daniel,Davila,M,B,39,"Marathons, Muay Thai",43.4891,-83.4025
Brittany,Price,F,F,26,"Ballet, Biking",40.1519,-79.8828
Ashley,Johnston,F,F,34,"Football, Cooking",37.9213,-89.9163
Matthew,Taylor,M,M,23,"Marketing, Pinball",33.5905,-112.3271
Jeffrey,Lopez,M,B,35,"Field hockey, Meditation",38.8374,-76.7144
Michael,Quinn,M,B,25,"Data analysis, Equestrian, Golf, Skiing",43.1122,-77.4869
Cathy,Thornton,F,B,38,"Physics, Rock Climbing, Yachting, Bouldering",33.8144,-97.9424
Cindy,Cooper,F,B,22,"Public relations, Tennis, Volleyball, Rappelling, Pottery",40.9956,-80.3458
Shannon,Jones,F,F,35,"Jazz, Squash, Karate",26.5286,-80.0499
Lauren,Ferguson,F,B,28,"Equestrian, Tennis",39.8902,-79.968
Patricia,Nguyen,F,F,27,"Cooking, Astronomy",29.3575,-81.7746
Rachael,Hunt,F,B,39,"Surfing, Journalism, Jujitsu, Golf",32.4734,-96.3502
Daniel,Cook,M,F,21,"Public relations, Puzzle solving, Escape rooms, Letterboxing",35.289,-92.7813
Alexis,Keith,F,M,23,"Fitness, Golf",42.1019,-89.8336
Carlos,Robinson,M,F,31,"Hunting, Astrophysics, Table tennis",33.3342,-118.3315
Greg,Mayer,M,B,39,"Cybersecurity, Kiteboarding, Martial arts",38.451,-123.1203
Mary,Prince,F,M,37,"Billiards, Guitar, Kayaking",34.6451,-82.7818
Darryl,Reynolds,M,B,37,"Billiards, Mobile app development, Mixology, Kayaking, Floristry",38.1562,-84.676
Monica,Jackson,F,M,25,"Travel, Wine tasting, Tennis",45.7887,-95.3574
Paul,Gilbert,M,M,21,"Cybersecurity, Advertising, Horseback riding, Stand-up comedy",41.1245,-88.8297
Cassandra,Brown,F,F,24,"Knitting, Pinball",41.0001,-74.0972
John,Boyer,M,B,19,"Acting, Hiking, Letterboxing, Gymnastics, Physics",40.1383,-99.8276
Katherine,Nelson,F,B,19,"Stock trading, Gaming, Cooking",18.0038,-66.3919
Michael,Thomas,M,M,25,"Blacksmithing, Jazz, Calligraphy",32.3141,-97.0051
Lindsey,Garcia,F,M,31,"Wine tasting, Triathlons, Yachting, Windsurfing",41.2852,-88.2507
Karla,Wood,F,B,18,"Computer programming, Pilates, Journalism, Muay Thai, Badminton",45.3022,-121.7527
Austin,Hahn,M,F,28,"Pinball, Filmmaking, Synchronized swimming, Hiking, Ceramics",28.8426,-81.8009
Molly,Rogers,F,M,38,"Ballet, Cybersecurity, Salsa, Journalism",37.3507,-96.4494
Matthew,Glass,M,B,35,"Photography, Badminton, Kiteboarding, Water polo, Volleyball",42.626,-70.6897
Eddie,Porter,M,F,22,"Guitar, Hiking, Orienteering, Mountain biking, Public relations",35.3097,-98.343
Douglas,Collins,M,M,35,"Running, Road cycling",41.397,-73.6151
Alicia,Salinas,F,B,21,"Basketball, Hunting, Journalism, Squash, Floristry",31.0276,-88.798
Michael,Ramsey,M,B,27,"Skiing, Billiards",32.1364,-88.7958
Michelle,Herman,F,M,34,"Hiking, Dancing, Marketing, Skydiving, Public relations",31.924,-92.6425
Betty,Moyer,F,B,39,"Mobile app development, Fitness",43.6447,-97.0745
Kara,Jones,F,B,29,"Food styling, Wrestling, Hiking, Windsurfing, Kickboxing",38.839,-77.4389
John,Krueger,M,M,21,"Jujitsu, Hang gliding, Computer programming, Glassblowing",39.2473,-106.2934
Michael,Lopez,M,M,33,"Meditation, Gymnastics, Running, Basketball, Orienteering",32.2348,-92.7098
Dean,Swanson,M,B,23,"Filmography, Karate, Football, Escape rooms",40.3218,-85.3591
Kevin,Fleming,M,B,33,"Yoga, Sculpting, Investment banking",18.4382,-67.1537
Vanessa,Harrington,F,B,21,"Writing, Water polo, Music",40.1246,-86.0242
Connor,Sanders,M,F,31,"Mobile app development, Mixology, Jujitsu",48.7661,-101.5169
Lee,Mccoy,M,F,18,"Hiking, Martial arts, Fishing, Blacksmithing",38.1697,-75.8895
Jennifer,Romero,F,F,35,"Volleyball, Field hockey, Air hockey, Singing",34.1597,-118.139
Tamara,Lindsey,F,M,29,"Lacrosse, Roller hockey, Food criticism, Windsurfing, Investment banking",37.3733,-96.1934
Karen,Barnes,F,F,24,"Lacrosse, Basketball, Pottery, Martial arts, Poetry",36.2066,-86.1676
Emma,Barber,F,M,27,"Darts, Rugby",35.3078,-108.0966
Lisa,Smith,F,M,36,"Interior design, Squash, Wrestling",43.6923,-73.9835
Elizabeth,Mills,F,F,30,"Nature Photography, Hang gliding, Sculpting, Martial arts",40.0272,-83.0704
Christine,Thomas,F,M,28,"Teaching, ",34.0393,-117.6064
James,Brown,M,F,39,"Teaching, Art history, Puzzle solving, Blacksmithing",47.3848,-117.1748
Todd,Alexander,M,B,37,"Volleyball, Gymnastics",34.4931,-77.434
Nathan,Castro,M,B,21,"Sailing, Wrestling, Card games, Knitting, Yoga",48.1009,-103.2548
Anthony,Rocha,M,B,35,"Stand-up comedy, Filmmaking",34.6109,-106.7818
Christine,Baker,F,B,34,"Cybersecurity, Pilates, Golf, Weightlifting",47.1033,-122.0494
Ana,Thompson,F,M,30,"Table tennis, Theatre, Music production",44.3184,-73.1909
Heather,Gonzalez,F,M,31,"Triathlons, Yachting",39.1676,-84.7152
Michael,Ferguson,M,F,33,"Music, Hunting, Shuffleboard, Horseback riding",47.8056,-122.2401
Christopher,Chapman,M,M,33,"Baseball, Choreography, Guitar, Movies",29.7587,-94.9671
Brandon,Petty,M,F,21,"Synchronized swimming, Reading, Literature, Ethical hacking",37.9272,-81.1531
Jordan,Wright,M,F,18,"Muay Thai, Web design",27.8156,-82.7162
Charles,Jones,M,M,24,"Woodworking, Watercolor, Video games, Horseback riding",37.9425,-91.8913
Albert,Henry,M,B,20,"Cybersecurity, Orienteering, Hunting",39.8131,-85.1371
Lauren,Bruce,F,B,34,"Dancing, Diving, Fishing, Muay Thai, Baseball",39.8874,-86.1567
Zachary,Watson,M,F,23,"Music, Geocaching, Judo",47.5055,-116.0008
Christopher,Watson,M,M,37,"Pinball, Weightlifting, Ballet",29.7254,-99.7631
Benjamin,Henry,M,F,39,"Financial analysis, Salsa, Sewing",36.4556,-90.1428
Ashley,Chapman,F,F,32,"Soccer, Yoga, Paragliding, Self defense, Food styling",41.1298,-74.035
Jasmine,Jones,F,M,37,"Salsa, Hiking, Music, Poetry",45.9005,-100.2885
Benjamin,Jones,M,M,35,"Weightlifting, Landscaping",28.1919,-80.6594
Felicia,Molina,F,M,21,"Watercolor, Ice skating, Diving, Video editing",40.9843,-81.1481
Thomas,Bradley,M,M,27,"Ceramics, Kayaking",37.8868,-97.5147
Justin,Sanders,M,M,21,"Mathematics, Kickboxing, Sketching, Woodworking",35.6037,-110.0791
Lisa,Scott,F,F,21,"Muay Thai, Rappelling, Ballet, Floristry, Pinball",37.3605,-90.6975
Austin,Williams,M,M,23,"Filmmaking, Skiing, Singing",40.6328,-73.6364
Jonathan,Lawson,M,F,21,"Dancing, Financial analysis, Bouldering, Jazz, Table tennis",32.2017,-83.9072
Paula,Collins,F,M,36,"Woodworking, Hang gliding",41.5905,-87.8414
Jennifer,Martin,F,B,27,"Biking, Billiards, Bouldering, Judo, Air hockey",47.3755,-119.5044
Jennifer,Waters,F,F,21,"Calligraphy, Filmography, Theatre",45.262,-97.7117
Angela,Bryant,F,F,37,"Blacksmithing, Data analysis, Football, Skateboarding, ",34.5407,-78.795
Aaron,Christian,M,B,24,"Rock Climbing, Mountain biking, Diving, Letterboxing, Volleyball",41.286,-82.2198
Karen,Dominguez,F,B,26,"Interior design, Tennis, Writing",40.6983,-73.5086
Barbara,Haley,F,B,38,"Carpentry, Drawing",45.2206,-90.3232
Sarah,Cook,F,F,29,"Weightlifting, Filmography, Music production",42.9085,-76.5263
Sharon,Martinez,F,M,25,"Rock climbing, Improv, Bar tending, Movies",26.3276,-98.7167
Tracy,Hughes,F,B,39,"Ceramics, Ethical hacking",41.6497,-90.7184
Stephen,Reese,M,B,35,"Interior design, Running, Badminton, Rugby",39.0038,-91.3521
Gregory,Fisher,M,B,39,"Badminton, Wrestling, Judo, Skateboarding, Kayaking",34.4931,-77.434
Amanda,Torres,F,M,19,"Music, Nature, Gardening, Darts",36.2942,-76.236
Ashley,Cook,F,M,26,"Roller hockey, Diving",35.3153,-81.6602
Crystal,Sanchez,F,B,20,"Hunting, Singing, Ice skating",37.8737,-89.9497
Natasha,Gardner,F,F,19,"Self defense, Writing",31.5087,-89.2824
Chad,Jones,M,M,38,"Video editing, Weightlifting, Skydiving, Billiards",33.809,-95.505
Jose,Harris,M,F,33,"Dancing, Blacksmithing, Rugby",39.1423,-77.4102
William,Fernandez,M,F,25,"Basketball, Jogging, Calligraphy, Card games",36.4469,-76.6127
Christopher,Webb,M,B,22,"Rugby, Calligraphy, Orienteering, Puzzle solving",39.7915,-74.9374
Timothy,Long,M,F,26,"Billiards, Roller hockey, Choreography, Woodworking",41.7399,-111.8422
Tony,Gonzalez,M,F,22,"Treasure hunting, Food styling, Mathematics, Sketching, Gardening",40.0598,-97.3359
Patty,Harper,F,B,22,"Kickboxing, Ethical hacking, Cybersecurity, Wine tasting, Art history",37.4784,-84.8151
Elizabeth,Carson,F,B,26,"Public relations, Jujitsu, Gardening, Jogging",41.0469,-83.6379
Shane,Kelley,M,F,20,"Gaming, Karate, Drawing, Teaching, Bar tending",40.6696,-73.4156
Vanessa,Buchanan,F,F,25,"Diving, Theater",35.2802,-82.4171
Emily,Crawford,F,M,30,"Pool, Muay Thai, Horseback riding, Geocaching, Ice skating",40.8785,-80.7624
Meagan,Solomon,F,B,31,"Sketching, Letterboxing",34.4938,-85.8436
Sherry,Schwartz,F,B,26,"Pool, Guitar, Glassblowing, Pottery",34.2656,-77.7966
Chad,Smith,M,F,24,"Paragliding, Table tennis, Cybersecurity",28.072,-80.6876
Charles,Martinez,M,B,28,"Kickboxing, Jazz, Boating, Yoga",37.3538,-95.0191
Nicole,Henderson,F,M,35,"Mathematics, Self defense, Field hockey, Yoga",26.4247,-99.024
Jennifer,Suarez,F,B,23,"Letterboxing, Fitness, Kayaking, Pinball",37.7904,-122.2166
Kara,Snyder,F,F,34,"Running, Jazz",17.9964,-66.0515
Andrew,Johnson,M,B,25,"Bouldering, Wrestling, Salsa, Air hockey, Boxing",42.4276,-76.4612
Christopher,Ryan,M,M,37,"Gymnastics, Hang gliding, Baking, Nature Photography, Ballroom dancing",29.3866,-98.6179
Penny,Hudson,F,M,28,"Poetry, Paragliding, Boating, Guitar",37.5351,-79.3615
Gene,Morales,M,F,24,"Bowling, Board games, Hunting, Blacksmithing, Judo",34.8299,-90.3208
Jerry,Hart,M,M,31,"Golf, Interior design, Food criticism",37.3737,-102.4474
John,Davies,M,M,33,"Ice skating, Skiing",40.9702,-78.8765
Holly,Nelson,F,F,20,"Landscaping, Acting, Music, Computer programming",32.537,-94.3515
Julie,Moore,F,F,21,"Blacksmithing, Video games, Gardening",47.7203,-111.6944
Elizabeth,Harrison,F,B,25,"Video games, Volleyball, Astrophysics",43.2451,-86.1074
Mitchell,Jennings,M,B,23,"Rock Climbing, Karate, Singing, Diving",38.1088,-103.8668
Kristi,Mcbride,F,M,32,"Marathons, Rock Climbing, Gardening, Floristry",33.8436,-84.2024
Jenny,Wood,F,B,33,"Board games, Baking, Public relations",43.5018,-87.8476
Tonya,Neal,F,B,30,"Paragliding, Pottery, Snowboarding",43.1141,-124.4158
Nicholas,Anderson,M,F,23,"Pool, Triathlons, Gaming, Wrestling, Physics",39.7261,-89.9143
Deborah,Harvey,F,F,33,"Board games, Ethical hacking, Horseback riding, Windsurfing, Literature",38.3465,-104.7246
Richard,Taylor,M,F,18,"Blacksmithing, Kayaking, Video games, Escape rooms",30.3666,-88.5506
Jeanne,Grant,F,F,29,"Fishing, Rugby, Interests",29.7649,-94.6787
Candice,Marshall,F,M,31,"Basketball, Judo, Self defense",41.8866,-111.4326
Jennifer,Reeves,F,B,26,"Rock climbing, Baking, Triathlons, Puzzle solving",45.8649,-95.1524
Kaylee,Smith,F,F,37,"Sculpting, Bar tending, Ceramics",44.4742,-88.4506
Leonard,Hood,M,F,18,"Hang gliding, Photography, Nature, Yoga, Air hockey",36.3782,-86.4698
Christopher,Jones,M,M,19,"Boating, Food styling, Yachting",39.6881,-86.6698
Brenda,Carter,F,B,29,"Ballroom dancing, Singing, Woodworking, Judo",45.392,-108.9065
Marcus,Snyder,M,M,29,"Triathlons, Carpentry, Advertising, Sailing, Golf",41.3443,-73.0689
Shannon,Richards,F,F,26,"Glassblowing, Knitting, Music production, Ethical hacking, Roller hockey",34.4891,-78.6559
Kristy,Garrett,F,B,21,"Yoga, Financial analysis, Glassblowing, Board games",31.1192,-97.914
Justin,Gordon,M,M,30,"Guitar, Stock trading",46.0921,-115.9762
Chelsey,Martin,F,M,34,"Skiing, Wine tasting",38.6544,-99.3202
Ashley,Hill,F,F,19,"Art history, Shuffleboard",35.5043,-94.67
Bianca,Lowe,F,M,33,"Field hockey, Travel, Stand-up comedy, Card games",44.8614,-69.8975
Patricia,Lawson,F,M,34,"Equestrian, Ceramics",44.317,-88.0972
Kathryn,Brown,F,F,26,"DJing, Sketching, Food criticism, Nature Photography, Windsurfing",33.941,-94.3554
Joy,Nelson,F,F,21,"Jogging, Mountain biking",40.2226,-76.2863
Adam,Palmer,M,M,19,"Baking, Marathons, Knitting, Puzzle solving",41.7014,-86.2378
David,Hill,M,F,24,"Art history, Wine tasting, Filmography, Rappelling, Rock Climbing",44.0915,-70.1681
David,Martin,M,B,20,"Football, Improv, Computer programming",28.0871,-80.57
Tiffany,Rojas,F,F,25,"Art history, Tennis, Interior design, Guitar",38.1168,-86.9293
Kenneth,Brown,M,B,22,"Investment banking, Mobile app development, Drawing, Video games",34.5776,-92.5713
Zachary,Arnold,M,F,34,"Paragliding, Photography",36.666,-80.9176
Eric,Smith,M,B,27,"Ballet, Shuffleboard, Astrophysics",43.1031,-77.5193
Amy,Lopez,F,M,24,"Karate, Choreography, Yoga, Mixology",32.2062,-82.3215
Gregory,Martinez,M,M,18,"Singing, Fishing, Music, Mobile app development",39.7953,-93.5499
Charlotte,Cox,F,B,23,"Jazz, Physics",38.443,-105.2203
Ashley,Le,F,F,33,"Bowling, Food styling, Water polo, Cybersecurity",33.4566,-85.1304
Holly,Lopez,F,F,26,"Drawing, Road cycling, Horseback riding",39.7891,-77.3698
Michael,Williamson,M,B,28,"Baking, Video games, Letterboxing",35.0547,-88.8019
Jessica,Klein,F,F,24,"Gardening, Volleyball",45.1135,-121.3553
Bradley,Lee,M,B,36,"Sculpting, Surfing, Paragliding, Golf, Acting",29.1721,-95.4293
Sara,Woodward,F,M,26,"Ice skating, Marketing, Gaming, Triathlons, Marathons",41.5482,-87.926
Destiny,Garcia,F,B,33,"Sketching, Journalism, Field hockey",34.995,-78.1841
Jamie,Salinas,F,B,39,"Theater, Football",34.1288,-78.9721
Allison,Robinson,F,M,34,"Music, Boating",44.3493,-87.8313
Matthew,Coleman,M,M,35,"Floristry, Mobile app development",43.0227,-123.2812
Kenneth,Jackson,M,B,31,"Bouldering, Equestrian",40.1648,-80.5972
Natasha,Schmitt,F,B,32,"Baking, Hunting",47.0656,-120.6709
Gregory,Hernandez,M,M,23,"Triathlons, Self defense",40.1778,-74.5873
Thomas,Garcia,M,F,29,"Judo, Bar tending, Hunting, Kiteboarding, Skiing",43.1219,-72.4554
Jeffery,Smith,M,F,22,"Music, Triathlons, Surfing, Kickboxing, Mountain biking",39.9097,-87.8236
Amanda,George,F,B,24,"DJing, Astronomy",41.5906,-88.0293
Christine,Olson,F,M,19,"Horseback riding, Kiteboarding, Pottery, Paragliding, Equestrian",38.1385,-121.1987
Dale,Stein,M,F,39,"Baking, Golf, Triathlons, Badminton, Journalism",41.3866,-88.7969
Rose,Kennedy,F,F,35,"Poetry, Ethical hacking",39.1063,-84.3703
Valerie,Andrade,F,B,24,"Fashion design, Calligraphy",28.5277,-97.7831
Felicia,Wallace,F,B,28,"Darts, Ceramics, Tennis, Web design, Blacksmithing",30.0282,-84.3936
Lauren,Hart,F,F,35,"Road cycling, Wrestling, Stock trading, Reading, Board games",31.5599,-97.1882
Manuel,Rodriguez,M,F,29,"Golf, Poetry, Mobile app development, Geocaching, Meditation",39.6372,-86.6343
Christina,Williams,F,F,23,"Public relations, Baking",41.7894,-89.7541
Troy,Alvarez,M,M,36,"DJing, Pilates, Sewing, Financial analysis",32.0764,-92.085
Colleen,Phillips,F,F,27,"Hiking, Jujitsu, Sculpting, Wrestling, ",37.5925,-100.45
Gary,Holmes,M,M,35,"Badminton, Acting, Equestrian",41.6183,-84.5384
Phillip,Ponce,M,M,24,"Judo, Photography, Jazz, Calligraphy",36.055,-98.5884
Catherine,Reyes,F,M,39,"Muay Thai, Salsa, Blacksmithing, Stand-up comedy, ",40.8197,-75.9161
Gregory,Martinez,M,B,31,"Floristry, Financial analysis, Interior design, Sewing, Calligraphy",20.848,-156.319
Catherine,Conley,F,B,27,"Interior design, Diving, Carpentry, Rock Climbing",40.6353,-91.1645
Michelle,Perez,F,M,29,"Gardening, Woodworking, Glassblowing, Kayaking, Computer programming",41.5218,-89.914
James,Harmon,M,F,28,"Road cycling, Polo, Gardening, Video games",39.2105,-92.1342
Glenn,Bond,M,B,29,"Yachting, Reading, Ballet",37.7778,-119.0953
Ray,Nelson,M,F,33,"Gymnastics, Squash",33.4061,-110.8422
Joshua,Bentley,M,B,21,"Sailing, Poetry, Teaching",36.402,-94.5889
William,Brown,M,F,38,"Volleyball, Surfing",34.3728,-111.2813
Ryan,Knapp,M,F,39,"Mixology, Writing",27.3251,-98.6857
Scott,Walker,M,M,25,"Jogging, Volleyball, Baking, Lacrosse, Painting",40.724,-80.3133
Mary,Duke,F,F,38,"Fishing, Escape rooms, Yoga, Salsa",42.626,-70.6897
Savannah,Smith,F,F,21,"Boating, Drawing, Photography",44.0485,-94.1712
Henry,Barnett,M,F,30,"Teaching, Orienteering, Filmography",34.8086,-78.9751
Gloria,Graham,F,B,36,"Gymnastics, Skiing",44.8949,-85.4053
Charles,Barry,M,B,22,"Bouldering, Cycling, Rock climbing",40.7619,-80.3226
James,Rodriguez,M,M,35,"Football, Physics, Blacksmithing, Biking",33.8629,-81.1996
Jennifer,Farrell,F,F,39,"Physics, Dancing, Travel, Roller hockey, Swimming",41.2651,-89.126
Stephanie,Smith,F,F,39,"Darts, Mountain biking, Synchronized swimming",32.6008,-94.8525
Karina,Estes,F,F,34,"Calligraphy, Guitar, Sewing, Ice skating",38.5691,-75.5689
Vincent,Kelly,M,B,27,"Basketball, Blacksmithing, Data analysis, Cybersecurity",42.37,-71.1774
Grant,Herrera,M,B,22,"Pool, Bowling, Ceramics, Diving",36.4165,-94.7838
Emily,White,F,M,35,"Art, Movies, Weightlifting",41.125,-83.0167
Justin,Huffman,M,B,36,"Poetry, Interior design, Journalism, Painting",39.7524,-77.5822
Lisa,Chapman,F,B,22,"Paragliding, Knitting, Photography",48.2624,-122.3501
Gene,Johnson,M,M,21,"Carpentry, Sketching, Rock climbing, Synchronized swimming, Guitar",40.7012,-91.8006
David,Thompson,M,M,23,"Kayaking, Interior design, Golf",31.4342,-86.9723
Amanda,Thompson,F,F,25,"Mathematics, Skydiving, Snowboarding, Air hockey",45.2927,-94.2174
Sheri,Wheeler,F,M,21,"Jujitsu, Gymnastics, Skiing, American football",39.1814,-76.957
Jeffery,Davenport,M,F,37,"Salsa, Lacrosse, Volleyball, Shuffleboard",42.3377,-97.9718
John,Jackson,M,F,22,"Escape rooms, Choreography, Landscaping",45.496,-118.8333
Kenneth,Taylor,M,F,38,"Acting, Music production",47.0784,-109.4735
Ryan,Deleon,M,B,28,"Music, Karate, Sculpting",39.3192,-99.5844
Bryan,Watkins,M,M,19,"American football, Nature Photography, Interior design, Weightlifting",42.8624,-97.8964
Gregory,Thomas,M,B,31,"Movies, Guitar, Windsurfing, Art history",41.1636,-91.7151
Samantha,Williams,F,B,22,"Badminton, Skiing, Data analysis, Acting, Choreography",33.6901,-101.9893
Cindy,Davis,F,B,36,"Photography, Floristry, Mathematics, Music",32.1613,-81.9094
Kathryn,Morgan,F,F,24,"Physics, Filmography, Field hockey, Ballroom dancing",30.0451,-90.7488
Justin,Davis,M,B,32,"Cooking, Tennis, Photography, Jazz, Interests",33.337,-84.6504
Andrea,Coleman,F,F,21,"Journalism, Roller hockey, Soccer",39.7076,-90.8479
Amanda,Rogers,F,M,34,"Puzzle solving, Music, Escape rooms, Food styling, Reading",34.491,-84.9386
Danny,Jenkins,M,F,37,"Writing, Nature Photography, Calligraphy, Advertising, Sculpting",36.2949,-119.7983
Jeffrey,Fritz,M,B,31,"Martial arts, Karate, ",43.6773,-70.2715
Erica,Black,F,M,37,"Sculpting, Ethical hacking, Knitting, Triathlons, Data analysis",26.6443,-81.9957
Brandon,Watson,M,M,33,"Woodworking, Music production, Painting, Knitting, Video games",38.7239,-77.4476
Monique,Williams,F,M,24,"Rock Climbing, Boxing",41.7759,-111.8066
Luis,Lopez,M,F,35,"Stand-up comedy, Marketing",47.9209,-94.2132
Barbara,Ray,F,F,39,"Road cycling, Rappelling, Lacrosse, Landscaping, Yachting",36.279,-88.694
Calvin,Mays,M,M,37,"Boxing, Bowling",41.0967,-121.1816
Alexis,Savage,F,M,27,"Hiking, Muay Thai",32.6024,-80.1935
Alec,Noble,M,B,25,"Nature, Marketing, Guitar, Sculpting, Equestrian",18.4029,-66.2492
Elaine,Miller,F,F,39,"Acting, Rock climbing, Video games",43.7364,-87.7795
Sandra,Rodriguez,F,B,39,"Pilates, Field hockey, Football, Sketching, Golf",32.6749,-89.4529
Matthew,Newman,M,B,37,"Card games, Cycling",40.2073,-96.2329
Linda,Riddle,F,B,33,"Drawing, Boxing, Rock climbing, Ballet",41.2407,-83.6437
Andrew,Mills,M,F,28,"Pool, Writing",40.7257,-111.2788
Ronnie,Henderson,M,B,32,"Interests, Jazz, Gaming, Dancing",39.2327,-93.0041
Sherry,Copeland,F,M,37,"Martial arts, Cycling, Board games",46.398,-112.7334
John,Moreno,M,F,39,"Physics, Singing, Mixology",33.9469,-103.6531
Timothy,Dominguez,M,B,37,"Judo, Treasure hunting",40.6781,-75.2357
Anthony,Jimenez,M,M,26,"Horseback riding, Bouldering",36.4949,-86.8711
Katherine,Paul,F,B,19,"Kiteboarding, Bar tending, Food styling, Martial arts",35.0031,-80.1963
Donna,Hall,F,M,35,"Billiards, Salsa, Rappelling",41.9427,-103.8098
Nicole,Aguirre,F,F,24,"Sketching, Woodworking, Video editing",44.5202,-85.8729
Paul,Baker,M,B,19,"Wine tasting, Paragliding",40.7888,-124.1286
Kevin,Flores,M,B,28,"Muay Thai, Ceramics, Dancing",33.5147,-102.0067
Amy,Brown,F,F,39,"Nature, Ice skating, Football, Sculpting",39.9168,-81.5205
Kathryn,Franklin,F,B,30,"Windsurfing, Karate, Orienteering, Financial analysis",34.6861,-120.4404
Roy,Glenn,M,F,36,"Writing, American football",37.6902,-122.4021
Shelley,Davis,F,B,32,"Marathons, Mobile app development",39.3828,-84.3542
Debbie,Davis,F,B,39,"Mathematics, Surfing, Sketching, Filmography",34.9015,-84.9645
Joshua,Davis,M,M,24,"Bowling, Weightlifting, Theater, Football",24.771,-80.9132
Jessica,Burns,F,F,29,"Running, Photography",44.0642,-91.9435
Christopher,Williams,M,F,21,"Road cycling, Jogging, Fitness, Sewing",38.8324,-77.196
Mark,Decker,M,M,27,"Roller hockey, American football",38.8982,-121.5729
Christine,Mora,F,B,19,"Carpentry, Skydiving, Mathematics, Filmography, ",43.1825,-89.2362
Patricia,Gibbs,F,M,29,"Video editing, Cooking, Wrestling, Astrophysics",40.724,-80.3133
Carol,Adams,F,M,29,"Watercolor, Writing",44.2372,-96.0516
Danielle,Powell,F,F,32,"Financial analysis, Jujitsu, Mountain biking",33.7749,-112.525
Shannon,Jones,F,M,30,"Pottery, Bouldering, Photography",28.6098,-81.8246
Zachary,Jordan,M,F,36,"Art, Rappelling",37.3475,-119.6202
Robin,Campbell,F,M,19,"Movies, Marketing, American football",43.4806,-93.9196
Joshua,Hopkins,M,F,20,"Blacksmithing, Journalism, Weightlifting, Food criticism",48.8526,-122.5894
Michael,Carrillo,M,B,32,"Triathlons, Polo, Sewing, Billiards",42.1003,-88.9941
Nicholas,Reed,M,F,18,"Diving, Hunting, Nature, Financial analysis",39.6385,-106.3613
Dustin,Thompson,M,F,27,"Travel, Interests",58.7847,-156.8966
Joseph,Reynolds,M,B,29,"Jogging, Choreography",37.8702,-120.4443
Melanie,Baldwin,F,F,37,"Water polo, Triathlons, Advertising",38.9928,-90.7456
Savannah,Thompson,F,F,18,"Travel, Glassblowing, Literature",41.1065,-74.2749
Donna,Shepard,F,F,24,"Fishing, Boxing, Stock trading, Writing, Muay Thai",37.6936,-87.3256
Jeffrey,Holder,M,F,27,"Soccer, Escape rooms, Web design, Writing",42.9662,-90.2644
Colleen,Hensley,F,B,18,"Kiteboarding, Rock Climbing, Astrophysics",32.3046,-110.8838
Mitchell,Garrett,M,F,27,"Watercolor, Kiteboarding, Drawing",37.4384,-98.4227
Joseph,Lawson,M,F,37,"Advertising, Fishing, Equestrian, Interests",67.733,-164.5212
Judy,Davila,F,B,34,"Movies, Teaching, Pilates, Travel",41.2375,-81.0373
Timothy,Evans,M,M,33,"Watercolor, Road cycling",21.4143,-157.9966
Jose,Berg,M,B,24,"American football, Data analysis, Interior design, Baseball",36.2836,-92.9147
Andrew,Smith,M,B,25,"Jazz, Marathons, Tennis, Travel, Jogging",39.5112,-115.9658
Erin,Christensen,F,F,36,"Boating, Music, Ceramics, Stand-up comedy, ",34.0118,-95.5115
Melody,Dickerson,F,B,26,"Biking, Badminton",43.3475,-97.4306
Autumn,Richards,F,B,29,"Baking, Wrestling",36.5411,-104.5431
Melissa,Andrade,F,F,22,"Judo, Journalism, DJing",40.1119,-100.1066
Donna,Hudson,F,B,18,"Journalism, Bar tending, Table tennis, Literature",36.3687,-82.2919
Jo,Chavez,F,M,31,"Ballroom dancing, Wrestling, Kayaking",32.6231,-114.1453
Katie,Bean,F,F,31,"Marathons, Boating, Hang gliding, Sculpting",35.5428,-76.6232
Tracy,Wilson,F,B,20,"Mathematics, Geocaching, Letterboxing, Gymnastics, Guitar",30.246,-92.5135
Caroline,Fields,F,M,28,"Paragliding, Music, Sailing, Teaching",36.754,-89.6866
Jeremy,Potts,M,B,22,"Air hockey, Stock trading",42.2684,-73.9558
Destiny,Scott,F,M,20,"Music production, Basketball, Polo, Muay Thai, Geocaching",37.7304,-99.937
William,Trevino,M,B,28,"Kayaking, Water polo",33.7294,-84.9177
Tyler,Harvey,M,M,39,"Woodworking, Photography, Letterboxing, Squash",35.9751,-80.2204
Eric,Lara,M,M,19,"Air hockey, Marathons, Polo",34.4644,-82.6593
Cindy,Mitchell,F,F,37,"Letterboxing, Darts, Blacksmithing",36.4247,-99.4058
Marcus,Franco,M,M,21,"Marketing, Teaching",37.9807,-89.0152
Charles,Ramos,M,B,24,"Baking, Jujitsu, Woodworking, Board games, Boating",39.9323,-121.083
Christopher,Sanchez,M,B,33,"Escape rooms, Photography",43.6227,-110.6273
Richard,Walter,M,F,23,"Astronomy, Rappelling, Landscaping",41.0186,-76.8765
Jason,Martin,M,B,24,"Singing, Sketching, Lacrosse, Financial analysis",37.5483,-122.4923
Darlene,Carr,F,F,28,"Hunting, Guitar, Synchronized swimming, Video games, Travel",34.769,-84.972
Rachel,Ballard,F,M,32,"Baking, Blacksmithing, Billiards, Interior design",39.7267,-76.3271
Taylor,Rose,F,F,30,"Fashion design, Synchronized swimming",46.8839,-96.0989
Kimberly,Jenkins,F,B,38,"Boxing, Table tennis",33.7542,-118.0714
Jennifer,Nichols,F,B,36,"Billiards, Darts, Rappelling",30.9538,-95.9091
Rachel,Harris,F,B,26,"Running, Martial arts, Volleyball",41.7481,-70.667
Allen,Lopez,M,B,33,"Mountain biking, Wine tasting",41.2431,-96.3959
Michelle,Bauer,F,B,21,"Pool, Investment banking, Financial analysis, Stock trading",38.5347,-99.0533
Daniel,Clark,M,F,36,"Journalism, Filmography",39.6626,-98.3439
Katherine,Phillips,F,M,28,"Art history, DJing",41.357,-73.5267
Karen,White,F,F,24,"Watercolor, Blacksmithing",31.3907,-92.67
Tiffany,Wall,F,M,32,"Bar tending, Art history, Video editing",38.2968,-85.6108
Stephen,Steele,M,F,34,"Pool, DJing, Boxing, Escape rooms, Cybersecurity",40.7463,-90.9094
Ian,Rojas,M,M,34,"Floristry, Volleyball, Blacksmithing",33.2172,-111.8695
Michele,Marquez,F,M,32,"Paragliding, Running, Dancing",33.1152,-111.7419
Gary,Perez,M,F,33,"Art, Fashion design",41.6802,-99.0053
Rhonda,Combs,F,B,33,"Gaming, Ethical hacking",40.5511,-94.8169
Angela,Brown,F,B,23,"Karate, Travel, Teaching, Golf, Cybersecurity",32.3207,-102.552
Nicole,Crawford,F,M,30,"Baking, American football, Ballet, Astronomy",17.9935,-66.7067
Vanessa,Smith,F,F,34,"Public relations, Interior design, Billiards, Horseback riding, Skydiving",42.7056,-74.034
Zachary,Lewis,M,F,24,"Bowling, Theatre, Stock trading, Squash",35.8478,-81.4867
Thomas,Castro,M,F,34,"Pilates, Basketball",36.434,-88.2027
Kelly,Gardner,F,F,25,"Lacrosse, Card games",35.5635,-95.0252
Tracy,West,F,M,33,"Knitting, Interests",45.834,-94.4942
Marco,Roberts,M,B,38,"Kickboxing, Triathlons, Filmography, Web design",36.564,-97.6625
Carla,Garcia,F,M,19,"Jazz, Advertising, Marathons",40.5393,-112.3082
Catherine,Day,F,F,33,"Sailing, Video games, Computer programming, Watercolor",43.0638,-76.0698
Kristin,White,F,M,20,"Food criticism, Treasure hunting, Polo, Ice skating",38.7922,-89.9874
Amanda,Salinas,F,M,39,"Running, Blacksmithing, Music, Skiing",47.5293,-121.8412
Vincent,Johnson,M,B,19,"Squash, Equestrian, Theatre, Video editing, Weightlifting",47.133,-122.4923
Gabrielle,Silva,F,M,37,"Badminton, Writing, Marathons, Jazz",35.8406,-89.4081
Samuel,Reynolds,M,B,25,"Woodworking, Guitar, Water polo, Fitness",46.9063,-98.6937
Jessica,Ware,F,F,31,"Pinball, Stock trading, Pool",39.9545,-75.997
Joel,Silva,M,B,34,"Polo, Pottery, Filmmaking, Boxing, Public relations",36.6375,-95.1725
Phyllis,Garcia,F,M,24,"Football, Hiking",29.5723,-97.1465
Kevin,Molina,M,M,29,"Hang gliding, DJing, Public relations, Mathematics",36.1901,-94.1574
Jason,Benson,M,B,36,"Fitness, Nature Photography",42.9001,-90.4337
James,Hicks,M,B,32,"Travel, Martial arts, Kickboxing, Mountain biking, ",42.9859,-89.4255
Kimberly,Cherry,F,M,31,"Water polo, Pool, Fashion design, Road cycling",26.3182,-98.6929
Beth,Phillips,F,F,30,"Wrestling, Road cycling, Calligraphy, Card games",37.1812,-78.1307
Tammy,Williams,F,F,36,"Journalism, Acting",34.3198,-111.1394
Stephanie,Bond,F,B,25,"Card games, Singing",38.117,-85.3722
Richard,Clayton,M,B,19,"Sewing, Yachting, Art history, Meditation",34.2852,-85.9996
Connie,Todd,F,M,38,"Interests, Table tennis, Tennis, Painting, Jazz",40.6811,-74.3601
Justin,Torres,M,B,33,"Basketball, Calligraphy, Woodworking, Singing",40.7599,-73.5891
Nicole,Powell,F,M,28,"Jazz, Art history, Karate, Advertising",44.5087,-116.0425
Phillip,Lawrence,M,B,27,"Music production, Astrophysics, Knitting",40.8233,-74.4184
Christopher,Jensen,M,M,32,"Fitness, Interior design",39.9542,-105.0526
Frederick,Garcia,M,B,23,"Rugby, Cycling, Hunting, Air hockey, Letterboxing",42.047,-80.2764
Tony,Rosales,M,F,21,"Carpentry, Astronomy, Water polo, Watercolor",18.4375,-66.144
Melissa,Edwards,F,F,37,"Stock trading, Yachting, Basketball",35.5113,-95.9566
Justin,Lyons,M,B,33,"Watercolor, Shuffleboard, Sculpting, Boxing, Volleyball",32.398,-94.8602
Adam,Watson,M,F,24,"Public relations, Snowboarding, Running",40.3242,-76.0235
Sarah,Bender,F,F,39,"Karate, Theatre",41.4747,-96.2037
Michael,Peters,M,M,30,"Skiing, Woodworking, Gardening, Badminton",47.1472,-114.8319
Melissa,Rodriguez,F,B,33,"Skydiving, Nature, Badminton, Choreography",35.4028,-90.7536
Scott,Davidson,M,M,19,"Choreography, Hunting, Road cycling, Soccer, Orienteering",44.9041,-92.8174
Lori,Knox,F,B,35,"Boxing, Wrestling",38.7695,-88.5067
Traci,White,F,F,22,"Art history, Stock trading",42.8565,-105.8625
Kristen,Valencia,F,M,23,"Kickboxing, Road cycling, Hunting, Mathematics",35.4969,-108.8699
Andrew,Ellis,M,B,25,"Baseball, Computer programming, Journalism, American football, Skiing",43.0125,-85.9061
Carrie,Bray,F,B,21,"Marketing, Gymnastics, Basketball, Data analysis, Horseback riding",34.9776,-91.5067
Carlos,Johnson,M,F,25,"Equestrian, Food styling, Cooking",34.0513,-117.9681
Christina,Clark,F,M,21,"Interior design, Bowling, Watercolor, Filmmaking",25.9129,-80.2013
Jeffrey,Patterson,M,F,33,"Letterboxing, Knitting, Jazz",40.3391,-87.2849
Michael,Leonard,M,B,29,"Bowling, Kayaking, Singing, Kiteboarding",37.0469,-120.6395
Fernando,Hall,M,F,35,"Self defense, Ballroom dancing, Jazz",40.4057,-75.5059
Casey,Vasquez,F,F,26,"Darts, Equestrian",40.0809,-82.7848
Sarah,Reese,F,M,28,"Nature, Baseball, Windsurfing, Yoga",33.7547,-80.2221
Robert,Gross,M,B,29,"Skateboarding, Squash",40.7608,-94.7435
Robert,Farmer,M,B,37,"Mathematics, Ballet, Acting, Guitar, Running",41.451,-83.364
Michael,George,M,M,31,"Baking, Filmography, Road cycling",41.3868,-93.2731
Tina,Rodriguez,F,B,24,"Yachting, Knitting, Mixology",27.8197,-82.6847
Sean,Cook,M,B,22,"Meditation, Polo, Pottery",39.1942,-96.0643
Nancy,Hubbard,F,B,19,"Golf, Wine tasting, Woodworking, Escape rooms",38.776,-76.0701
Melissa,Dean,F,M,21,"Letterboxing, Golf, Soccer, Improv, Meditation",38.3324,-76.4307
Daniel,Turner,M,F,19,"Bowling, Yachting",32.0243,-102.1147
Jeremy,Huynh,M,B,23,"Board games, Floristry, Reading, Snowboarding",39.099,-75.5571
Robert,Kerr,M,F,22,"Calligraphy, Acting, Filmography, Paragliding, Kiteboarding",41.8783,-80.7461
Keith,Robinson,M,F,37,"Rock climbing, Football, Advertising, Hang gliding, Nature",35.1968,-91.7152
Ryan,Mckinney,M,B,38,"Badminton, Running, Bar tending",32.8209,-113.5418
Christian,Walton,M,F,37,"Rock climbing, Gaming, Wine tasting, Singing, Video games",44.6272,-123.0965
Thomas,Simpson,M,F,37,"Sketching, Weightlifting",34.956,-99.3692
Heidi,Watson,F,B,38,"Rock Climbing, Meditation",45.8776,-95.3767
Benjamin,Garcia,M,F,32,"Cybersecurity, Sailing",39.8987,-74.7059
Jody,Wallace,F,B,36,"Pilates, Jazz, Martial arts, Fashion design",40.9269,-74.0387
Gregory,Williams,M,M,38,"Ceramics, Food styling, Stand-up comedy, Astronomy",42.2758,-97.1908
Amy,Jensen,F,F,22,"Weightlifting, Geocaching, Skateboarding",43.1274,-77.3361
Rebecca,Dougherty,F,F,38,"Kiteboarding, Calligraphy, Pottery, Mathematics, Writing",28.073,-82.5628
Derek,Robinson,M,B,19,"Guitar, Hunting, Astronomy, Sculpting",39.577,-105.1144
James,Boyle,M,F,34,"Web design, Swimming, Sculpting",44.922,-91.3013
William,Rowe,M,B,31,"Video games, Ballet, Squash",48.8637,-118.2059
Maria,Martinez,F,B,38,"Journalism, Tennis",38.3481,-88.5895
Justin,Curry,M,F,23,"Rock climbing, Singing, Golf, Literature",38.2096,-121.1551
Shelly,Alvarez,F,M,20,"Food styling, Ice skating, Ballroom dancing, Interior design",40.653,-81.2928
Daniel,Knight,M,M,39,"Treasure hunting, Food criticism, Filmmaking",35.3118,-82.5039
Steven,Garcia,M,M,36,"Fashion design, Literature, Food styling, Rock climbing",41.5343,-88.3835
Martin,Taylor,M,F,33,"Cycling, Paragliding, Mixology, Lacrosse",43.0648,-93.2786
Jaime,Fletcher,M,F,31,"Stock trading, Paragliding, Food criticism, Reading",43.678,-95.1695
Sharon,Schneider,F,B,34,"Theatre, Self defense",39.5642,-80.6825
Taylor,Brown,F,B,23,"Triathlons, Paragliding",27.6756,-80.4252
Jeff,Newton,M,B,38,"Martial arts, Glassblowing",43.6114,-86.3648
Eric,Peterson,M,B,33,"Travel, Pool",41.3225,-74.8902
Ronald,Martin,M,F,19,"Hang gliding, Rock climbing",40.5477,-105.0656
Stephanie,Barron,F,B,37,"Geocaching, Theatre, Computer programming, Jujitsu",36.2938,-80.1408
Brenda,Lee,F,B,20,"Physics, Salsa, Karate, Pilates",39.3742,-77.1534
Kathleen,Moore,F,M,23,"Mountain biking, Kickboxing, Filmography",38.9409,-76.4997
Jon,Johnson,M,B,30,"Art history, Shuffleboard",36.1979,-94.9099
James,Fry,M,F,35,"American football, Card games",18.4213,-66.6084
Jessica,Green,F,M,22,"Fitness, Public relations, Shuffleboard",39.3623,-112.5471
Alicia,Moore,F,F,23,"Escape rooms, Rugby",27.3995,-99.4374
Michael,Garrett,M,F,28,"Billiards, Wine tasting, Rugby, Astronomy, ",48.055,-123.0869
Michael,Mcfarland,M,M,30,"Rock climbing, Cybersecurity",38.7224,-82.9647
Denise,Craig,F,B,32,"Letterboxing, Bowling",40.6624,-86.8679
Stephen,Ramos,M,B,30,"Marathons, Squash, Bar tending, Web design",44.7466,-93.0661
Heather,Fields,F,B,29,"Watercolor, Travel",36.1141,-77.1811
James,Woodward,M,F,34,"Escape rooms, Computer programming",44.5559,-94.2133
Maria,Acosta,F,B,20,"Poetry, Watercolor, Gaming, Nature Photography, Mountain biking",44.3685,-103.7706
James,Holloway,M,F,22,"Self defense, Floristry, Singing, Pilates",36.1783,-115.0487
Brandi,Johnson,F,M,36,"Singing, Ethical hacking",39.8705,-86.4654
Mark,Kemp,M,F,24,"Boxing, Data analysis",41.039,-80.5463
Kenneth,Nelson,M,F,38,"Choreography, Astrophysics, Basketball",44.0009,-97.3598
Heather,Cortez,F,B,38,"Floristry, Filmmaking, Journalism, Woodworking",27.5016,-82.6146
Natasha,Rodriguez,F,F,23,"Fitness, Darts, Cycling, Jazz",37.105,-93.819
Timothy,Perez,M,M,18,"Board games, Cooking",63.0095,-154.3763
Mike,Rodriguez,M,M,33,"Billiards, Choreography, Teaching, Rappelling, Gardening",32.3804,-106.4791
Mitchell,Morgan,M,B,32,"Literature, Drawing",46.9684,-124.152
April,Rodriguez,F,M,21,"Mountain biking, Woodworking, Mixology, Judo",39.9524,-90.2108
Sara,Hayes,F,B,36,"Choreography, Cycling, Art, Yachting",46.5115,-93.9264
Stephen,Cox,M,M,28,"Soccer, Darts",39.5738,-77.7482
Beverly,Parker,F,M,27,"Treasure hunting, Art history, Blacksmithing, Pilates, Public relations",31.873,-89.734
Ashley,Chase,F,F,24,"Painting, Hiking",37.3289,-80.7275
Matthew,Daniels,M,B,26,"Kiteboarding, Mountain biking, Self defense, Salsa, Marathons",32.8895,-86.215
Jennifer,Robinson,F,B,28,"Cooking, Equestrian, Food styling, Computer programming",37.9396,-89.2391
Alexander,Guerra,M,F,20,"Food criticism, Ballroom dancing, Gaming, Kickboxing, Jujitsu",34.1238,-83.2202
Michael,Trujillo,M,F,18,"Carpentry, Orienteering",43.828,-95.2058
Rhonda,Middleton,F,M,18,"Ballet, Hiking",32.9816,-90.5904
Eric,Williams,M,M,38,"Mobile app development, Yachting, Puzzle solving, Nature Photography",40.5709,-111.8506
Ryan,Griffin,M,M,36,"Soccer, Choreography, Food criticism, Ceramics",41.1891,-74.0543
Joel,Daniel,M,F,18,"Baking, Skydiving",37.6353,-97.7797
Jessica,Larsen,F,F,22,"Woodworking, Water polo, Video games, ",34.24,-96.552
Chad,Davis,M,B,22,"Hang gliding, Windsurfing, Horseback riding, Meditation",59.1271,-161.5753
Kyle,Walker,M,F,28,"Sculpting, Horseback riding, Meditation, Mathematics",41.6646,-84.4347
Anthony,Turner,M,B,25,"Ballroom dancing, Meditation, Cybersecurity",45.0377,-93.3599
Olivia,Beasley,F,M,37,"Guitar, Boxing, Interior design, Air hockey, Data analysis",31.8367,-81.6838
Donna,Schwartz,F,M,21,"Rugby, Board games, Acting",33.4047,-79.9264
Frank,Stewart,M,B,31,"Mathematics, Basketball, Yoga, Fishing, Painting",47.6494,-99.6267
Alexis,Thompson,F,B,20,"Shuffleboard, Music, Pool, Stand-up comedy, Roller hockey",45.4149,-92.0384
Theresa,Goodwin,F,B,21,"Pinball, Astrophysics, Yoga, Fitness",41.7959,-87.8411
Christopher,Thomas,M,F,29,"Dancing, Billiards",31.2649,-88.0284
Kyle,Olson,M,B,26,"Reading, Blacksmithing, Kayaking, Physics, Jazz",36.4413,-88.3324
Melissa,Smith,F,M,31,"Theatre, Physics, Tennis, Jogging",45.1678,-84.9131
Joshua,Wells,M,B,21,"Photography, Nature",42.2226,-78.0327
Joshua,Wood,M,B,38,"Geocaching, Investment banking, Mountain biking, Tennis",43.9308,-96.9436
Noah,Ortega,M,B,20,"Fashion design, Pinball",26.3144,-98.6632
Christopher,Perkins,M,B,38,"Mixology, Biking",33.9073,-78.0471
Aaron,Burgess,M,M,35,"Marketing, Polo, Yoga",35.7437,-86.9116
Kelsey,Wood,F,F,35,"Sailing, Computer programming, Gaming, Stand-up comedy",34.5277,-117.3536
John,Stephens,M,F,24,"Choreography, Board games, Triathlons, Bouldering",35.1749,-84.6516
Jennifer,Gomez,F,M,31,"Writing, Fishing",38.1217,-81.2528
Jennifer,Harris,F,F,30,"Painting, Stock trading, Improv, Meditation, Photography",40.7133,-74.7253
Travis,Li,M,F,35,"Kayaking, Movies",48.7158,-122.2077
Parker,Gates,M,F,19,"Roller hockey, Jazz, Golf, Jujitsu",40.7423,-111.5872
James,Meyers,M,F,24,"Data analysis, Mathematics",38.0535,-77.3473
Yesenia,Carrillo,F,M,39,"Floristry, Kickboxing",40.6696,-73.4156
Ashley,Haney,F,M,25,"Travel, Gaming, Cybersecurity, Puzzle solving",41.6604,-80.8543
Daniel,Schneider,M,F,38,"Ethical hacking, Weightlifting, Marketing, Floristry",44.953,-88.0476
Mary,Bailey,F,M,37,"DJing, Wrestling, Soccer",41.0291,-80.7698
Dennis,Johnson,M,B,19,"Guitar, Jogging, Running",33.7843,-112.2989
Kelly,Mckenzie,F,B,29,"Marathons, Nature",57.5585,-157.6798
Daniel,Miller,M,M,29,"Equestrian, Weightlifting, Blacksmithing, Gaming",42.7534,-84.7448
Zachary,Crosby,M,B,34,"Field hockey, Snowboarding, Art, Table tennis, Floristry",30.481,-90.1122
Kristen,Harper,F,F,31,"Interior design, Astronomy, Photography, Table tennis",42.9797,-94.7378
Mark,Baker,M,F,31,"Astronomy, Mathematics, Equestrian, Painting",42.0747,-79.4849
Lori,Mason,F,B,21,"Theatre, Rappelling, Kickboxing, Filmmaking",40.4004,-75.5875
Kelly,Turner,F,F,39,"Gardening, Billiards, Basketball, Hunting, Food criticism",41.2038,-81.3472
Tyrone,Booth,M,F,39,"Soccer, Interests",33.0588,-92.1533
Amanda,Archer,F,B,21,"Acting, Jazz",35.8106,-86.9003
David,Wilson,M,F,37,"Carpentry, Filmmaking",35.2653,-119.0324
Jeremiah,Guerrero,M,M,18,"Table tennis, Wrestling, Theater",40.4629,-111.7724
Arthur,Alvarez,M,B,20,"Advertising, Water polo, Movies, Marathons, Sculpting",36.134,-90.1614
Ellen,Williams,F,B,21,"Filmography, Running, Surfing",40.7833,-76.2329
Lindsay,Anderson,F,M,31,"Data analysis, Martial arts, Skydiving",59.0815,-160.2826
Heather,Buck,F,F,34,"Badminton, Rock Climbing",40.5626,-90.748
Martin,Brown,M,M,19,"Hiking, Volleyball, Mountain biking",41.4747,-96.2037
Kimberly,Sutton,F,F,23,"Journalism, Glassblowing",39.5443,-77.1012
Jonathan,Hancock,M,M,39,"Pilates, Advertising, Letterboxing, Jujitsu",44.5712,-91.6668
Jonathan,Alexander,M,M,32,"Rock climbing, Card games",40.7495,-81.0401
Ashley,Donovan,F,B,31,"Badminton, Fashion design",45.8884,-123.9603
Laurie,Douglas,F,B,37,"Astronomy, Boating, Physics",32.7318,-94.9461
Heidi,Paul,F,B,22,"Billiards, Diving, Kickboxing, Bowling",40.9581,-86.1288
Curtis,Combs,M,M,39,"Running, Card games, Football, American football, Improv",31.2048,-83.2478
Timothy,Burns,M,M,34,"Guitar, Nature Photography, Carpentry",38.2393,-85.5289
Rachel,Snyder,F,B,21,"Billiards, Filmmaking, Bar tending, Carpentry, Interests",42.3378,-85.3525
Caleb,Chapman,M,F,25,"Kayaking, Hunting",40.6219,-73.7506
Megan,Edwards,F,F,35,"Sewing, Journalism, Stand-up comedy, Rugby, American football",18.4054,-65.9792
Daniel,Oliver,M,B,25,"Mobile app development, Hang gliding",34.4141,-110.5696
Richard,Coleman,M,F,19,"Astronomy, Filmmaking, Field hockey, Horseback riding, Blacksmithing",37.6021,-121.0045
Eric,Moran,M,F,38,"Water polo, Guitar",41.0307,-76.2995
Kenneth,Gregory,M,M,32,"Boxing, Equestrian, Skiing, Table tennis",28.3041,-81.4169
Tammie,Camacho,F,M,27,"Diving, Card games",43.9862,-88.7705
Gregory,Walker,M,F,28,"Badminton, Boxing, Weightlifting",34.0774,-85.8742
Margaret,Gay,F,F,28,"Road cycling, Food styling",27.9088,-82.7712
Curtis,Cowan,M,F,36,"Salsa, Lacrosse, Sailing, Triathlons, Stand-up comedy",40.3627,-75.9565
Shane,Henry,M,B,36,"Hang gliding, Orienteering, Marathons, Puzzle solving",40.2883,-78.9179
Thomas,Clark,M,B,35,"Journalism, Puzzle solving, Surfing, Sailing, Sculpting",41.027,-73.952
Timothy,Nguyen,M,M,32,"Theater, Gaming, Financial analysis, Ballet, Jogging",34.8861,-117.1078
Jamie,Williams,F,B,24,"Sewing, Dancing",33.1507,-94.1524
Deborah,Lam,F,M,25,"Travel, Nature Photography",39.931,-120.9548
Matthew,Alvarez,M,B,22,"Journalism, American football, Hang gliding",40.7737,-78.5501
Andrew,Burke,M,B,33,"Pottery, Writing",40.408,-80.0861
Melissa,Poole,F,M,33,"Hunting, Reading, Improv, Astronomy, Fashion design",39.4777,-90.1038
Crystal,Miller,F,F,30,"Art, Ballet, Landscaping",44.0084,-97.5956
Gerald,Roberts,M,M,24,"Self defense, Skydiving, Hunting, Pottery, Kiteboarding",46.8013,-117.9025
Meghan,Peterson,F,F,24,"Drawing, Choreography, Literature, Art",33.9964,-86.5671
Connie,Perez,F,B,21,"Billiards, Choreography, Baking, Mathematics",26.6341,-82.059
Ryan,Gonzalez,M,M,25,"Treasure hunting, Advertising, Financial analysis, Theatre, Art",45.457,-94.4297
Michael,Cooper,M,M,24,"Fashion design, Knitting, Hiking, Treasure hunting, Shuffleboard",28.5535,-81.636
Julie,Cannon,F,M,37,"Rugby, Road cycling, Ice skating",42.2826,-87.851
William,Sanchez,M,M,20,"Judo, Drawing, Triathlons, Skiing, Financial analysis",26.9364,-98.1152
Laura,Burke,F,F,30,"Air hockey, Photography, Synchronized swimming, Ceramics",37.099,-89.5624
Bridget,Mcgee,F,B,33,"Self defense, Sketching",37.3733,-96.1934
Tina,Hernandez,F,M,23,"Theater, Boxing, Web design, Travel, Sailing",39.8078,-82.9838
Mark,Oliver,M,M,18,"Sketching, Self defense",43.0227,-123.2812
Jennifer,Rodriguez,F,B,35,"Stock trading, Soccer, Pottery, Tennis",39.5817,-90.2518
Christopher,Johnson,M,B,18,"Nature Photography, Ethical hacking",40.9702,-78.8765
Susan,Johnson,F,M,19,"Triathlons, Cybersecurity, Music production, Card games, Watercolor",35.1231,-91.6449
Mercedes,Cooper,F,B,19,"Mountain biking, Baseball",42.0991,-83.2716
Walter,Cardenas,M,B,39,"Acting, Football, Fishing, Surfing",37.2046,-100.7018
Lawrence,Powers,M,B,26,"Judo, Escape rooms, Journalism, Geocaching",40.7915,-74.924
Whitney,Hill,F,B,31,"Billiards, Public relations, Physics",32.8176,-97.2707
Kevin,Reyes,M,M,27,"Filmography, Bar tending, Orienteering, Pottery, Rappelling",41.0621,-75.7595
Mike,Murphy,M,M,39,"Mountain biking, Computer programming, Movies, Cybersecurity",27.3087,-82.4746
Troy,Davis,M,F,38,"Skydiving, Baking, Movies, Music, Puzzle solving",44.045,-75.7845
Jesse,Meadows,M,B,23,"Music, Darts",35.2527,-114.1415
Samuel,Pugh,M,F,23,"Martial arts, Boating, Golf, Acting, Puzzle solving",35.37,-105.4441
Christine,Berg,F,M,22,"Ballroom dancing, Video games",40.6677,-86.7238
Eric,Johnson,M,B,20,"Boxing, Salsa, Movies, Reading",46.8716,-99.6269
Stephen,Hernandez,M,B,27,"Kiteboarding, Astronomy, Ice skating, Horseback riding, Poetry",46.7601,-93.9665
Micheal,Castro,M,M,19,"Orienteering, Drawing, Soccer",38.2809,-85.6617
Lawrence,Williams,M,M,35,"Guitar, Web design",43.2396,-78.9129
Anthony,Curtis,M,F,25,"Windsurfing, Volleyball, Jazz, Mathematics",35.4329,-108.3358
Carl,Randall,M,M,18,"Shuffleboard, Boating, Badminton",43.6092,-72.9783
Andrea,Johnson,F,M,39,"Art, Reading, Pinball, Mountain biking, Ethical hacking",46.7718,-113.7169
John,Tapia,M,M,32,"Singing, Drawing, Mixology, Ballroom dancing, Sewing",42.0031,-89.107
Robert,Nixon,M,M,23,"Sailing, Kayaking, Woodworking, Gaming, Sketching",34.8546,-114.5895
Mark,Rivas,M,F,37,"Interior design, Soccer, Snowboarding",42.433,-74.2288
Nicole,Martin,F,F,36,"Sketching, Pottery, Kickboxing, Astrophysics",31.1951,-91.0176
Christine,Garcia,F,F,37,"Golf, Salsa",40.3626,-74.0046
Christine,Tate,F,F,19,"Music production, Paragliding",37.2598,-89.6466
Robert,Bennett,M,F,23,"Calligraphy, Carpentry, Martial arts, Watercolor, Sewing",60.0629,-149.4898
Phillip,Stewart,M,F,38,"Mixology, Diving, Blacksmithing, Boating",37.7269,-121.4523
Patricia,Simmons,F,F,32,"Board games, Pinball, Baseball, Road cycling, Diving",30.5721,-85.1263
Colton,Anderson,M,B,23,"Martial arts, Cybersecurity, Ceramics",38.5942,-92.3312
Pamela,Taylor,F,B,19,"Pilates, Baking, Bar tending, Travel, Floristry",33.7391,-102.3278
Patricia,Fisher,F,B,33,"Guitar, Golf, Shuffleboard, Music production",46.8003,-116.5572
Craig,Hogan,M,M,19,"Football, Computer programming",39.8498,-89.2521
Joseph,Saunders,M,M,34,"Synchronized swimming, Floristry",39.6681,-75.5697
Brandon,Nguyen,M,M,38,"Music, Rappelling",44.8697,-88.6002
Sarah,Sanchez,F,F,33,"Sewing, Reading, Mountain biking, Squash, Pilates",35.8294,-92.5563
Kyle,Meyer,M,B,32,"Mobile app development, Judo, Air hockey, Surfing",40.9826,-72.335
Theresa,Barrett,F,F,23,"Hiking, Travel",25.6061,-80.3639
Bethany,Fox,F,B,33,"Mathematics, Yoga, Running",30.555,-98.3276
Elizabeth,Scott,F,B,18,"Puzzle solving, Singing, Kickboxing, Calligraphy",44.7745,-93.4772
Marissa,Lee,F,M,30,"Badminton, Darts, Weightlifting, Writing",32.9169,-96.4374
Nicolas,Jones,M,M,26,"Skateboarding, Wrestling, Golf",40.946,-72.8811
Joanna,Jackson,F,M,37,"Teaching, Computer programming, Bouldering",36.1963,-78.72
Natalie,Martinez,F,F,34,"Soccer, Movies, Baseball, Video editing, Interior design",35.1798,-83.3809
Chad,Lopez,M,F,34,"Pool, Karate, Teaching, Drawing",39.1726,-81.8466
Cassandra,Nunez,F,B,19,"Karate, Theatre, Marathons, Public relations, Kiteboarding",36.402,-94.5889
Joseph,Molina,M,M,35,"Soccer, Landscaping, Watercolor, Painting",42.8385,-89.0699
Dawn,Booth,F,F,27,"Gaming, Yoga, Bowling, Theater, Jogging",35.6197,-90.9054
Barbara,Collier,F,F,22,"Food styling, Badminton, Running, Marathons, Triathlons",36.8819,-97.9241
Kathryn,Perry,F,F,27,"DJing, Art history, Baking, Boxing, Biking",37.6877,-106.586
Jacob,Anderson,M,B,28,"Singing, Basketball, Choreography",31.3918,-102.3503
Christina,Molina,F,F,24,"Astrophysics, Advertising",39.2848,-89.303
Gregory,Moran,M,F,24,"Air hockey, Meditation, Rock climbing",41.3238,-74.8012
Robin,Sims,F,M,25,"Weightlifting, Wine tasting, Air hockey",31.4058,-87.8442
Emily,Davis,F,M,32,"Hang gliding, Basketball, Watercolor, Rugby",46.6213,-123.9533
Randall,Gallegos,M,F,32,"Watercolor, Landscaping, Art",30.3222,-87.7271
Sarah,Holt,F,B,20,"Pool, Horseback riding, Skydiving, Billiards",37.1341,-92.266
Justin,Ramirez,M,F,36,"Squash, Running, Skiing",41.1742,-73.3461
Michael,Green,M,M,26,"Fishing, Video editing",40.677,-81.8697
Tanya,Short,F,B,37,"Photography, Table tennis, Darts",29.6821,-90.5559
Jennifer,Brown,F,B,25,"Nature, Equestrian, Volleyball",27.8192,-82.7384
Dustin,White,M,B,36,"Jujitsu, Equestrian, Theater, Water polo",38.9345,-95.0956
Michael,Johnson,M,B,25,"Ice skating, Cybersecurity, Acting, Calligraphy, Boxing",47.4877,-92.8786
Robert,Sampson,M,F,18,"Jazz, Gardening, Badminton, Pool, Astronomy",40.1101,-111.6405
Mariah,Hunt,F,F,33,"Woodworking, Yachting",34.273,-116.4146
Daniel,Castro,M,B,35,"Investment banking, Badminton, Improv, Woodworking, Photography",34.838,-88.9424
Matthew,Nelson,M,F,32,"Astrophysics, Ice skating, Gymnastics, Pool",37.5693,-118.6758
Joseph,Murray,M,F,19,"Calligraphy, Cybersecurity, Ballroom dancing, Table tennis",42.3348,-97.2946
Carl,Rodgers,M,F,33,"Pinball, Watercolor, Cybersecurity, ",48.476,-116.8441
Cheryl,Brown,F,M,33,"Letterboxing, Filmography, Theatre",43.9987,-95.8575
Brooke,Foster,F,F,32,"Baseball, Art, Puzzle solving, Cybersecurity",37.0761,-97.8747
Andrea,Velez,F,B,33,"Squash, Marketing",40.5893,-73.7295
Lisa,Jordan,F,M,21,"Guitar, Floristry",38.4769,-101.7905
Matthew,Boyd,M,B,30,"Acting, Treasure hunting",45.8061,-88.0995
Timothy,Duncan,M,B,34,"Bouldering, Treasure hunting",40.7047,-94.3608
Kenneth,Mcdonald,M,B,23,"Squash, Nature Photography, Air hockey, Skateboarding",36.4106,-109.8691
Jason,Perez,M,M,35,"Calligraphy, Ballroom dancing",35.5368,-94.5507
Amy,Williams,F,M,25,"Kiteboarding, Physics",40.2289,-123.8173
Janet,Hensley,F,B,28,"Fishing, Physics, Bowling, Sailing, Jogging",42.6294,-89.2572
Kristen,Mccarthy,F,M,27,"Fashion design, DJing, Ceramics",33.5703,-97.0129
Robert,Ortiz,M,M,18,"Meditation, Skateboarding, Data analysis",31.6783,-109.6876
Colin,Harris,M,B,30,"Cybersecurity, Teaching, Boating, Improv, Darts",31.1436,-85.0925
Lauren,Smith,F,B,32,"Nature, Movies",40.4145,-79.5728
Richard,Jones,M,B,29,"Badminton, Choreography, Air hockey",40.8158,-73.6379
Amanda,Watts,F,F,27,"Lacrosse, Field hockey",39.9921,-74.0715
Debra,Hernandez,F,F,24,"Field hockey, Drawing, Polo",43.8934,-75.6726
Angela,Wells,F,B,39,"Sewing, DJing",40.8298,-83.2721
Christopher,Aguilar,M,B,19,"Glassblowing, Muay Thai, Road cycling, Hang gliding, Sculpting",41.7801,-99.1342
Cameron,Ford,M,B,22,"Sketching, Mobile app development, Puzzle solving",43.163,-76.5382
Curtis,Collins,M,F,26,"Diving, Gymnastics, Self defense, Mobile app development, Weightlifting",36.6313,-79.9515
Kimberly,Serrano,F,F,18,"Fishing, Gardening, Glassblowing, Bowling",34.6935,-118.1753
Samuel,Holder,M,F,33,"Running, Wine tasting, Knitting, Yoga",39.344,-83.6001
Colleen,Smith,F,F,30,"DJing, Orienteering, Baking, Darts",35.3774,-77.8923
Robert,Clark,M,F,19,"Skateboarding, Air hockey, Letterboxing, Advertising",35.7154,-81.2174
Aaron,Turner,M,B,31,"Journalism, Travel, Choreography, Escape rooms, Pilates",27.6964,-82.3034
Cassandra,Palmer,F,F,26,"Teaching, Guitar, Dancing, Darts",36.6313,-79.9515
Joshua,Stanton,M,B,19,"Mixology, Field hockey",40.5666,-111.8636
Joshua,Shaw,M,M,34,"Filmography, Physics, Geocaching, Sewing",34.4145,-110.0649
Meghan,Fernandez,F,M,37,"Photography, Gardening, Kickboxing",44.4381,-103.6434
Stephanie,Potter,F,F,25,"Horseback riding, Interests, Treasure hunting, Poetry, Ceramics",32.0885,-84.6625
Diane,Espinoza,F,M,39,"Kayaking, Art",37.2035,-119.2485
Michael,Mcknight,M,F,23,"Sewing, Biking, Martial arts",40.6477,-97.1153
Stephanie,Perez,F,M,36,"Roller hockey, Surfing, Video editing",41.1722,-111.9576
Jessica,Palmer,F,B,24,"Filmmaking, Video editing, Writing, Cybersecurity, Fashion design",47.9618,-122.0944
Thomas,Jones,M,B,28,"Rock Climbing, Improv, Soccer, Journalism, ",37.3405,-95.2958
Melinda,Huber,F,B,27,"Financial analysis, Rock climbing, Advertising",35.2511,-75.5475
Colleen,Hicks,F,B,25,"Mixology, Drawing, Web design, Video games",39.7889,-81.5567
Aaron,Perez,M,B,38,"Nature Photography, Glassblowing, Biking",41.525,-76.3987
Emma,Orr,F,F,19,"Food criticism, Polo",44.954,-92.3709
Amanda,Mcclain,F,M,27,"American football, Mobile app development, Salsa, Painting, Bouldering",39.1243,-84.3517
Kelsey,Miller,F,F,22,"Theater, Bouldering, Improv, Art history, Volleyball",34.6818,-82.96
Gregory,Hanson,M,M,31,"Financial analysis, Mobile app development, Kiteboarding, ",41.7634,-98.0816
Terry,Ewing,M,B,20,"Golf, Windsurfing, Music production, Orienteering",31.472,-83.6509
Lisa,Carpenter,F,F,22,"Bouldering, Fitness, Surfing, Blacksmithing",37.8244,-92.1532
Andrea,Reyes,F,B,26,"Choreography, Pinball, Video games, Cybersecurity, Puzzle solving",35.4573,-84.6045
Lindsey,Price,F,F,33,"Bouldering, Cooking, Movies",43.0478,-75.2809
Dave,Gonzales,M,F,28,"Running, Mountain biking",47.1568,-100.5273
Alyssa,Brooks,F,B,32,"Salsa, Landscaping",33.9127,-116.7828
Bonnie,Zimmerman,F,B,34,"Field hockey, Hunting, American football, Cooking",45.1547,-85.13
Kimberly,Lang,F,M,36,"Table tennis, Sailing, Fitness, Synchronized swimming",32.525,-93.4118
William,Reynolds,M,B,30,"Journalism, Football, Triathlons, Card games, Letterboxing",39.7978,-91.5265
Cheryl,Castro,F,M,19,"Sculpting, Advertising",35.4503,-82.255
Derrick,Rodriguez,M,B,34,"Road cycling, Interests, Nature",35.8212,-90.6791
Robert,Brooks,M,M,37,"Filmography, Table tennis, Letterboxing",48.1286,-120.0055
Rachel,Austin,F,B,33,"Karate, Baking",47.9276,-122.0969
David,Thomas,M,F,32,"Geocaching, Stock trading, Orienteering",31.6956,-89.1449
Tricia,Murphy,F,M,27,"Movies, Sewing, Photography",37.8613,-80.8561
Carrie,Huang,F,B,20,"Literature, Ethical hacking",33.4728,-96.9186
Dana,Khan,F,M,22,"Interests, Mobile app development, Road cycling, Choreography, Field hockey",27.9227,-81.9978
Daniel,Miller,M,M,24,"Running, Yoga, Music, Dancing",40.1922,-74.9982
Angela,Martinez,F,M,36,"Pilates, Dancing, Pinball, Acting, Video editing",40.1126,-77.1854
Jonathan,Powell,M,M,19,"Fishing, Mountain biking, Gaming",40.5243,-92.5766
Sara,Le,F,B,35,"Hang gliding, Video games, Theater, Card games",48.7904,-105.4206
Kristen,Howard,F,M,25,"Skateboarding, Data analysis, Synchronized swimming, Running",35.8044,-77.8561
Lauren,Tucker,F,F,34,"Treasure hunting, Volleyball",33.4337,-96.1651
Jessica,Williams,F,B,30,"Music, Windsurfing, Ice skating, Physics",36.1037,-87.0565
Sherri,Greer,F,F,36,"Table tennis, Knitting, American football",39.2274,-75.6646
Christopher,Phillips,M,M,35,"Acting, Physics, Boxing",35.0753,-92.4692
Elizabeth,Jones,F,M,18,"Yachting, Escape rooms, Karate",32.6024,-80.1935
Jennifer,Cross,F,F,25,"Theatre, Diving, Travel, Basketball, Roller hockey",39.4338,-83.019
Charles,Lewis,M,M,37,"Card games, American football, Watercolor",46.0761,-97.3845
Melissa,Hicks,F,M,25,"Filmography, DJing",48.3843,-114.0652
Shane,Olson,M,M,28,"Water polo, Food criticism, Bouldering",29.4432,-96.4056
Charles,Gonzalez,M,M,32,"Windsurfing, Bar tending",46.4866,-116.2572
Joshua,Orozco,M,F,39,"Astrophysics, Filmography, Skydiving, Surfing, Rappelling",31.6999,-90.3961
Nicholas,Pham,M,F,33,"Swimming, Watercolor, Road cycling",38.2896,-97.6339
Benjamin,Woods,M,M,36,"Teaching, Football, DJing, Carpentry",40.8531,-79.9555
Samantha,Campbell,F,B,39,"Skateboarding, Art history, Squash, Fishing",42.9619,-85.6562
Lisa,Powell,F,B,35,"Ice skating, Treasure hunting, Art history, Tennis, Bowling",33.4499,-117.6102
Kelly,Lane,F,F,18,"Carpentry, Stock trading, Nature Photography",46.5003,-94.2977
Angela,Johnson,F,M,25,"American football, Ballroom dancing",38.8122,-94.9275
Justin,Houston,M,M,20,"Singing, Judo, Glassblowing, Physics, Volleyball",40.7971,-117.7603
Christian,Simpson,M,M,29,"Carpentry, Running",44.3706,-92.042
Shannon,Henry,M,M,18,"Bowling, Dancing",40.4992,-122.5458
Jonathon,Patel,M,F,25,"Wrestling, Literature, Nature Photography, Synchronized swimming, Rugby",44.1935,-88.2941
Annette,Pacheco,F,M,37,"Hiking, Fishing, American football",40.9617,-78.2905
Jeffrey,Jones,M,F,23,"Karate, Squash",34.8776,-96.4129
Brian,Bruce,M,B,35,"Astrophysics, Windsurfing, ",34.6099,-92.9197
Keith,Waller,M,F,29,"Hang gliding, Theatre, Darts, Yachting",36.5633,-102.795
Douglas,Santos,M,B,32,"Biking, Swimming, Volleyball, Rock climbing",29.1657,-81.0055
Edward,Hernandez,M,B,29,"Jogging, Horseback riding, Self defense, Weightlifting, Movies",39.5814,-105.8678
Julie,Holmes,F,B,39,"Golf, Board games",38.1663,-85.6485
Shelby,Adams,F,B,22,"Wrestling, American football, Pinball",41.6072,-81.469
Katie,Barker,F,M,27,"Biking, Marketing",40.1098,-95.2894
Roberta,May,F,M,35,"Marathons, Roller hockey, Rappelling",40.0758,-80.7919
Courtney,Smith,F,M,27,"Theatre, Fishing, Rock Climbing, Ice skating, Geocaching",28.3349,-81.3539
Kyle,Alexander,M,B,31,"Interests, Kayaking",35.391,-93.1143
Jeffrey,Jones,M,M,34,"Bar tending, Investment banking, Muay Thai, Kiteboarding, Food styling",39.1361,-75.7676
Jason,White,M,M,18,"Ceramics, Surfing, Drawing, Investment banking",33.7378,-115.3666
Blake,Hudson,M,B,20,"Photography, Travel, Astronomy, Fishing, Darts",36.0319,-80.3861
Craig,Shelton,M,F,27,"Music production, Interior design, Food criticism, Knitting, Golf",47.2641,-96.8107
Eric,Owen,M,M,34,"Synchronized swimming, Ceramics, Data analysis",48.9938,-118.5068
Travis,Hernandez,M,F,25,"Carpentry, Boating, Travel",30.348,-92.2771
Dennis,Leon,M,M,28,"Calligraphy, Orienteering, Equestrian",40.3263,-80.8955
Tom,James,M,M,25,"Gymnastics, Board games, Roller hockey",40.3359,-85.6436
Julia,Sanders,F,F,23,"Karate, Movies",35.6698,-99.6005
Terry,Foley,M,M,31,"Baking, Reading, Data analysis",38.7617,-78.7166
Stephen,Williamson,M,F,39,"Marketing, Calligraphy",37.0155,-103.8838
Robert,Williams,M,F,37,"Choreography, Ethical hacking, Rugby, DJing",39.6083,-78.9502
Jacob,Adkins,M,M,18,"Woodworking, Puzzle solving, Astrophysics",40.3854,-82.4737
Tracy,Robinson,F,M,28,"Mixology, Biking, Synchronized swimming, Shuffleboard, Skydiving",36.2458,-95.2517
Kyle,Gonzalez,M,B,30,"Table tennis, Filmmaking",33.1212,-91.5464
Marc,Ibarra,M,F,23,"Sketching, Windsurfing, Ceramics, Cybersecurity, Writing",30.4813,-92.6976
Jose,James,M,B,19,"Mathematics, Video editing, DJing, Squash",30.5259,-87.2733
Meghan,Gonzalez,F,B,20,"Computer programming, Calligraphy",46.2506,-119.1305
Whitney,Brown,F,F,36,"Physics, Interior design",46.8538,-122.8606
Shannon,Harrell,F,M,33,"Art, Lacrosse",48.3044,-112.4846
Jonathan,Flowers,M,F,23,"Paragliding, Filmography, Fishing, Rock climbing, Table tennis",40.4338,-78.4324
Kayla,Harrison,F,F,20,"Fashion design, Golf, Kickboxing, Drawing, Travel",18.2667,-65.9621
Melissa,Wood,F,F,38,"Food criticism, Investment banking, Sailing, Mathematics, Fashion design",35.4578,-94.4984
Luke,Cowan,M,M,20,"Landscaping, Computer programming",44.1333,-89.5209
Jillian,Suarez,F,M,25,"Table tennis, Movies",41.5364,-80.8596
Audrey,Harvey,F,M,28,"Literature, Synchronized swimming, Diving",32.1973,-83.1714
Joyce,Wilkins,F,M,26,"Movies, Pinball, Marketing, Billiards",31.6134,-94.6528
Caitlin,Cook,F,F,22,"Jujitsu, Financial analysis, Puzzle solving, Interior design",48.537,-121.751
Antonio,Roberson,M,B,39,"Boxing, Woodworking",38.9608,-87.4014
Melissa,Flowers,F,F,27,"Interests, American football, Blacksmithing",42.8003,-88.0118
Samantha,Scott,F,B,25,"Improv, Yachting, Astronomy, Pottery, Basketball",35.1263,-108.5063
Rachel,Larsen,F,B,27,"Martial arts, Ceramics, Jogging, Orienteering",31.4916,-94.9473
Jordan,Ryan,M,F,39,"Lacrosse, Calligraphy, Karate",35.7969,-96.5302
Christopher,Cohen,M,B,39,"Data analysis, Windsurfing, Wine tasting, Polo",34.838,-88.9424
Tonya,Malone,F,B,29,"Mobile app development, Nature, Cooking, Photography",40.0273,-80.0334
James,Barker,M,M,27,"Travel, Polo, Physics, Video games, Ice skating",38.043,-85.5551
Lisa,Kirk,F,F,28,"Jujitsu, Hiking",42.9464,-85.6088
Linda,Bond,F,B,24,"Food styling, Fitness, Fashion design, Escape rooms",42.2333,-88.3351
Nicole,Mclaughlin,F,M,37,"Hunting, Windsurfing, Teaching",25.8997,-80.2551
Christopher,Gonzalez,M,B,22,"Ballroom dancing, Singing, Bar tending, Skydiving",43.0524,-92.9477
Betty,Jackson,F,B,23,"Muay Thai, Biking, Surfing, Drawing, Geocaching",32.1181,-80.8656
Hunter,Cox,M,F,38,"Music, Wine tasting, Yachting",41.1969,-80.4958
Jamie,Sharp,F,F,36,"Music production, Ice skating, Food criticism",44.6621,-106.1418
Patrick,Harvey,M,B,29,"Theater, Landscaping, Music",30.5931,-84.047
Craig,Baker,M,M,20,"Windsurfing, Escape rooms, Gymnastics, Pilates",30.5661,-84.5858
Vincent,Ayala,M,B,33,"Synchronized swimming, Pilates, Sculpting",41.2379,-81.5518
Rebecca,Peters,F,F,32,"Astrophysics, Public relations, Geocaching, Floristry",46.8199,-122.2962
Cindy,Ellis,F,M,37,"Movies, Interior design, Acting, Rappelling, Sculpting",47.1016,-95.9225
Tara,Cunningham,F,M,20,"Escape rooms, Shuffleboard, Food criticism, Diving, Baking",40.6374,-78.2948
Cody,Simpson,M,B,20,"Karate, Teaching, Wrestling",40.4777,-82.6818
Anna,Gallegos,F,B,38,"Road cycling, Golf",30.7384,-91.592
Nicholas,Love,M,F,35,"Equestrian, Acting",31.5831,-88.6916
Michael,Mitchell,M,M,18,"Dancing, Road cycling, Stand-up comedy, Improv",37.5201,-122.0307
Angela,Lambert,F,F,18,"Swimming, Computer programming, Running, Card games, Escape rooms",38.9793,-92.992
Mitchell,Yang,M,M,30,"Video games, Sailing",21.0905,-156.9981
Zachary,Alvarez,M,M,24,"Card games, Calligraphy, Bouldering, Guitar, Food criticism",42.2361,-73.8822
Chelsea,Dawson,F,M,37,"Geocaching, Music production, Carpentry, Gymnastics",40.0035,-78.5912
Joe,Warner,M,F,23,"Darts, Dancing, Guitar, Painting",39.405,-76.5235
Alison,Sharp,F,M,38,"Wine tasting, Mathematics, Sewing",41.5997,-87.055
James,Rodriguez,M,B,24,"Golf, Road cycling",37.2517,-87.0902
Stephanie,Byrd,F,M,29,"Synchronized swimming, Shuffleboard, Drawing, Bar tending",43.3799,-84.6556
Joseph,Anderson,M,M,34,"Nature Photography, Self defense, Squash, Kickboxing, Food criticism",38.7682,-77.1587
Sarah,Little,F,M,39,"Improv, Public relations, Skateboarding",41.3238,-75.7419
Nicole,Bowers,F,B,36,"Filmography, Hunting, Landscaping, ",38.7601,-76.9642
Victoria,Anderson,F,B,19,"Ethical hacking, Hunting, Sewing, Tennis, Snowboarding",34.5271,-90.4533
Michelle,Johnson,F,B,33,"Hunting, Jazz",38.8151,-86.6444
Margaret,Farrell,F,B,18,"Basketball, Synchronized swimming, Gaming, Photography",42.1678,-85.8461
Christopher,Beck,M,F,19,"Ethical hacking, Cooking, Physics, Yoga, Interests",40.4117,-85.4262
Stephanie,Garza,F,M,35,"Salsa, Squash, Board games, Road cycling, Ethical hacking",37.0519,-95.618
Cindy,Dunn,F,M,36,"Marketing, Hang gliding, Interior design",35.991,-79.9937
Alan,Sellers,M,F,28,"Pinball, Geocaching, Billiards, Swimming, Jogging",33.7651,-78.913
Megan,Bernard,F,M,36,"Hang gliding, Table tennis, Letterboxing",37.9947,-108.0021
Ryan,Alvarez,M,B,24,"Fashion design, Writing",38.413,-121.2127
Michael,Sanchez,M,M,19,"Windsurfing, Investment banking, Paragliding, Dancing, Filmography",41.3912,-82.5636
Jason,Gonzalez,M,B,34,"Filmography, Jujitsu, Boxing",37.5411,-78.4613
Eric,Mckinney,M,F,34,"Physics, Volleyball, Jujitsu",41.3475,-91.1288
Luis,Porter,M,M,31,"Photography, Road cycling, Swimming",44.4449,-88.5768
Barry,Dixon,M,F,23,"Food styling, Fashion design",39.7986,-92.995
Michael,Robinson,M,B,23,"Public relations, Meditation",34.2677,-81.4192
Carol,Morris,F,M,29,"Yoga, Weightlifting, Teaching, Filmography, Sailing",29.8877,-82.3327
Sara,Roberts,F,F,32,"Music production, Boating",32.3011,-95.1674
Sarah,Edwards,F,M,27,"Painting, Food criticism, Board games, Drawing, Gymnastics",31.1254,-93.9802
Eric,Rodriguez,M,B,27,"Roller hockey, Dancing, Art, Carpentry, Table tennis",36.229,-107.5549
Rodney,Smith,M,M,20,"Food criticism, Interior design, Cybersecurity",40.0208,-75.3161
Haley,Medina,F,F,23,"Pool, Pilates, Badminton, Boating",35.0579,-78.1128
Casey,Bradley,F,F,19,"Writing, Judo, Kayaking",43.533,-100.7419
Lawrence,Lewis,M,B,38,"Soccer, Mountain biking, Jazz",27.3378,-98.6629
Stephanie,Beard,F,M,39,"Field hockey, Lacrosse, Basketball, Cybersecurity",34.2902,-83.8294
Molly,White,F,F,35,"Horseback riding, Computer programming, Literature, Letterboxing",27.4401,-99.0006
Lisa,Valenzuela,F,M,28,"Stock trading, Rock Climbing, Soccer, Table tennis",34.9495,-83.7531
Richard,Russo,M,B,30,"Skateboarding, Lacrosse",46.3744,-102.3189
Doris,Russo,F,M,39,"Watercolor, Billiards",41.616,-83.3743
Sarah,Molina,F,M,35,"Gymnastics, Gaming, Cybersecurity",39.5796,-77.0067
Tracy,Mcdaniel,F,B,22,"Poetry, Hang gliding, Ice skating, Card games",39.2923,-119.7767
Cheryl,James,F,F,20,"Meditation, Mixology",42.4068,-82.8993
Scott,Higgins,M,M,36,"Computer programming, Diving, Field hockey, Ethical hacking, Yachting",26.1599,-97.9877
Michael,Wilkins,M,B,23,"Kayaking, Water polo, Interests, Running, Knitting",34.2063,-84.1339
Carl,Miller,M,F,38,"Skiing, Mixology, Puzzle solving, Interior design",38.4395,-90.5741
John,Dickson,M,B,30,"Blacksmithing, Running, Public relations, Calligraphy",39.405,-76.5235
Lisa,Green,F,F,27,"American football, Road cycling, Shuffleboard",40.4656,-74.3237
Lori,Weeks,F,B,34,"Boating, Journalism, Pilates, Paragliding, Cybersecurity",43.7599,-91.3498
Melissa,Everett,F,B,32,"Carpentry, Billiards, Air hockey",38.3755,-75.754
Brian,Anderson,M,F,30,"Advertising, Sketching",42.1655,-88.0864
Jacob,Booker,M,F,23,"Writing, Travel, DJing, Computer programming",40.3083,-81.188
Jacob,Bray,M,B,28,"Golf, Stock trading, Diving, Boxing",37.0436,-122.137
Christopher,Roberts,M,F,19,"Bouldering, Water polo, Poetry",44.41,-95.4134
Rachel,Graham,F,M,38,"Stand-up comedy, Swimming, Fashion design, Card games, Filmography",37.014,-95.9315
Judy,Sanchez,F,F,37,"Gardening, Cybersecurity, Jazz, Web design",35.37,-105.4441
Cody,Martin,M,B,38,"Judo, Fitness",41.3958,-75.7147
Bobby,Brown,M,M,35,"Kiteboarding, Drawing, Marketing",34.0644,-111.3505
Ashley,Gordon,F,B,25,"Board games, Volleyball",46.4385,-97.6841
James,Wagner,M,B,39,"Wine tasting, Escape rooms, Rappelling, Computer programming",42.8836,-106.3492
Lance,Wallace,M,F,27,"Water polo, Baking, Writing, Painting",37.0048,-85.9263
William,Johnson,M,B,20,"Jujitsu, Surfing",33.5275,-116.1261
Cody,Hodges,M,B,33,"Soccer, Jogging",33.274,-81.2466
Kathleen,Miller,F,B,25,"Polo, Skydiving, Lacrosse, Nature, Baking",35.4888,-95.8447
Jennifer,Evans,F,B,22,"Biking, Escape rooms, Cooking",45.6853,-93.8601
Jordan,Moore,M,M,34,"Stock trading, Basketball, Kayaking, Music production, Knitting",36.0044,-91.6583
Richard,Smith,M,F,34,"Table tennis, Carpentry, Surfing, Yoga, Road cycling",40.4757,-93.0044
Sara,Miles,F,M,23,"Jazz, Fitness, Skateboarding, Singing",35.583,-94.3615
Donna,Woods,F,M,29,"Bouldering, Rugby, Squash",42.1905,-122.6992
Joseph,Brennan,M,M,25,"Rock climbing, Martial arts, Lacrosse, Hunting",34.7964,-91.5714
David,Williams,M,M,21,"Table tennis, Art history",42.595,-79.0809
Eric,Morrow,M,M,35,"Cooking, Ice skating, Improv",39.1095,-121.3543
Walter,Soto,M,B,20,"Video games, Paragliding, Synchronized swimming",17.9964,-66.0515
Alicia,Colon,F,M,31,"Ballet, Basketball, Skateboarding, Data analysis",39.1884,-84.401
Pamela,Cochran,F,M,33,"Pinball, DJing",39.488,-79.0429
Natasha,Little,F,F,20,"Darts, Judo, Skateboarding, Marketing, Sewing",42.9143,-74.5756
Carol,Johnson,F,M,27,"Floristry, Volleyball, Movies",43.8366,-121.4646
Andrea,Peters,F,F,18,"Geocaching, Pool, Physics, Synchronized swimming",21.3859,-158.0101
John,Williams,M,F,21,"Cybersecurity, Bowling",37.7825,-79.4441
Travis,Bryant,M,B,29,"Table tennis, Marathons, Skateboarding, Rappelling, Volleyball",43.0068,-73.8525
William,Cortez,M,B,35,"Synchronized swimming, Stand-up comedy, Rappelling, Salsa",41.7421,-90.7825
Olivia,Bond,F,M,24,"Singing, Badminton, Movies, Literature, Air hockey",39.7181,-104.3195
Natalie,Tucker,F,F,35,"Letterboxing, Road cycling, Rock climbing",46.3677,-116.7975
Dennis,Reynolds,M,F,35,"Boxing, Teaching",39.8924,-75.3287
Shannon,Anderson,F,F,19,"Judo, Singing, Pinball, Journalism, Snowboarding",29.5245,-101.1531
Jennifer,Gonzalez,F,B,38,"Art history, Ethical hacking, Mathematics",45.3152,-95.6058
Elizabeth,Evans,F,M,28,"Writing, Boating",34.4752,-79.0371
John,Welch,M,F,22,"Darts, Singing",39.3414,-94.1635
Brandon,Mann,M,F,21,"Food criticism, Road cycling",33.1923,-87.4543
Ashley,Williams,F,B,20,"Sculpting, Glassblowing, Yoga, Art history",18.01,-67.0855
Noah,Lee,M,M,23,"Orienteering, Nature Photography, Bar tending",39.9422,-79.1916
Stephanie,Hernandez,F,B,36,"Bar tending, Knitting, Mobile app development, Gymnastics",47.3326,-118.6894
James,Garcia,M,F,34,"Stock trading, Filmography, Web design",35.2327,-97.1
John,Sullivan,M,B,18,"Sewing, Field hockey, Mathematics",43.2795,-90.2924
Tammy,Smith,F,M,25,"Cybersecurity, Baking",47.5993,-115.3425
Jacqueline,Smith,F,M,33,"Mixology, Reading, Dancing, Boating",44.0378,-92.6409
Jack,Marsh,M,B,22,"Yoga, Baseball",41.7877,-87.8146
Monica,Long,F,B,34,"Pinball, DJing, Equestrian",41.4489,-95.1109
James,Smith,M,F,38,"Rock climbing, Mountain biking, Karate",42.1108,-96.7113
Terry,Perez,M,F,23,"Roller hockey, Letterboxing, Astrophysics",39.7278,-105.1572
Michael,Schroeder,M,M,29,"Public relations, Air hockey, Running",31.7241,-86.302
Gloria,Williams,F,F,19,"Data analysis, Interior design, Skydiving, Squash",43.1274,-77.3361
Nicole,Rojas,F,F,37,"Pool, Weightlifting",42.6725,-85.6408
Michael,Herring,M,F,31,"Sculpting, Video editing, Football, ",46.3299,-87.3673
Donald,Terry,M,B,38,"Calligraphy, Cybersecurity, Investment banking",37.7726,-86.9064
Michael,Smith,M,M,25,"Skiing, Stand-up comedy",37.5925,-100.45
Alisha,Pope,F,B,39,"Improv, Karate, Synchronized swimming, Calligraphy",44.9508,-90.5989
Gregory,Heath,M,B,26,"Meditation, Ice skating, Carpentry, Rappelling, Reading",40.5376,-78.3542
Hannah,Kelly,F,M,39,"Photography, Ice skating, Kayaking, Travel, Hunting",40.3523,-94.6723
Jennifer,Green,F,B,24,"Theater, Acting, Rock climbing",38.0003,-120.4503
Julia,Hogan,F,F,30,"Mountain biking, Reading",30.1656,-84.2078
Alexandra,Spears,F,B,34,"Ballroom dancing, Drawing, Synchronized swimming",27.9281,-97.1713
Deborah,Brown,F,B,33,"Rappelling, Snowboarding, Rugby, Singing",39.0089,-87.7333
Mitchell,Zhang,M,M,32,"Volleyball, American football, Wine tasting, Windsurfing",40.3722,-76.3055
Jerry,Donovan,M,M,30,"Gaming, Travel, Ballroom dancing, Theater",31.3624,-110.9336
Connie,Schmidt,F,M,37,"Salsa, Journalism, Soccer, Mathematics, Orienteering",40.9093,-73.0486
Ashlee,Kim,F,F,38,"Painting, Music production, Travel, Basketball, Mobile app development",40.1291,-76.1551
Oscar,Barron,M,B,27,"Filmography, Jogging, Weightlifting",35.2457,-78.5634
Brian,Allen,M,M,27,"Art, Food criticism, Soccer, Video editing",40.0342,-88.5728
Samantha,King,F,M,26,"Cooking, Biking",40.3261,-79.8861
Donald,Hall,M,B,35,"Video editing, Ethical hacking",39.7116,-96.8733
Alan,Owens,M,M,32,"Knitting, Baking, Paragliding, Polo, Astronomy",35.2438,-82.7265
Lisa,Gonzales,F,B,26,"Filmography, Skydiving",41.0822,-98.359
Melissa,Heath,F,B,25,"Orienteering, Video games, Music production",43.0851,-90.8995
Jake,Spence,M,B,36,"Football, Sketching",43.6728,-88.7949
Brenda,Maddox,F,F,18,"Choreography, Water polo",38.2689,-85.6708
Amber,Wood,F,F,18,"Gymnastics, Mobile app development",34.6897,-99.9153
James,Wallace,M,M,25,"Theatre, Yoga",40.8247,-74.0613
Laura,Logan,F,F,33,"Polo, Sailing",48.9211,-97.9176
Peter,Wolf,M,F,39,"Air hockey, Teaching",35.6287,-105.9423
William,Lane,M,M,26,"Public relations, Food styling",41.6452,-95.1515
Alex,Whitaker,M,F,20,"Improv, Water polo, Computer programming, Fishing",41.0498,-94.8246
Vincent,Berry,M,F,36,"Knitting, Fishing, Baking",40.5496,-93.3002
Brandon,Jones,M,F,31,"Sculpting, Yoga",40.2956,-83.9686
Christopher,Davis,M,F,35,"Interests, Music, Ballroom dancing",36.4625,-83.5669
Jessica,Sanchez,F,M,34,"Cybersecurity, Improv, Dancing, Nature Photography, Gymnastics",40.8997,-77.3472
Julie,Thompson,F,M,21,"Lacrosse, American football, Filmmaking, Astronomy, Interior design",37.9753,-100.8527
April,Wright,F,B,26,"Travel, Field hockey, Food styling",34.1646,-83.6827
Jane,Cameron,F,M,26,"Gymnastics, Gaming, Equestrian",43.563,-73.6529
Alexa,Brown,F,M,30,"Table tennis, Nature Photography",43.0372,-72.6657
Antonio,Davila,M,B,31,"Music, Bowling, Dancing",35.2451,-118.9589
Samuel,Parker,M,F,37,"Rugby, Theater, Cybersecurity, Letterboxing",32.0286,-81.1821
Joseph,Martinez,M,M,22,"Writing, Painting",40.1098,-95.2894
Shelly,Hodges,F,M,26,"Self defense, Wine tasting, Martial arts",48.444,-119.4459
Brian,Mills,M,F,19,"Running, Wrestling, Teaching, Geocaching, Mobile app development",35.9984,-79.9348
Christopher,Baker,M,M,36,"Landscaping, Cybersecurity",32.1768,-93.3055
Tracy,Smith,F,F,32,"Choreography, Stand-up comedy",43.554,-92.0075
Kimberly,Holland,F,B,38,"Filmmaking, Wrestling, Cybersecurity, DJing, Teaching",48.5341,-109.7718
Charles,Gonzalez,M,B,19,"Acting, Investment banking, Ballroom dancing",35.5418,-95.1129
Kathryn,Scott,F,F,29,"Ballet, Sailing, Ice skating",40.2242,-75.6418
Christopher,Alvarez,M,B,38,"Landscaping, Music, Food criticism, Photography",38.6856,-90.325
Jennifer,Brewer,F,B,25,"Salsa, Road cycling, Hunting, Financial analysis",30.8686,-88.8055
Kelli,Moore,F,M,32,"Mathematics, Equestrian, Gymnastics, Biking",39.7124,-81.2766
Judy,York,F,B,31,"Hiking, Kickboxing, Table tennis, Blacksmithing, Shuffleboard",40.6515,-73.585
Kathy,Spencer,F,F,31,"Nature, Mixology, Wrestling",33.8944,-87.5224
Carla,Mora,F,M,18,"Martial arts, Floristry",31.9805,-91.6551
Alexander,Casey,M,M,21,"Rock climbing, Fishing, Gardening, Table tennis",32.7454,-93.9758
Laura,Price,F,B,39,"Sewing, Calligraphy",36.666,-80.9176
Sonya,Beasley,F,M,29,"Web design, Roller hockey, Stock trading",37.6927,-81.6324
Steven,Reynolds,M,M,25,"Karate, Sailing, Puzzle solving, Investment banking, Watercolor",41.7174,-86.5476
Laura,Ford,F,F,20,"Carpentry, Cycling, Guitar",35.8044,-77.8561
Alexis,Molina,F,B,34,"Ballet, Teaching",35.1329,-90.8129
Jill,Miller,F,M,21,"Kayaking, Drawing, Improv, Cooking, Astronomy",38.0599,-85.68
Sarah,Kane,F,F,36,"Skydiving, Teaching, Nature Photography, Self defense",42.1039,-87.9267
Patrick,Carlson,M,B,37,"Table tennis, Kickboxing",45.7707,-99.6207
Robert,Green,M,B,30,"Windsurfing, Investment banking, Video editing, Salsa, Literature",38.5495,-82.7788
Dennis,Gonzalez,M,M,39,"Blacksmithing, Interests, Roller hockey, Synchronized swimming, Theater",46.3983,-108.5525
Karen,Hendricks,F,M,30,"Boating, Fashion design",41.8833,-88.3242
Alexis,Lee,F,B,19,"Literature, Road cycling",44.7655,-90.5989
Tammy,Bryan,F,B,22,"Darts, Kayaking",40.3936,-75.4965
Heather,Fernandez,F,F,36,"Stand-up comedy, Puzzle solving, Floristry, Skydiving, Paragliding",37.6493,-75.7998
Karen,Miller,F,M,39,"Movies, Orienteering, Drawing",33.514,-117.5618
Charles,Black,M,F,18,"Badminton, Golf, Mountain biking, Jazz, Gardening",46.0768,-122.9405
Joseph,Walsh,M,M,33,"Board games, Food styling",40.9093,-72.6695
David,Sullivan,M,B,30,"Yoga, Kayaking, Tennis",35.7766,-88.3561
Adam,Rojas,M,F,24,"Singing, Theatre, Geocaching, Windsurfing, Golf",44.5531,-91.3876
George,Reeves,M,M,28,"Poetry, Field hockey, Badminton, Water polo",37.6328,-122.0766
Jonathan,Allen,M,B,27,"Landscaping, Pilates, Cybersecurity, Cooking",31.4424,-100.4504
Paul,Mayo,M,B,38,"Polo, Theater, Orienteering, Sailing, Lacrosse",62.6541,-160.214
Laurie,Gray,F,B,35,"Cybersecurity, Orienteering, Calligraphy",43.1487,-93.1997
Jeremy,Padilla,M,M,38,"Darts, Theater, Watercolor, Boxing, Cooking",41.6054,-87.7527
William,Perez,M,M,21,"Running, Sculpting",42.5629,-88.213
Kevin,Sanford,M,B,21,"Carpentry, Woodworking, Squash, Mixology, Snowboarding",37.1267,-80.5048
Alexander,Garcia,M,M,37,"Gymnastics, Mobile app development, Swimming, Singing, Pilates",34.559,-88.2303
James,Carter,M,F,34,"Equestrian, Computer programming",29.4952,-95.9154
Sydney,Nash,F,M,38,"Mountain biking, Judo, Baseball, Sewing",29.807,-82.5955
Heather,Powers,F,F,29,"Ballet, Video games, Paragliding, Ballroom dancing, Acting",38.0176,-89.0438
Teresa,Castaneda,F,M,31,"Drawing, Filmmaking, Snowboarding",40.751,-74.1623
Melissa,Stephens,F,B,35,"Card games, Jujitsu",41.1023,-90.7991
Joseph,Roberts,M,M,24,"Singing, Wine tasting",41.3064,-95.0842
Michael,Johnson,M,F,27,"Glassblowing, Kiteboarding, Volleyball, Squash, Data analysis",36.7555,-108.1823
Susan,Barrera,F,F,27,"Football, Darts, Mathematics, Travel",40.2659,-76.4077
Deanna,Green,F,B,18,"Rappelling, Jogging",33.0504,-96.2279
Steven,White,M,B,19,"Diving, Astrophysics",32.9416,-93.2955
Andrea,Mcdaniel,F,M,19,"Bowling, Acting",35.0459,-92.7948
Zachary,Brown,M,M,23,"Movies, Pool, Basketball, Running, Darts",40.1188,-111.5742
Charles,Costa,M,M,25,"Boxing, Food criticism",45.3466,-97.7485
Joseph,Sanders,M,F,34,"Soccer, Movies, Baking, Pinball",38.6969,-84.9074
Michelle,Walker,F,B,27,"Hunting, Sewing, Swimming, Writing",45.6168,-97.4196
Bradley,Hudson,M,M,33,"Investment banking, Road cycling, Hiking, Polo",28.0694,-80.6736
Paul,Rodriguez,M,M,35,"Public relations, Journalism, Food criticism, Swimming, Skateboarding",39.4632,-76.212
