name,surname,sex,searching_sex,age,interests,latitude,longitude
Troy,Hill,M,B,39,Astronomy,47.3385,-116.694
Kenneth,Forbes,M,M,30,"Air hockey, Acting, Snowboarding, Kickboxing",34.7026,-85.669
Kristen,Lynch,F,B,18,Basketball,47.3914,-122.3156
Julia,Bryan,F,F,38,"Billiards, Watercolor, Letterboxing, Biking",18.3602,-66.8353
Michael,King,M,B,27,"Synchronized swimming, Rock Climbing",35.2335,-118.6098
Alexandria,Hale,F,F,35,"Computer programming, Tennis, Bouldering, Gymnastics",45.1547,-85.13
Melinda,Hale,F,F,37,"Yoga, Weightlifting",33.2705,-90.88
Brenda,Murphy,F,M,20,"Rappelling, Movies",40.4299,-91.7742
Andrea,Merritt,F,F,26,"Dancing, Glassblowing",39.1699,-84.2811
Gabriel,Hawkins,M,B,18,"Interior design, Mountain biking",36.8671,-91.9134
Christopher,Campbell,M,F,29,"Ballroom dancing, Mathematics",34.1831,-83.721
Larry,Romero,M,F,29,"Travel, Billiards, Marathons, Mixology",38.3183,-122.8502
Brandon,Harrington,M,F,24,"Music production, Cooking, Carpentry",44.4761,-95.331
Katie,Brown,F,F,32,Blacksmithing,34.949,-111.7505
Tammie,Davis,F,M,18,"Financial analysis, Squash",41.4033,-85.6142
Michael,Gonzalez,M,B,35,"Stock trading, Golf",29.8671,-95.0537
Michael,Lopez,M,B,33,"Rugby, Pinball, Muay Thai",40.135,-75.9593
James,Rodgers,M,B,21,Football,40.8288,-87.5843
Cesar,Holloway,M,F,31,"Tennis, Skiing, Woodworking, Baking",37.7881,-114.4005
Darryl,Elliott,M,M,23,"Fashion design, Windsurfing, Nature, Dancing",38.7141,-90.2895
Bryan,Day,M,F,38,"Soccer, Wine tasting, Dancing, Hang gliding",39.3652,-76.069
Jamie,Hicks,M,F,33,"Judo, Literature, American football, Food styling",44.0084,-91.5601
Eric,Stevens,M,F,22,"Mountain biking, Orienteering, Art history, Sailing",34.8892,-86.4226
Emily,Meadows,F,M,29,"Wrestling, Puzzle solving",33.33,-96.6676
Randall,Garcia,M,M,28,"Muay Thai, Landscaping, Self defense, Food criticism",39.7412,-84.8517
Collin,Riley,M,B,34,"Kiteboarding, Wine tasting",30.0646,-90.7124
William,Luna,M,M,35,Stand-up comedy,35.6104,-106.3501
Steven,Lewis,M,F,26,"Computer programming, Squash, Letterboxing",45.534,-94.1718
Kristin,Gray,F,F,18,"Sculpting, Football, Singing, Cooking",18.3575,-67.1553
Brittney,Gilbert,F,F,39,"Wine tasting, Bouldering, Mixology",37.415,-113.6262
Daniel,Berger,M,M,20,"Landscaping, Bar tending, Guitar",45.3366,-97.5219
Victor,Young,M,B,21,Paragliding,59.3997,-135.6314
Mary,Cardenas,F,M,19,"Squash, Table tennis",30.6298,-84.4135
Erica,Padilla,F,F,35,"Baseball, Gardening, Escape rooms",40.3322,-75.6375
Alan,Park,M,B,24,"Marketing, Sewing, Mobile app development",35.5113,-95.9566
Daisy,Anderson,F,M,39,"Interior design, Fashion design, Poetry, Glassblowing",36.4854,-93.9365
Rebecca,Walter,F,B,20,"Web design, Escape rooms, Theatre",44.3534,-104.8104
Amy,Colon,F,F,35,"Billiards, Meditation, Soccer",34.73,-76.6493
Jasmine,Chavez,F,F,24,"Pinball, Watercolor, Woodworking",30.3576,-95.1004
Rebecca,Solis,F,F,28,Food styling,38.799,-107.7133
Joseph,Brown,M,M,28,Bowling,41.4216,-83.221
Christina,Rogers,F,F,38,"Nature, Fashion design",41.1004,-90.9353
Kimberly,Richards,F,B,28,"Cybersecurity, Ceramics, Interior design, Bouldering",48.1157,-121.9832
Michael,Perry,M,B,24,"Badminton, Floristry, Shuffleboard",30.367,-87.0955
Laura,Snyder,F,M,29,"Wine tasting, Fishing, Self defense, Mobile app development",38.8255,-98.475
Traci,Cannon,F,M,18,"Pilates, DJing, Theatre",35.7113,-95.9888
Brittney,Patrick,F,B,39,"Rock Climbing, Writing, Fitness, Public relations",32.6366,-100.7523
Jennifer,Brown,F,M,35,"Blacksmithing, Roller hockey, Acting",32.5299,-97.6154
Carl,Compton,M,F,37,Martial arts,41.9725,-71.1854
Bradley,Young,M,F,36,"Letterboxing, Kickboxing",41.19,-83.7843
Lisa,Griffith,F,M,28,"Gardening, Financial analysis, Fishing",40.2189,-79.4891
Julia,Morales,F,B,19,"Jazz, Cybersecurity, Bowling",29.2937,-100.4244
Nicole,Miller,F,M,39,"Diving, Pottery",33.3636,-92.7314
Jason,Burke,M,B,30,"Investment banking, Blacksmithing",38.7996,-90.3269
Margaret,Barrera,F,B,27,"Bouldering, Yoga, Basketball, Art history",36.1582,-81.9808
Denise,Martinez,F,B,31,"Nature Photography, Financial analysis, Stock trading, DJing",33.7373,-83.5141
Ian,Long,M,F,23,Travel,59.7511,-161.8992
Sara,Vasquez,F,F,24,"Self defense, Meditation",41.4369,-74.0145
Louis,Walker,M,M,25,Singing,38.7934,-84.1374
Christopher,French,M,B,31,Filmography,27.477,-81.453
Jasmine,Martin,F,B,30,"DJing, Diving, Baking",39.9165,-120.9189
Michelle,Washington,F,B,33,"Jogging, Diving, Skateboarding",29.515,-98.3818
Nicole,Reeves,F,B,29,"Jujitsu, Acting, Water polo",38.5127,-92.4385
Audrey,Wallace,F,F,29,"Pottery, Sketching, Literature",31.811,-106.1643
Brittany,Hughes,F,F,30,"Jujitsu, Darts",39.35,-84.123
Kevin,Smith,M,B,25,"Hunting, Nature, Sewing",40.6558,-73.7185
Susan,Browning,F,M,21,"Hiking, Woodworking, Food criticism, Road cycling",45.0528,-87.2826
Savannah,Schmidt,F,B,31,"Rock Climbing, Journalism, Skateboarding",40.567,-87.8922
Timothy,Jones,M,B,30,"Hang gliding, American football, Air hockey, Marketing",42.0416,-88.5508
Curtis,Mendez,M,M,21,"Gaming, Sculpting, Ceramics, Darts",47.6459,-117.5792
Justin,Perry,M,M,20,Volleyball,42.3762,-85.4553
Tracy,Thornton,F,M,30,"Biking, Synchronized swimming, Basketball, Filmography",38.0332,-84.9031
Jennifer,Freeman,F,B,26,"Marathons, Art, Sailing, Landscaping",41.4388,-84.2554
Robert,Holloway,M,F,24,"Bar tending, Floristry, Computer programming",35.16,-92.643
Katie,May,F,B,33,"Blacksmithing, Filmmaking",40.5207,-80.1333
Stephen,Simmons,M,B,20,"Cycling, Drawing, Table tennis",41.4648,-83.7043
Kathleen,Lawrence,F,F,19,Badminton,35.0782,-86.5834
Antonio,Brown,M,M,36,"Knitting, Investment banking, Skydiving, Billiards",41.28,-88.1443
Joyce,Meyer,F,M,31,"Jujitsu, Reading, Field hockey",38.0635,-75.5553
Mary,Jensen,F,F,27,"Sewing, Ethical hacking, Boxing, Skydiving",43.1509,-123.3854
Eric,Macias,M,F,22,"Theater, Salsa, Self defense, Jujitsu",33.9768,-81.0349
Robert,Wood,M,F,26,"Gardening, Stand-up comedy, Sketching, Soccer",35.8018,-80.2682
Amber,Orozco,F,B,24,Puzzle solving,40.6216,-73.7068
Matthew,Clements,M,M,29,"Judo, Fishing, Literature, Food criticism",40.3783,-111.7953
Dustin,Dominguez,M,F,33,"Triathlons, Hiking, Nature Photography, Woodworking",39.1752,-89.4723
Nancy,Rojas,F,F,32,Ceramics,40.6059,-77.7211
Louis,Wright,M,M,26,Woodworking,41.0544,-79.7273
Ronald,Craig,M,M,24,Orienteering,33.0156,-99.6716
Kathy,Smith,F,B,26,"Gardening, Literature, Billiards, Food criticism",35.9024,-109.0321
Colin,Hamilton,M,M,35,"Pool, Filmography, Teaching",36.709,-81.9713
Megan,Jones,F,M,26,"Skateboarding, Ice skating, Theater, Video games",36.5266,-93.6637
Thomas,Boone,M,F,30,Karate,37.4708,-88.1659
Kristin,Smith,F,F,22,"Shuffleboard, Bowling, Ballroom dancing",42.8921,-78.7918
Austin,Clarke,M,F,38,"Roller hockey, Pilates, Water polo, Music",43.4971,-100.4802
James,Boyd,M,F,18,Jujitsu,39.5561,-111.8607
Heather,Fisher,F,M,39,"Basketball, Badminton, Financial analysis",33.8902,-81.2391
Lisa,Lee,F,F,29,"Woodworking, Sculpting, Mountain biking, Muay Thai",29.4501,-82.6391
Michael,Bond,M,M,31,"Food styling, Polo, Astronomy",32.3046,-110.8838
Douglas,Padilla,M,M,38,Watercolor,35.2249,-77.8452
Keith,Townsend,M,M,24,"Poetry, Music, Gaming",47.313,-122.4154
Robert,Wu,M,F,30,"Improv, Floristry, Web design, Financial analysis",34.04,-117.93
Brooke,Taylor,F,M,23,"Gaming, Paragliding, Soccer, Road cycling",39.3938,-95.6285
Miguel,Gilmore,M,B,38,"Air hockey, Baseball, Biking, Lacrosse",37.335,-82.9819
Debra,Bates,F,B,28,"Soccer, Art history, Ballroom dancing, Self defense",39.816,-97.0487
Tina,Wallace,F,F,26,"Investment banking, Theatre, Dancing, Hang gliding",39.9323,-121.083
Ashley,Kennedy,F,M,19,"Darts, Video editing",43.3696,-86.1837
Jason,Garner,M,M,21,Gaming,47.9091,-97.6269
Carlos,Berry,M,F,30,Letterboxing,37.1444,-104.6216
Stephen,Goodwin,M,M,29,"Board games, Filmmaking",39.7003,-76.0587
Jacqueline,Richards,F,M,39,Windsurfing,35.6411,-118.4047
Joyce,Larson,F,B,37,"Art history, Gardening, Stock trading, Football",33.8308,-94.3542
Nancy,Watson,F,B,28,Surfing,36.8426,-87.3055
Cody,Simmons,M,M,23,Pottery,37.3151,-96.7554
Jennifer,Ewing,F,M,34,"Kayaking, Dancing, Mobile app development, Astrophysics",42.5974,-98.0353
Kimberly,Welch,F,F,33,"Karate, Art",40.9505,-79.7401
Raymond,Edwards,M,F,37,"Rugby, Tennis",45.9623,-108.1623
Chase,Blair,M,M,36,Web design,44.7014,-86.2311
Jennifer,Kennedy,F,M,23,"Board games, Judo, Literature, Shuffleboard",42.4407,-94.1192
Scott,Gibson,M,F,39,"Landscaping, Wrestling, Music production, Rugby",39.2101,-120.0965
Adrienne,Nelson,F,M,25,"Basketball, Surfing, Ballet, Soccer",35.2315,-88.3381
Christopher,Martin,M,B,33,"Fishing, Basketball, Water polo, Martial arts",38.9554,-119.1101
Anita,Garcia,F,B,34,"Escape rooms, Horseback riding",34.4053,-85.0312
Amy,Long,F,M,20,"Food criticism, Surfing",40.0379,-76.1081
April,Moody,F,M,19,"Carpentry, Bowling, Pottery",33.178,-86.2605
Joseph,Hunter,M,F,29,Glassblowing,36.9908,-79.6318
Timothy,Cole,M,M,36,Bouldering,46.2056,-123.3835
Jillian,Barrett,F,M,30,"Video games, Investment banking",43.9826,-97.4251
Jennifer,Perez,F,F,24,Orienteering,43.3172,-85.3528
Jeremy,Baldwin,M,M,20,"Poetry, Glassblowing",42.9576,-109.9916
Ashley,Todd,F,F,33,"Knitting, Teaching",37.8907,-99.5603
Troy,Baldwin,M,M,35,"Cybersecurity, Shuffleboard, Kiteboarding, Movies",41.6191,-73.7944
Edwin,Avila,M,F,28,"Woodworking, Fishing, Physics, Food criticism",60.9341,-164.6386
Theresa,Scott,F,F,30,Fishing,37.8997,-88.9301
Douglas,Jones,M,F,35,"Rugby, Kickboxing, Rock Climbing",32.755,-99.8963
Michelle,Bean,F,B,36,Web design,47.2665,-101.7734
Melissa,Pollard,F,F,30,"Golf, Marketing, Pinball, Pilates",37.9272,-81.1531
James,Ramirez,M,F,24,"Filmmaking, Fashion design, Art, Hiking",44.8108,-88.4485
Danielle,Shea,F,B,34,"Theater, Movies, Woodworking, Bowling",41.4231,-100.1936
Jonathan,Murray,M,M,28,"Self defense, Golf",37.3999,-122.1989
Richard,Simpson,M,M,26,"Blacksmithing, Journalism",18.0595,-66.7206
Melissa,Jenkins,F,B,25,Food styling,39.4283,-85.6287
Jeffrey,Webb,M,F,27,"Rappelling, Pool, Cybersecurity, Hiking",40.344,-91.1118
Sandra,Mooney,F,M,18,"Singing, American football, Pool",44.0111,-76.0425
Willie,Green,M,F,19,Art history,38.8374,-76.7144
Natalie,Porter,F,F,38,"Jazz, Treasure hunting, Polo, Snowboarding",45.1216,-95.0569
Sara,Patterson,F,B,21,"Kickboxing, Fashion design, Pinball, Landscaping",41.7779,-74.2955
James,Chang,M,B,21,Weightlifting,40.8279,-91.2622
Sarah,Hernandez,F,M,20,"Skateboarding, Card games",39.8387,-91.7391
David,Shaffer,M,B,21,"Cybersecurity, Travel, Skydiving, Surfing",40.4744,-111.9381
Cindy,Martin,F,B,31,"Carpentry, Mixology, Yoga, Wine tasting",42.0738,-78.3714
Andrew,Bond,M,B,35,Billiards,41.428,-89.2132
George,Wu,M,F,36,"Diving, Orienteering, Golf",42.734,-71.1889
Jamie,Holt,F,B,39,"Darts, Windsurfing, Jujitsu, Squash",38.247,-104.5714
Nicholas,Greene,M,M,23,"Data analysis, Teaching, Theatre",38.4167,-83.8243
Stephen,Tucker,M,F,28,"Stock trading, Mixology",27.3823,-82.5167
Lauren,Davis,F,M,32,"Escape rooms, Interests, Puzzle solving",38.3541,-89.377
Lindsey,Campbell,F,B,39,"Watercolor, Running, Polo",39.1507,-120.1596
Christina,Harper,F,B,25,"Water polo, Biking, Poetry, Web design",41.5569,-91.5362
Amy,Curtis,F,F,34,"Calligraphy, Bouldering, Public relations",30.4398,-86.6071
Michael,Hawkins,M,M,33,"Stock trading, Yoga, Muay Thai, Polo",38.9531,-84.8544
Christopher,Davis,M,B,29,"Music production, Golf, Carpentry",40.1311,-75.1374
Julia,Bryant,F,B,33,"Rugby, Mixology",31.8032,-97.0941
Melanie,Cooke,F,B,32,"Financial analysis, Triathlons",33.0998,-93.4618
Michael,Cobb,M,B,38,"Diving, Billiards",44.5996,-72.116
Stephanie,Morales,F,B,27,"Karate, Investment banking, Woodworking",46.0648,-102.7885
Bruce,Watson,M,B,28,Rock Climbing,55.1182,-131.5689
Matthew,Fox,M,B,38,"Billiards, Yoga, Bar tending",48.7768,-96.0213
Kerri,Pope,F,B,26,Video games,41.2279,-111.9682
Victoria,Myers,F,B,34,"Theater, Ice skating",38.0709,-104.983
Travis,Wright,M,M,25,"Improv, Rock Climbing",34.2588,-113.5079
Aaron,Randall,M,B,18,Data analysis,42.3248,-76.5281
John,Gonzalez,M,B,28,Football,34.943,-119.6819
Whitney,Bush,F,M,22,Ethical hacking,41.4489,-95.1109
Richard,Parker,M,M,23,"Sailing, Choreography, Equestrian",39.0597,-86.5108
Angela,Wang,F,F,34,"Hang gliding, Glassblowing, Guitar, Filmmaking",45.1257,-92.6731
Anthony,Roberts,M,M,21,Ballet,39.5085,-112.3933
Luke,Davis,M,M,20,"Stock trading, Boating, Mixology, Running",40.9841,-122.7083
Ashley,Stephens,F,M,29,Hunting,41.3776,-83.6495
Kelly,Moreno,F,F,22,Football,46.9831,-93.5959
Ronald,Oliver,M,F,18,"Rock Climbing, Writing, Jazz",46.5752,-96.8066
Tiffany,Sanders,F,F,38,Polo,40.4007,-83.5444
Rodney,Skinner,M,M,32,Treasure hunting,39.7595,-105.6825
Mary,Christian,F,B,35,"Stock trading, Stand-up comedy, Literature",43.4539,-89.4603
Lisa,Scott,F,M,22,"Sketching, Art",46.886,-103.1952
Kimberly,Perkins,F,B,35,"Martial arts, Bowling",40.3391,-87.2849
Brady,Parker,M,B,35,"Surfing, American football",39.4394,-78.9821
Joshua,Brown,M,F,34,"Darts, Salsa, Ethical hacking, Polo",43.8409,-93.8279
Teresa,Russo,F,B,18,"Gaming, Hang gliding, Reading",42.8624,-97.8964
Christina,Reed,F,F,32,"Physics, Ice skating, Lacrosse",33.4503,-82.2073
Robert,Conley,M,F,18,"Card games, Rugby, Art history, Drawing",35.3865,-81.4127
Raven,Hines,F,B,24,"Letterboxing, Financial analysis, Data analysis, Blacksmithing",40.0923,-98.6484
Ebony,Roth,F,B,20,Kickboxing,46.829,-100.887
Karen,Preston,F,B,18,Ballroom dancing,42.3915,-82.9118
Linda,Davis,F,B,20,Interior design,35.5105,-108.6397
Joshua,Willis,M,B,35,Jazz,35.7602,-120.9813
Wesley,Johnson,M,M,21,"Baseball, Astrophysics",46.4866,-116.2572
Joseph,Owens,M,M,26,"Self defense, Surfing, Baseball",44.5731,-106.9142
Carol,Lewis,F,B,29,"Fitness, Watercolor",32.6085,-110.7826
Jennifer,Mueller,F,F,34,"American football, Sailing, Cybersecurity",46.3349,-94.6423
Brian,Green,M,M,36,Diving,45.1738,-84.2128
Patrick,Ford,M,F,18,"Blacksmithing, Diving, Gaming",36.1116,-76.9412
Timothy,Rodriguez,M,F,29,"Skateboarding, Poetry",43.6538,-83.4671
Jack,Adams,M,F,33,"Singing, Badminton",37.5154,-122.2953
Tina,Sanchez,F,F,29,"Drawing, Ballroom dancing",40.3653,-73.977
Bruce,Collins,M,M,19,"Boating, Billiards, Orienteering, Biking",40.4797,-85.6304
Mary,Brooks,F,F,23,"Calligraphy, Meditation",38.8973,-82.5694
Martin,Ortiz,M,M,29,"Computer programming, Travel",45.3462,-111.7319
Rodney,Tucker,M,F,30,"Geocaching, Billiards",40.5505,-103.2746
Carolyn,Morales,F,M,28,Soccer,26.4155,-98.97
Lawrence,Griffith,M,F,21,Video editing,40.0396,-75.4439
Kelsey,Ramirez,F,F,24,"Ballet, Biking, Basketball, Literature",48.7247,-116.1953
Randy,Pace,M,M,38,"Theater, Stock trading, Watercolor",40.3935,-79.9005
Carolyn,Webb,F,F,29,"Ethical hacking, Food criticism, Escape rooms",34.8546,-97.3876
Terry,Hill,F,M,26,"Weightlifting, Ballroom dancing, Sculpting",42.5335,-70.9725
Cindy,Williams,F,M,31,"Video games, Mathematics",38.5897,-90.526
Nicholas,Barker,M,F,18,"Ceramics, Field hockey, Guitar",45.8662,-96.7318
Christine,Ortiz,F,M,18,Calligraphy,31.7919,-82.5638
Kelly,Hart,F,F,18,Marketing,38.7512,-90.6581
Carly,Reese,F,B,39,"Landscaping, Fishing, Literature",32.4251,-106.6025
William,Bass,M,F,26,"Air hockey, Hunting, Nature Photography",46.8915,-97.0533
Tracy,Walters,F,B,25,"Astronomy, Hunting, Interior design",30.2337,-85.637
Natalie,Elliott,F,M,29,"Weightlifting, Salsa",39.3939,-84.5653
Dakota,Jones,M,B,29,"Field hockey, Advertising, Orienteering, Mathematics",39.7649,-89.2608
Ashley,Wilkinson,F,F,19,"Jujitsu, Nature Photography, Air hockey, Journalism",45.4358,-122.5081
Linda,Cohen,F,F,31,"Fashion design, Pinball, Painting, Public relations",44.8897,-88.3063
Lauren,Suarez,F,M,27,"American football, Video editing, Kickboxing, Pinball",31.5581,-89.4987
Jennifer,Thomas,F,M,33,Art,29.652,-84.8881
Amber,Hobbs,F,F,36,Music production,30.5824,-87.0447
Karen,Wilson,F,B,23,"Investment banking, Equestrian",39.325,-77.8667
Brian,Dodson,M,M,31,"Letterboxing, Cycling, Table tennis",38.1336,-96.1372
Jason,Bryan,M,F,28,"Geocaching, Fashion design, Kickboxing",42.1452,-92.1441
Bruce,Wheeler,M,F,29,"Skydiving, Ceramics, Tennis",40.1235,-102.7161
Daniel,Massey,M,F,39,"Polo, Muay Thai",43.3322,-83.7391
Anthony,Vaughan,M,B,20,Rock Climbing,36.5411,-104.5431
Emily,Ford,F,F,30,"Web design, Diving, Filmmaking",34.8585,-88.4199
Leslie,Everett,F,F,29,"Music, Horseback riding, Karate",48.8547,-108.6624
John,Gallagher,M,B,29,"Billiards, Martial arts, Triathlons, Travel",39.9993,-90.4178
Laura,Holt,F,F,29,Gymnastics,33.468,-99.5236
Laura,Roberts,F,B,23,Hiking,35.991,-94.5751
James,Meyer,M,F,23,"Marathons, Kiteboarding",26.6743,-80.0731
Donna,Yates,F,B,35,"Fitness, Hiking, Diving",40.4643,-78.067
Scott,Marshall,M,M,19,"Horseback riding, Rugby",42.483,-88.1491
Jocelyn,Simmons,F,M,27,"Stock trading, Improv, Road cycling",47.4001,-111.2092
Robert,Steele,M,F,20,"Ethical hacking, Mountain biking, Jujitsu",31.9891,-83.2
Christopher,Lee,M,F,20,Air hockey,42.267,-94.5515
Travis,Vaughn,M,M,35,"Surfing, DJing, Ceramics",41.7703,-91.96
Christopher,Hernandez,M,F,25,"Movies, Surfing, Road cycling",35.8555,-79.5682
Debra,Cox,F,M,21,Swimming,33.4031,-88.2392
Nancy,Lane,F,M,20,"Meditation, Bar tending",29.8081,-90.421
Yvette,Rodriguez,F,B,23,"Sailing, Reading",37.3531,-77.4342
Steven,Garcia,M,M,36,Movies,41.9595,-72.3105
Sonia,Miller,F,F,24,"Sailing, Skateboarding",29.1172,-81.3517
Alexander,Ryan,M,B,25,"Rugby, Advertising",32.0507,-91.6567
Ronnie,Savage,M,F,22,"Food styling, Sculpting",35.6639,-101.6027
Brianna,Carr,F,M,21,"Wine tasting, Floristry",40.781,-74.0659
Daniel,Long,M,F,19,"Card games, Hunting, Drawing, American football",31.4985,-92.4432
Dominic,Munoz,M,M,19,"Fishing, Ballroom dancing",36.0267,-77.394
Martin,Gutierrez,M,F,22,"Sculpting, Equestrian",38.9513,-122.7208
Michael,Jimenez,M,B,34,Synchronized swimming,35.363,-98.3638
Daniel,Nichols,M,B,22,"Physics, Food styling, Data analysis, Improv",35.6111,-76.8558
Matthew,Atkins,M,F,21,"Filmography, Music, Ethical hacking",44.9604,-93.8431
Tara,Bradley,F,M,33,"Card games, Writing, Rock climbing, Dancing",39.6937,-77.7472
Robin,Alvarez,F,B,38,"Landscaping, Gymnastics, Yoga",38.1413,-83.5404
Leonard,Williams,M,B,33,"Guitar, Computer programming, Sketching, Self defense",33.5164,-83.6959
Nancy,Bowman,F,F,19,DJing,37.2163,-89.2078
Mark,Cox,M,B,39,"Treasure hunting, Roller hockey, Video games, Hang gliding",41.3188,-93.1024
Terry,Weber,M,B,38,"Rock climbing, Cycling, Gymnastics",35.3463,-119.0297
Ryan,Turner,M,M,23,"Hunting, Windsurfing, Interests, Synchronized swimming",33.7293,-93.6205
Edwin,Olson,M,M,26,"Pool, Roller hockey, Sculpting",35.7595,-83.3886
Nicholas,Morton,M,F,34,"Fishing, Weightlifting, Triathlons, Cybersecurity",46.8221,-119.1653
Kathleen,Edwards,F,M,33,"Kickboxing, Treasure hunting, Landscaping, Watercolor",40.2607,-92.8784
Adam,Good,M,F,33,"Drawing, Skiing, Bowling",42.4956,-88.5983
Joe,Mcdonald,M,B,31,"Sketching, Ethical hacking",47.3589,-121.9781
Susan,Simpson,F,B,35,"Jujitsu, Running",30.9343,-87.0245
Cynthia,Smith,F,M,18,"Bar tending, Shuffleboard, Self defense",40.1525,-91.2215
David,Torres,M,B,27,"Mathematics, Cybersecurity, Skateboarding",35.9929,-106.0196
Patricia,Reyes,F,B,28,"Cooking, Equestrian",43.458,-91.8619
Carl,Erickson,M,F,25,"Gardening, Writing, Astrophysics, Air hockey",35.7514,-81.527
Christina,White,F,B,36,"Teaching, Hang gliding, Jogging, Movies",34.5239,-84.4895
Nicholas,Martinez,M,B,24,Art history,37.0682,-94.1256
Joseph,Young,M,F,19,"Wine tasting, Painting, Rock climbing",41.4415,-90.5593
Kevin,Hernandez,M,B,31,"Cooking, Yachting, Darts",42.439,-82.9293
Daniel,Mora,M,F,20,"Nature Photography, Knitting, Water polo",38.8943,-101.7511
Angelica,Hill,F,M,26,"Swimming, Geocaching, Food styling, Data analysis",40.746,-88.5158
Kyle,Johnson,M,B,26,"Mountain biking, Surfing",35.6833,-108.7709
Tammy,Ortiz,F,M,28,"Puzzle solving, Hiking",41.3415,-73.9846
Maria,Mitchell,F,F,23,Rock climbing,35.7255,-79.1713
Kimberly,Pittman,F,M,29,"Fashion design, Fitness, Mathematics, Surfing",44.0856,-87.9809
Ashley,Lam,F,F,35,Boating,32.6215,-97.816
Daniel,Mcdaniel,M,M,25,"Landscaping, Shuffleboard, Painting, Field hockey",39.9,-80.2007
Steven,Frank,M,F,26,"Shuffleboard, Mixology",40.6048,-78.7071
Tony,Richardson,M,B,31,"Air hockey, Nature",32.3782,-82.5945
Tammy,Patterson,F,M,33,"Knitting, Landscaping",35.6763,-83.7529
Victoria,Mullen,F,M,30,Interests,40.7922,-76.283
Benjamin,Smith,M,B,21,"Theatre, Yachting",30.6349,-92.4179
Anthony,Martinez,M,B,32,Surfing,40.7499,-73.6124
Robert,Bowers,M,M,25,"Stock trading, Dancing, Wrestling",38.7729,-88.8527
Jamie,Bell,F,F,26,"Blacksmithing, Teaching, Paragliding",42.3628,-79.051
James,Taylor,M,M,26,"Surfing, Acting",41.3737,-93.7388
Danielle,Salazar,F,M,27,Air hockey,38.7709,-77.4429
Scott,Griffin,M,M,22,"Gymnastics, Reading, Kayaking, Pinball",28.7171,-96.2334
David,Mason,M,F,38,"Art history, Wrestling, Painting",34.5477,-99.4241
Stephen,Hernandez,M,M,21,"Mobile app development, Kiteboarding, Floristry",38.2021,-97.515
Cheryl,Moore,F,M,34,"Public relations, Poetry, Pinball",33.5866,-95.909
Natasha,Brown,F,F,22,"DJing, Ice skating",44.0856,-87.9809
Ronald,Cooper,M,B,20,"Physics, Calligraphy",35.5847,-80.8266
Mark,Allen,M,M,36,"Yoga, Ballroom dancing",30.3554,-87.5036
Whitney,Lamb,F,F,22,"Yoga, DJing, Teaching",44.0415,-71.1224
Adam,Ortiz,M,F,22,Woodworking,35.7203,-89.0859
Tracy,Maldonado,F,F,37,"Dancing, Football, Skydiving",48.8974,-102.3933
Matthew,Warner,M,F,39,Glassblowing,38.0656,-85.7177
Bradley,Boone,M,F,26,"Public relations, Air hockey, Marketing, Theatre",41.8023,-87.9006
Christopher,Livingston,M,B,20,"Mountain biking, Guitar, Glassblowing, Sketching",38.3037,-83.1682
Andrew,Mccoy,M,B,35,"Landscaping, Food styling, Pottery",40.0929,-76.4279
Dakota,Howell,M,M,34,"Painting, Public relations",39.4152,-75.1912
Lindsay,Walker,F,M,39,"Marathons, Teaching, Mathematics",36.1642,-94.2457
Kelsey,Rasmussen,F,F,36,"Stock trading, Music, Video games",29.1635,-81.5349
Linda,Morgan,F,B,35,American football,36.0082,-83.0916
Dylan,Lee,M,M,27,"Surfing, Shuffleboard",44.5313,-88.7275
Kevin,Campos,M,F,38,"Bouldering, Glassblowing, Yoga",27.9462,-97.5875
Donna,Wright,F,B,18,"Surfing, Singing, Yachting, Football",42.8312,-98.4668
Howard,Hall,M,F,32,"Ballroom dancing, Wine tasting, Astronomy, Bar tending",38.5569,-90.3783
Duane,Atkinson,M,F,23,"DJing, Wrestling, Darts, Roller hockey",39.6806,-100.2933
Kari,Roberts,F,M,30,"Pinball, Baseball, Triathlons, Rock Climbing",25.7607,-80.1416
Kimberly,Chapman,F,B,26,"Stock trading, Drawing, Advertising, Blacksmithing",34.5596,-117.9558
Kylie,Hogan,F,B,38,Geocaching,36.6503,-87.1735
Lori,Krause,F,M,37,"Interests, Food styling, Darts, Interior design",40.2447,-92.2059
Lori,Miller,F,F,25,Food criticism,42.8417,-91.8038
Anna,Camacho,F,F,19,"Jazz, Gardening, Skydiving",42.5706,-77.7189
Andrew,Nash,M,F,35,"Bar tending, Filmography",41.6427,-94.27
Joseph,Benitez,M,F,27,"Road cycling, Rock climbing, Badminton, Hiking",37.7551,-81.2079
Timothy,Parker,M,F,25,Paragliding,44.4166,-72.8576
Jennifer,Scott,F,B,23,"Weightlifting, Fashion design, Movies",43.5975,-88.2814
Blake,Powers,M,B,20,Fishing,34.9973,-85.2285
Charles,Sanchez,M,M,20,"DJing, Theatre, Jogging, Football",41.3177,-86.8896
Timothy,Carter,M,M,24,"Improv, Board games, Kayaking, Food criticism",39.2948,-90.4062
Ray,Dodson,M,B,22,"Acting, Improv, Football, Hang gliding",35.3123,-91.5709
Wendy,Fry,F,F,32,Skydiving,40.0496,-75.4272
Renee,Hawkins,F,M,36,"Bowling, Geocaching, Movies, Darts",41.7136,-71.1015
Nicole,Swanson,F,B,39,"Skateboarding, Marketing",43.4971,-100.4802
Mitchell,Moody,M,F,20,Lacrosse,37.9624,-98.5995
Charles,Spears,M,F,37,"Sailing, Photography, Polo",39.4953,-79.8168
Bryan,Lutz,M,B,30,"Food styling, Mountain biking, Golf, Letterboxing",40.0616,-76.7053
Wanda,Henderson,F,F,33,Rugby,43.602,-97.6195
Amanda,Downs,F,M,29,"Golf, Tennis, Roller hockey",41.7034,-87.7795
Jessica,Pearson,F,M,25,"Windsurfing, Web design, Improv, Gymnastics",48.323,-110.0177
Jason,Hernandez,M,M,29,Wrestling,39.4278,-120.9997
Alyssa,Mendoza,F,M,33,"Mixology, Sketching",61.7428,-148.8548
Jeffrey,Young,M,M,37,"DJing, Skateboarding",37.5249,-95.6615
Amber,Cortez,F,M,38,"Badminton, Salsa, Mountain biking, Polo",42.5721,-100.0563
Ronald,Nelson,M,B,34,"Fitness, Lacrosse, Interests, Weightlifting",62.1278,-145.7693
Stephanie,Edwards,F,B,37,"Ballet, Movies, Card games, Mixology",41.2613,-75.9071
Samantha,Hernandez,F,B,34,"Travel, Movies, Yachting",18.0579,-66.4092
Earl,Taylor,M,F,39,Dancing,35.7757,-81.3669
Sara,Perez,F,B,31,"Stock trading, Web design, Yoga",40.6302,-79.6022
Jeff,Gilbert,M,B,29,"Stand-up comedy, Cooking, Knitting",40.5428,-79.8013
Jack,Harper,M,B,32,"Art history, Data analysis, Improv",34.9518,-93.409
Teresa,Moore,F,M,23,Bowling,40.7752,-80.7628
Melissa,Leonard,F,B,23,"Gymnastics, Baking, Travel",34.467,-80.2571
Emma,Carter,F,B,33,"Music production, Billiards, Cycling",40.2307,-112.7541
Barbara,Alexander,F,B,30,"Field hockey, Reading",46.6725,-93.0069
Jamie,Coleman,F,F,19,"Fishing, Kiteboarding, Stock trading",35.0956,-118.4335
Kathryn,Owens,F,F,30,"Running, Lacrosse, Interior design",34.1234,-116.4216
Stephanie,Yates,F,B,24,"Bouldering, Ballet, Snowboarding, Badminton",40.7261,-96.5936
Donald,Smith,M,M,20,"Yachting, Computer programming",41.0287,-94.0499
Robert,White,M,F,23,Reading,36.7689,-81.4075
Sandra,Black,F,M,37,"Skateboarding, Table tennis, Video games, Gardening",41.1327,-92.0825
Megan,Carey,F,B,28,"Baking, Rock climbing, Interior design",35.7193,-86.4129
Teresa,Watkins,F,M,39,"Painting, Orienteering",37.3677,-89.8097
Chelsea,Lucero,F,B,22,"Carpentry, Volleyball, Improv",40.2639,-92.9563
Jade,Richardson,F,B,38,"Muay Thai, Hang gliding, Physics, Letterboxing",47.3934,-122.6117
John,Cunningham,M,M,36,"Food criticism, Wine tasting",42.9766,-75.5866
Tracie,Fox,F,F,23,"Travel, Skateboarding, Table tennis, Wrestling",44.6207,-97.9592
Kendra,Nichols,F,F,28,Diving,46.4907,-122.9341
Matthew,French,M,F,28,"Gymnastics, Astronomy, Martial arts, Lacrosse",31.0628,-88.0266
Russell,Casey,M,F,20,"Golf, Wrestling, Reading, Gymnastics",39.8139,-89.5682
Cole,Callahan,M,M,34,"Astronomy, Music",34.8082,-82.8154
Monica,Phillips,F,F,30,Puzzle solving,28.0963,-81.8012
Andrea,Miller,F,F,24,"Singing, Tennis, Travel, Bouldering",40.5352,-75.4978
Kenneth,Wagner,M,M,18,Swimming,17.9706,-66.0598
Misty,Flores,F,B,24,"Jazz, Football",44.1415,-88.1611
Courtney,Marquez,F,M,22,"Kayaking, Fitness",37.9161,-78.9382
Lisa,Hardin,F,M,24,"Theatre, Web design, Ice skating",41.6399,-74.3761
Robert,Mcbride,M,F,29,"Theatre, Glassblowing, Interior design, Pilates",42.475,-90.2525
Kelsey,King,F,F,38,"Photography, Tennis",33.6213,-100.8368
Ronald,Lucas,M,M,18,Diving,40.1254,-105.2924
Amanda,Hickman,F,M,35,"Surfing, Painting",33.4275,-82.3131
Justin,Love,M,F,32,"Jogging, Roller hockey, Volleyball",30.1901,-82.6471
Kelly,Carr,F,B,26,"Skiing, Road cycling",41.3319,-90.6723
Ryan,Hernandez,M,F,39,"Guitar, Advertising, Rock Climbing, Mobile app development",40.6531,-81.5795
Hunter,Miles,M,B,21,"Web design, Orienteering, Fishing",36.6782,-84.1284
Christopher,Martin,M,F,23,"Computer programming, Drawing, Hunting",36.6184,-121.8477
Michelle,Williams,F,B,22,"Food criticism, Ballroom dancing, Nature Photography, Gymnastics",36.7313,-102.5095
Jodi,Wilson,F,M,32,Water polo,36.2769,-80.3566
Candice,Moore,F,F,29,"Skateboarding, Muay Thai, Stock trading",48.2924,-97.373
Andrew,Larsen,M,M,29,Theatre,37.1564,-95.5977
Kimberly,White,F,B,21,Cooking,39.2153,-84.3888
Lisa,Wheeler,F,B,36,"Marketing, Skiing",37.4741,-108.4998
Michael,Allison,M,M,37,"Darts, Movies, Football, Reading",36.2341,-75.8785
Katherine,Martin,F,B,36,"Billiards, Basketball, Video games",36.6631,-87.4764
Kayla,Johnson,F,B,38,"Singing, Synchronized swimming",33.0865,-79.468
Christopher,Lane,M,F,28,"Interior design, Mathematics, Yoga, Choreography",31.1497,-88.5557
Erika,Irwin,F,F,35,Landscaping,43.4815,-89.7718
Emily,Brown,F,M,29,Interior design,30.5905,-88.4846
Donna,Turner,F,B,32,"Shuffleboard, Calligraphy",41.6187,-87.1257
Adrian,Skinner,M,B,27,Running,41.2792,-91.364
Hannah,Lucas,F,M,29,Reading,44.0915,-70.1681
Joseph,George,M,F,35,"Ceramics, Diving, Music production, Knitting",19.4538,-155.8588
Victoria,Delacruz,F,M,35,"Cooking, Landscaping",41.268,-73.4433
Carrie,Young,F,F,27,Lacrosse,46.8585,-116.3935
Joseph,Howard,M,B,30,Dancing,28.5605,-81.0201
Jennifer,Anderson,F,M,20,"Dancing, Karate, Pottery",39.021,-88.8508
Debra,Decker,F,M,27,"Geocaching, Board games, Skateboarding",36.7528,-106.5598
George,Thompson,M,B,32,"Ice skating, Filmography, Marathons",29.8389,-91.5522
Steven,Foster,M,F,35,"Knitting, Paragliding, Photography, Karate",34.3131,-111.3379
Karen,Blanchard,F,M,25,Rock climbing,42.0972,-95.3174
Dustin,Mcgee,M,F,18,"Interior design, Filmography, Swimming, Rappelling",38.9433,-105.0023
Roger,Day,M,B,24,Carpentry,42.5195,-92.4536
Glen,Thomas,M,M,27,"Letterboxing, Gaming",38.8648,-77.1878
Joshua,Kelly,M,F,27,Blacksmithing,39.9087,-87.9971
Michael,Cunningham,M,B,25,Polo,40.6797,-73.5837
Jordan,Williams,F,M,26,Art history,43.0616,-88.0347
Jamie,Meyer,F,M,36,"Sketching, Lacrosse, Reading",40.5626,-74.5743
Garrett,Mendez,M,F,18,Knitting,18.4488,-66.5078
Anthony,Wright,M,M,32,Basketball,37.2395,-81.4616
James,Norman,M,B,26,"Skydiving, Fishing",39.4995,-106.0432
Kaitlyn,Gregory,F,M,34,"Boxing, Swimming",34.8981,-94.9772
Gregg,Roberts,M,F,32,Ceramics,39.6741,-78.9131
Steven,Turner,M,M,18,Sailing,40.7624,-73.3705
Matthew,Adams,M,B,20,Nature,18.2256,-65.9161
Stephen,Pearson,M,M,19,"Escape rooms, Letterboxing, Diving",29.5389,-81.2457
Stephanie,Smith,F,F,26,"Triathlons, Reading, Soccer",34.8303,-87.6655
Ana,Doyle,F,F,38,"Filmmaking, Jazz, Jujitsu",41.2441,-79.431
Sheila,Wolf,F,B,20,"Nature, Baseball, Ethical hacking, Skateboarding",38.7439,-90.3361
Susan,Meyer,F,B,23,"Paragliding, Hang gliding, Floristry",40.7742,-98.3708
Andrew,Lewis,M,M,20,"Kickboxing, Snowboarding, Music production, Wrestling",47.6696,-114.0818
Sarah,Gomez,F,F,29,"Ballroom dancing, Cooking, Running",38.6353,-75.6024
Sara,Boyd,F,M,35,"Gaming, Board games, Knitting, Cycling",33.6836,-88.326
Curtis,Baker,M,B,24,"Wine tasting, Nature Photography, Kiteboarding",62.9827,-156.0838
Calvin,Avery,M,F,19,Reading,29.506,-82.2806
Kelly,Hansen,F,M,29,"Escape rooms, Calligraphy",25.9632,-80.183
Angela,Wong,F,M,39,"Yachting, Theatre, Muay Thai",41.4976,-90.4101
Eric,Mullins,M,B,36,"Music, Skateboarding",33.5694,-84.7441
Sydney,Young,F,M,23,Skydiving,34.2535,-90.2723
Molly,Mitchell,F,M,31,Jazz,34.7515,-117.343
Daniel,Anderson,M,M,31,"Art, Board games, Guitar, Mobile app development",32.856,-116.904
Ricardo,Santos,M,M,31,"Hiking, Geocaching, Muay Thai",61.6191,-149.311
Cassandra,Mills,F,F,39,"Pilates, DJing, Letterboxing",41.283,-96.9607
Emily,Holmes,F,M,31,"Pool, Swimming, Judo",19.7625,-155.0931
Andrea,Anderson,F,B,19,"Marathons, Karate",30.4551,-84.2527
Elizabeth,Bailey,F,M,39,"Judo, Music production, Pottery",31.5432,-82.4745
Matthew,Mendoza,M,M,23,"Web design, Hang gliding, Improv",39.2702,-84.5693
Katelyn,Simmons,F,B,22,"Sailing, Bouldering",32.6157,-80.0613
Angela,Rodgers,F,F,20,Golf,45.8199,-108.4072
Jordan,Anderson,F,F,24,Rappelling,41.9427,-103.8098
Laura,Mitchell,F,B,33,"Hiking, Kayaking",48.0572,-117.7466
Madison,Singleton,F,B,30,"Cybersecurity, Data analysis",42.973,-78.6793
Amy,Hernandez,F,B,22,"Bar tending, Astrophysics",41.4883,-82.0979
Grace,Knight,F,B,28,"Ethical hacking, Teaching, Lacrosse, Rugby",32.4912,-88.8452
Richard,Petty,M,M,21,"Ballet, Watercolor, Guitar, Orienteering",38.1644,-86.0508
Rachael,Ramsey,F,F,24,"Jujitsu, Woodworking, Rugby, DJing",41.6904,-74.8347
Teresa,Reynolds,F,F,30,"Writing, Synchronized swimming, Skateboarding, Hiking",43.2488,-76.7225
Kyle,Hardy,M,F,20,"Wrestling, Shuffleboard",64.7941,-148.0357
Randy,Johnston,M,B,29,Soccer,39.5095,-95.8555
Robin,Mcmahon,F,B,31,"Public relations, Golf",40.4488,-78.3839
Natasha,Hammond,F,B,26,"Baseball, Video games",31.8857,-100.2955
Shane,Martinez,M,M,39,Woodworking,39.486,-75.3215
Patrick,Vance,M,F,39,"Jazz, Orienteering, Card games",39.9811,-76.6306
Kenneth,Pacheco,M,M,31,"Cybersecurity, Food styling, DJing",46.8915,-97.0533
Cassandra,Wilson,F,F,21,"Advertising, Billiards, Drawing, Literature",36.197,-84.033
Katherine,Taylor,F,B,35,"Wine tasting, Letterboxing, Skateboarding",32.3303,-90.819
William,Carrillo,M,F,36,"Hiking, Web design, Synchronized swimming",41.6168,-87.4909
Toni,Davis,F,M,24,"Nature Photography, Weightlifting, Watercolor",35.7255,-79.1713
Austin,Harris,M,M,29,"Sketching, Yachting, Sewing",40.4206,-76.2966
Susan,Simmons,F,M,31,"Self defense, Gaming, Data analysis, Soccer",38.1967,-120.3698
Patricia,Oconnor,F,M,35,"Filmography, Jujitsu, Theater, Bar tending",43.4109,-123.2194
Mary,Gomez,F,M,38,Fishing,39.5817,-90.2518
Thomas,Calhoun,M,M,21,Writing,47.7633,-99.516
Kristin,Walker,F,B,25,"Surfing, Woodworking, Windsurfing, Pool",35.7563,-84.1319
William,Brennan,M,M,18,"Soccer, Board games",39.6104,-119.777
Danny,Hardin,M,M,24,"Ballroom dancing, Ethical hacking, Surfing",34.9946,-85.4868
Elizabeth,Peterson,F,M,39,"Teaching, Travel, Financial analysis, Hunting",36.2336,-80.8351
Brian,Reynolds,M,M,36,"Interests, Advertising",39.5463,-106.3871
Nathan,Velasquez,M,F,27,"Shuffleboard, Bar tending, Martial arts, Surfing",44.3429,-93.0638
Karen,Hall,F,M,18,Billiards,40.4135,-87.1122
James,Duncan,M,M,31,Financial analysis,46.7066,-92.4287
Alexandra,Alvarez,F,M,27,"Pinball, Teaching",37.1447,-88.9418
Debra,Price,F,M,31,"Video editing, Table tennis, Volleyball",36.6211,-119.3188
Rachel,Knight,F,M,26,"Fitness, Acting, Rappelling, Nature",42.5792,-88.3359
Patricia,Chan,F,F,21,"Teaching, Marketing",36.2739,-77.2839
Curtis,Hernandez,M,M,26,Data analysis,42.8307,-77.9015
Daniel,Roberts,M,M,34,"Horseback riding, Hang gliding",33.5986,-86.4963
Aaron,Cox,M,F,26,"Stand-up comedy, Baseball",40.615,-86.3904
Jacob,Garcia,M,M,33,"Judo, Kiteboarding, Travel, Fitness",35.6678,-91.2538
Crystal,Phillips,F,M,32,Rappelling,38.3162,-91.9222
Anthony,Aguirre,M,M,18,"Interests, Public relations",35.064,-77.3553
Rachel,Williams,F,F,31,"Paragliding, Skydiving, Drawing",21.9445,-159.6436
Seth,Thomas,M,M,20,"Synchronized swimming, Jazz, Fitness",64.5213,-165.4053
Lindsey,Wu,F,M,25,"Astronomy, Pool",40.53,-89.1751
Brandon,Franklin,M,M,37,Cooking,18.3759,-65.746
Cynthia,Mccullough,F,M,28,"Synchronized swimming, Pottery, Web design",36.0399,-84.3285
Yvonne,Mcgee,F,M,21,"Ice skating, Advertising, Card games, Basketball",39.8229,-105.0036
Ashley,Young,F,F,28,"Muay Thai, Basketball, Yachting, Horseback riding",40.2683,-79.6578
Samuel,Rodriguez,M,M,19,Web design,34.569,-111.856
Steven,Gutierrez,M,M,28,"Dancing, Board games",42.9377,-101.2489
Rebecca,Lopez,F,B,28,"Fashion design, Horseback riding, Rappelling, Swimming",47.8822,-121.8981
Madison,Higgins,F,M,18,Ethical hacking,27.8916,-98.1086
Omar,Hayden,M,B,28,"Astrophysics, Road cycling",40.2914,-79.4054
Kari,Boyd,F,M,25,Music,37.1875,-95.2898
Matthew,Gross,M,F,35,Karate,45.1702,-93.3903
Donna,Aguilar,F,F,32,Windsurfing,37.3167,-79.2481
Cassandra,Stone,F,F,29,"Orienteering, Astronomy, Gymnastics, Triathlons",40.2508,-75.6445
Daniel,Villanueva,M,M,25,"Literature, Baking, Weightlifting, Data analysis",33.8588,-89.3145
Michael,Frederick,M,B,28,"Field hockey, Astrophysics",45.991,-89.5332
Ronald,Walker,M,F,28,"Guitar, Literature, Mobile app development, Lacrosse",32.3958,-82.0621
Kelly,Rivers,F,B,19,"Volleyball, Theater, Music",27.9772,-97.7766
Michael,Ortiz,M,M,23,"Rock Climbing, Sewing, Stand-up comedy, Skydiving",39.6371,-91.0983
Jessica,Thompson,F,M,28,"Biking, Self defense, Skydiving",42.9999,-91.6523
Regina,Parker,F,M,26,Basketball,38.0333,-120.4096
Katrina,Hammond,F,F,21,Treasure hunting,37.2653,-101.7828
Debra,Ramirez,F,B,32,"Synchronized swimming, Filmography, Stock trading, Treasure hunting",38.9502,-76.9332
Veronica,Clark,F,M,25,Field hockey,38.6974,-88.2232
Tammy,Ortiz,F,B,37,"Lacrosse, Rugby, Yachting, Gymnastics",18.22,-66.2246
Terri,Jenkins,F,B,35,"Public relations, Journalism",36.2562,-119.2169
Christina,Bennett,F,F,34,"Yachting, Board games",42.487,-95.5428
Robert,Hampton,M,M,23,"Sailing, Glassblowing, Choreography, American football",38.5305,-106.2156
Christopher,Gill,M,B,21,Video games,30.4995,-84.4582
Patrick,Jordan,M,M,24,Equestrian,37.0495,-97.4013
Nicole,Meyer,F,M,31,Baking,31.1993,-99.5809
Andrew,Simpson,M,B,20,Video editing,36.6018,-89.622
John,Lewis,M,B,35,"Woodworking, Football, Air hockey",47.1939,-88.4054
Jennifer,Cole,F,F,36,Basketball,37.9274,-95.4006
Melissa,Green,F,F,20,"Mixology, Table tennis, Music",34.655,-96.0309
Barry,Lucero,M,M,31,"Salsa, Sewing",40.8472,-101.3893
Tonya,Phelps,F,M,24,Puzzle solving,34.8558,-86.752
Kimberly,Phillips,F,M,32,Water polo,35.3357,-108.671
Brandon,Scott,M,F,18,"Salsa, Sculpting, Improv, Data analysis",30.0168,-90.4634
David,Newton,M,B,31,"Pinball, Physics, Football",37.6783,-106.5753
Charles,Jones,M,B,24,American football,35.122,-81.5182
Jason,Campos,M,B,37,"Volleyball, Mountain biking, Orienteering, Rappelling",43.5844,-116.5638
Christopher,Williams,M,B,22,"Kayaking, Biking",42.7338,-88.2489
Emily,Simmons,F,F,35,"Baking, Advertising, Video editing",47.0626,-98.829
Mikayla,Porter,F,B,22,"Food styling, Shuffleboard, Theater",29.7588,-95.5156
Corey,Anderson,M,M,23,Art,40.6557,-120.7863
Tammy,Kennedy,F,B,34,"Mountain biking, Art history, Carpentry, Interests",41.2697,-73.7755
James,Lowery,M,B,28,"Hunting, Movies, Judo, Boating",29.4798,-95.3635
Samantha,Barnes,F,M,29,"Muay Thai, Pool",35.0132,-96.4404
Tommy,Hopkins,M,F,35,Muay Thai,47.2524,-122.3153
Richard,Davis,M,B,18,"Mountain biking, Art history, Mobile app development",42.0972,-95.3174
Zoe,Brennan,F,B,37,"Basketball, Card games, Guitar, Letterboxing",41.0204,-81.3471
Cody,Hill,M,F,35,Music,42.2023,-91.5247
Barry,Spears,M,B,22,"Data analysis, Choreography, Bar tending, Shuffleboard",39.571,-95.3037
Diana,Conley,F,M,38,"Writing, Martial arts, Ballet, Basketball",34.015,-86.7493
Colton,Campbell,M,F,18,"Rock Climbing, Hunting",40.07,-79.9009
Joy,Kennedy,F,B,24,Jogging,34.0885,-87.2075
Katherine,Hicks,F,M,34,"Music production, Roller hockey",29.8604,-90.9955
Lawrence,Payne,M,F,32,"Wrestling, Literature, Improv",38.5569,-90.3783
Edward,Young,M,F,38,"Literature, Lacrosse",45.7621,-116.3008
Henry,Miller,M,F,39,"Badminton, Golf, Nature",45.8345,-95.787
Daniel,Castro,M,F,38,"Cycling, Travel, Astrophysics, Teaching",29.1172,-81.3517
Lauren,Reed,F,F,36,"Video editing, Rock Climbing, Bowling",41.5557,-90.4538
Darrell,Eaton,M,M,20,"Treasure hunting, Ballet, Video games, Hiking",31.7122,-91.062
Melissa,Kim,F,M,20,"Food styling, Music production",32.5212,-96.7866
Richard,Mcconnell,M,F,28,"Boxing, Road cycling",34.4652,-106.8137
Anthony,Kennedy,M,B,34,"Dancing, Stand-up comedy",41.7242,-84.4188
Michael,Owens,M,F,24,"Fishing, Triathlons, Board games, Improv",31.5153,-81.3752
Jodi,Hoffman,F,M,37,"Puzzle solving, Art, Weightlifting, Pool",40.7003,-75.0121
Alex,Cameron,M,B,31,"Meditation, Computer programming",35.9676,-98.3497
Rodney,Thompson,M,B,20,"Marketing, Movies, Ceramics",34.5422,-91.7596
Heather,Nicholson,F,B,31,"Carpentry, Blacksmithing, Kickboxing",39.2322,-99.4347
Javier,Sims,M,M,28,"Pool, Photography",30.1995,-85.6003
Aaron,Hughes,M,F,25,"Cycling, Marketing, Rock Climbing, Shuffleboard",42.1075,-85.9746
Andrea,Bond,F,F,21,"Poetry, Carpentry",39.5605,-93.9257
Duane,Bennett,M,F,37,Polo,37.7583,-81.9974
Anthony,Meyer,M,M,28,"Meditation, Orienteering, Video games",39.0674,-84.9044
Alexis,Foster,F,B,27,"Pinball, Martial arts, Choreography, Equestrian",40.7478,-73.084
Lori,Thompson,F,B,18,"Hiking, Blacksmithing, Ice skating, Soccer",46.5799,-90.8713
Jasmine,Owens,F,M,34,"Badminton, Karate",42.7293,-95.1835
Harry,Murphy,M,B,27,"Ballroom dancing, Cybersecurity",34.1879,-118.3235
William,Carroll,M,F,37,"Pinball, Mathematics, Self defense",42.1487,-70.7315
Holly,Scott,F,M,39,"Triathlons, Pilates, Web design",38.5371,-81.9254
Kevin,Howard,M,B,30,"Glassblowing, American football, Polo",38.7726,-93.4237
Billy,Johnson,M,F,20,"Marathons, Filmography",38.8653,-101.9681
Sharon,Howell,F,F,38,"Letterboxing, Board games, Fashion design",35.3987,-96.1876
Justin,Olson,M,F,31,"Sketching, Journalism",39.6288,-90.6108
Courtney,Hall,F,F,34,"Art, Music",38.2323,-97.7715
Jose,Garza,M,M,31,Orienteering,47.2202,-110.9262
Jillian,Jones,F,F,21,"Video editing, Pilates, Puzzle solving, Financial analysis",38.6724,-90.3786
Ryan,Lewis,M,M,19,"Kickboxing, Physics, Theater, Blacksmithing",41.5571,-89.5912
Stephen,Morris,M,B,33,"Improv, Movies, Gymnastics, Sewing",40.7801,-92.7432
Joshua,Thompson,M,B,39,"Sewing, Nature, Triathlons",40.1156,-105.4417
Martin,Young,M,M,20,"Triathlons, Judo, Gaming, Sketching",44.3493,-87.8313
Belinda,Carter,F,M,32,Skateboarding,46.8767,-113.8869
Stephanie,Sparks,F,B,35,"Calligraphy, Kickboxing",40.0619,-80.0302
Brian,Burgess,M,F,24,"Marketing, Road cycling, Literature, Singing",42.9156,-108.7993
Julia,Strickland,F,M,29,"Public relations, Art history, Sewing, Computer programming",29.5448,-95.0865
David,Doyle,M,M,28,Self defense,45.5981,-94.1538
Michael,Briggs,M,M,26,"Shuffleboard, Stand-up comedy, Video games",36.3675,-82.2243
Norman,Crawford,M,B,29,"Mobile app development, Water polo, Poetry, Guitar",31.3372,-89.3771
Crystal,Parker,F,B,30,Biking,32.8335,-109.6964
Dustin,Anderson,M,B,22,"Yoga, Marketing, Running, Karate",31.5296,-94.1108
Courtney,Acosta,F,B,22,Rappelling,40.9255,-82.0557
Matthew,Gonzales,M,M,32,Jazz,41.5919,-94.8811
Jordan,Gilbert,F,M,33,"Food criticism, Table tennis",38.0836,-120.4652
Rebecca,Daniel,F,M,29,Financial analysis,29.6689,-95.0484
Albert,Chapman,M,B,19,"Surfing, Rappelling, Art",40.912,-111.413
Jennifer,Kelly,F,B,37,"Poetry, Jazz, Pilates",37.5864,-94.1581
Scott,Brown,M,M,28,Shuffleboard,40.3418,-78.8841
Marcus,Yates,M,M,34,"Paragliding, Gardening, Darts",35.6019,-82.5958
Jason,Daugherty,M,M,29,"Cooking, Mathematics, Roller hockey, Advertising",43.1892,-96.0032
Breanna,Mcgrath,F,F,22,"Baseball, Mixology, Roller hockey, Floristry",34.2662,-93.4634
Rebecca,Thomas,F,B,36,Knitting,39.4735,-92.2117
Cheryl,George,F,B,29,Photography,45.6439,-85.0312
Theresa,Harris,F,B,21,"Treasure hunting, Judo, Theater, Movies",43.5744,-101.2059
Steven,Beard,M,F,30,Martial arts,30.3141,-89.931
Taylor,Harding,F,F,27,"Puzzle solving, Literature, Yachting, Theater",32.4491,-89.4889
Francisco,Burns,M,M,25,"Interior design, Card games, Rappelling",37.8163,-82.8089
Emily,Morrow,F,B,28,"Pool, Photography, Bowling",41.1874,-74.5015
Cheryl,Pennington,F,F,28,Painting,29.5456,-95.8223
Julia,Johnson,F,B,19,"Basketball, Paragliding, Running",39.1205,-88.5509
Christopher,Evans,M,M,24,"Jujitsu, Karate, Music, Treasure hunting",37.7353,-87.3327
Michele,King,F,B,28,"Ballet, Polo, Swimming, Photography",38.4026,-82.5822
Joshua,Thomas,M,F,35,"Volleyball, Landscaping",35.2337,-80.1147
Meghan,Sanders,F,F,22,"Skydiving, Interests, Watercolor",41.9175,-95.3951
William,Li,M,F,32,"Dancing, Surfing, Ballroom dancing, Escape rooms",40.3627,-75.9565
Melissa,Vazquez,F,B,26,"Rappelling, Skateboarding, Hang gliding",30.1291,-93.9967
Jose,Howard,M,F,27,"Diving, Meditation, Astronomy, Equestrian",40.0618,-77.5231
Melissa,Cobb,F,F,39,Mobile app development,39.1453,-84.0063
Barry,Wright,M,B,20,"Guitar, Rugby, Food criticism",27.4764,-82.543
Michael,Gutierrez,M,M,39,Kickboxing,38.5422,-79.7859
Robert,Carlson,M,M,35,"Badminton, Floristry, Weightlifting",36.9631,-93.7936
Megan,Rogers,F,F,36,Billiards,41.3789,-72.4411
James,Matthews,M,M,29,Hunting,47.328,-93.294
Angela,Figueroa,F,B,28,"Astrophysics, Nature, Snowboarding, Stand-up comedy",37.625,-97.26
Veronica,Cortez,F,B,19,Rugby,39.2227,-93.065
Robert,Flores,M,B,29,Diving,38.0013,-79.8239
Rhonda,Green,F,M,26,Puzzle solving,34.5374,-101.7741
Monica,Esparza,F,B,38,Yoga,34.869,-89.689
Crystal,Peterson,F,M,30,"Baseball, Salsa, Stand-up comedy, Interior design",29.6657,-81.2138
Valerie,Everett,F,F,25,"Hang gliding, Knitting",31.1068,-97.3891
Kristin,Delacruz,F,B,32,Orienteering,38.8806,-88.7128
Deanna,Barrett,F,B,20,Bouldering,48.9162,-103.2966
Patrick,Powers,M,M,25,"Polo, Literature",42.2047,-86.1661
Timothy,Parks,M,M,22,Data analysis,28.6984,-81.4251
Keith,Noble,M,F,34,"Food styling, Nature Photography, Watercolor",31.6899,-93.6832
David,Scott,M,F,25,"Hiking, Fitness",29.4479,-82.468
Heather,Rogers,F,M,24,"Video editing, Jogging, Calligraphy",35.6431,-101.5964
Jeffrey,Anderson,M,F,27,"Skydiving, Mobile app development, Darts, Card games",42.0119,-76.5406
Robert,Vargas,M,M,34,"Travel, Rock climbing, Computer programming",35.3187,-92.4253
Christine,Walls,F,M,32,"Photography, Food criticism, Computer programming",32.856,-116.904
Christopher,Lee,M,M,39,"Escape rooms, Food criticism",39.4535,-85.663
Tracy,Hodge,F,M,33,"Poetry, Astronomy, Polo",32.9598,-87.1334
Rachel,Gardner,F,F,34,"Diving, Soccer, Golf",41.4196,-80.0755
Christopher,Bailey,M,B,26,"Bowling, Darts",32.4522,-99.8665
Daniel,Osborne,M,F,37,"Ceramics, Kayaking",38.2875,-81.833
Michele,Le,F,M,19,Journalism,44.2029,-103.3433
Justin,Lee,M,F,23,Hunting,40.8266,-93.6068
Pam,Smith,F,B,37,"Tennis, Teaching, Pottery, Choreography",40.0917,-75.1652
David,Gibson,M,B,34,"Self defense, Choreography, Kiteboarding, Martial arts",32.8017,-116.9604
Jeremy,Myers,M,F,34,"Poetry, Sculpting, Orienteering, Bar tending",34.3579,-86.0037
Jessica,Moore,F,F,25,"Baking, Football, Ballroom dancing, Squash",37.051,-122.0533
Ryan,Conner,M,B,25,"Hiking, Art",44.8208,-119.4209
Melissa,Reed,F,B,39,"Rock Climbing, DJing, Pinball, Soccer",45.6636,-93.9096
Bernard,Thompson,M,B,38,"Watercolor, Gaming, Pottery",40.0462,-105.3097
Shannon,Murphy,F,B,30,"Rappelling, Marketing, Pilates, Letterboxing",34.7904,-82.6961
Jamie,Gonzales,F,M,19,Fishing,37.666,-77.4838
Jared,Ferrell,M,B,37,"Stock trading, Journalism, Fitness",34.1573,-117.6592
William,Moore,M,F,23,Web design,31.4126,-109.9178
Joseph,Carter,M,F,32,Escape rooms,45.4319,-97.2868
Jenny,Taylor,F,M,18,"American football, Calligraphy, Escape rooms",41.8464,-94.4303
Patrick,Parker,M,B,26,"Mixology, Board games, Geocaching, Tennis",40.3948,-89.9407
Raymond,Johnson,M,B,33,"Escape rooms, Billiards",44.0564,-123.1174
Adrian,Hill,M,F,29,Biking,40.7041,-111.5434
Glenda,Reyes,F,M,26,"Roller hockey, Triathlons",40.6389,-73.1949
Eric,Elliott,M,F,28,"Muay Thai, Nature Photography",36.2647,-89.1948
Kimberly,Hanson,F,M,37,"Stand-up comedy, Mathematics, Road cycling",40.9748,-80.3456
Maria,Stewart,F,F,33,"Reading, Escape rooms",40.3029,-75.967
Carolyn,Clarke,F,F,28,"Nature, Baking, Fitness, Treasure hunting",42.8931,-90.9264
Robin,Coleman,F,M,27,"Skiing, Swimming, Sculpting",48.2054,-97.338
Wendy,Campos,F,B,18,"Puzzle solving, Board games",37.8989,-94.2307
Shannon,Davis,M,F,37,Meditation,42.2273,-111.4032
Rebecca,Contreras,F,B,20,"Sculpting, Theatre, Football, Cycling",42.6194,-91.7295
Breanna,Stewart,F,M,20,"Paragliding, Soccer, Improv, Gymnastics",27.4901,-99.3684
Susan,White,F,B,34,"Snowboarding, Marketing, Art",40.5903,-98.5069
Amber,Rollins,F,B,21,"Blacksmithing, Treasure hunting, Badminton",47.4005,-93.0828
Emma,Smith,F,F,33,"Skateboarding, Running",41.9189,-85.9143
Jennifer,Leonard,F,M,25,"Art, Sculpting, Windsurfing",41.3474,-97.059
Darius,Alvarado,M,F,20,"Surfing, Gaming, Rock climbing",35.0635,-94.2373
Bradley,Edwards,M,M,24,"Wine tasting, Marketing, Soccer, Web design",33.2614,-112.3622
Robert,Anthony,M,M,35,"Calligraphy, Advertising",43.7143,-86.1259
Mark,Reyes,M,F,24,"Martial arts, American football, Judo",46.7916,-117.2511
James,Carroll,M,M,25,"Woodworking, Badminton, Shuffleboard",42.6504,-112.1901
Matthew,Gay,M,M,31,"Cooking, Orienteering, Marketing",37.4358,-96.767
Lisa,Barber,F,M,31,"Field hockey, Puzzle solving, Computer programming",34.3657,-85.5322
Jamie,Nguyen,F,M,38,"Geocaching, Roller hockey, Surfing",43.0772,-75.7097
Alicia,Taylor,F,B,20,"Mixology, Badminton, Lacrosse, Writing",41.8072,-87.8741
Thomas,Castillo,M,M,37,"Journalism, Roller hockey, Table tennis",43.0748,-96.1707
Benjamin,White,M,F,26,"Improv, Advertising",42.3642,-85.2664
Cynthia,Wong,F,M,26,"Literature, Horseback riding, Video games",40.0217,-98.0618
Tonya,Davis,F,M,32,"Stock trading, Data analysis, Fashion design, Guitar",31.3614,-109.5662
Leah,Schultz,F,M,21,"Theater, Escape rooms, Kiteboarding, Skiing",42.3368,-98.2411
Brandon,Murphy,M,F,18,Surfing,38.9855,-89.7629
Allison,Gomez,F,M,21,"Filmmaking, Synchronized swimming, Self defense, Cooking",44.7648,-93.6537
Paul,Cannon,M,M,22,Water polo,35.5823,-94.8186
Russell,Hawkins,M,M,30,"Kiteboarding, Dancing, Triathlons",39.5638,-98.6916
Angela,Arnold,F,F,31,"Pottery, Theater, Blacksmithing",34.6692,-99.7736
Calvin,Kelley,M,B,31,"Horseback riding, Stand-up comedy",41.7636,-81.143
Amanda,Ashley,F,M,39,Hunting,42.3575,-94.0535
David,Henson,M,F,31,Orienteering,39.753,-74.1095
Benjamin,Hopkins,M,M,29,Astrophysics,39.3538,-78.0552
Samantha,Davis,F,B,33,"Singing, Fashion design, Letterboxing, Ceramics",29.298,-94.9159
Victoria,Hughes,F,M,32,"Hunting, Skateboarding, Squash",45.5704,-117.5286
William,Conley,M,F,34,"Investment banking, Puzzle solving",66.6469,-143.7821
Matthew,Edwards,M,M,27,Mathematics,38.9345,-95.0956
Dustin,Holt,M,M,19,Skiing,45.5131,-121.5921
Gina,Wade,F,B,34,"Football, Letterboxing, Ice skating, Ethical hacking",46.4462,-90.1983
Olivia,Alexander,F,M,25,"Muay Thai, Squash, Ceramics",42.7824,-85.1374
Carrie,Davis,F,F,28,Jogging,38.2049,-85.5701
Leslie,Garrett,F,F,33,"Badminton, Stock trading",44.4488,-90.834
Rachel,Perkins,F,F,30,"Pinball, Theatre",39.0138,-97.9755
Rachael,Davis,F,B,34,Jazz,41.5012,-73.4669
Thomas,Hunt,M,F,34,"Volleyball, Billiards, Watercolor, Yachting",36.1649,-105.9857
Chelsea,Arellano,F,M,30,"Polo, Hunting, Snowboarding",33.539,-86.9401
Emma,Young,F,F,25,"Road cycling, Hang gliding, Music",41.2244,-103.1905
Ian,Schaefer,M,F,22,"Fitness, Roller hockey, Orienteering, Filmmaking",41.5385,-73.8723
Brianna,Payne,F,F,38,Guitar,42.4798,-91.5915
Brittany,Woods,F,M,35,Glassblowing,38.8136,-92.5906
Sara,Clayton,F,M,21,"Theater, Stand-up comedy, Gardening, Windsurfing",39.2333,-74.6859
Edward,Vazquez,M,M,24,"Astrophysics, Ballroom dancing, Marathons, Dancing",39.494,-84.2852
Michael,Delacruz,M,M,34,"Paragliding, Filmography",18.0595,-66.7206
Jacqueline,Buckley,F,M,35,"Cybersecurity, Bar tending",40.965,-91.6266
Mark,Vance,M,B,24,"Acting, Escape rooms",39.326,-76.0424
Veronica,Flores,F,F,38,"Ballroom dancing, Poetry, Muay Thai, Gaming",40.6781,-73.0709
Lauren,Reese,F,M,39,"Synchronized swimming, Kiteboarding, Landscaping, Air hockey",29.5873,-82.9245
Andrea,Fields,F,F,18,Water polo,41.1922,-95.4266
Shane,Knight,M,M,30,"Knitting, Ceramics, Journalism, Polo",28.4042,-82.5468
Amy,Mora,F,F,38,"Reading, Cycling",36.6236,-82.5632
Adam,Stephenson,M,M,30,"Theatre, Video games, Horseback riding, DJing",41.3272,-75.7888
Nathan,Brown,M,F,37,"Field hockey, Mixology, Surfing, Video editing",28.627,-81.4354
Joseph,Hunt,M,F,32,"Food criticism, Volleyball",38.4832,-121.4043
Carmen,Phillips,F,B,26,"Singing, Martial arts",38.8676,-106.9773
Phillip,Robles,M,M,33,"Salsa, Writing, Kickboxing, Air hockey",37.509,-82.1605
Sue,Jones,F,B,36,"Snowboarding, Synchronized swimming",31.6547,-93.1999
Thomas,Griffin,M,F,26,"Poetry, Road cycling, Art history, Pinball",34.2886,-118.4362
David,Vaughn,M,F,37,"Astrophysics, Computer programming, Rock Climbing",38.6615,-86.4517
Charles,Hudson,M,M,27,Table tennis,18.4412,-66.2156
Cynthia,Smith,F,M,19,"Biking, Karate",31.3892,-95.4724
Colleen,Jenkins,F,B,38,Advertising,36.9552,-87.7089
Diane,Reyes,F,B,25,"Writing, Shuffleboard, Biking, Squash",41.3196,-81.6779
Megan,Hensley,F,B,33,"Rugby, Food criticism, Roller hockey",43.4403,-96.3314
Charles,Thompson,M,F,18,"Table tennis, Singing",33.6178,-83.0751
Elizabeth,Lee,F,B,35,"Fitness, Biking, Hunting",36.8285,-82.4681
Alyssa,Russell,F,F,35,Calligraphy,31.9113,-94.6826
Jacob,Marsh,M,B,22,"Woodworking, Food criticism",41.3362,-89.2038
Noah,Smith,M,B,28,"Baking, Board games",34.3199,-111.3051
Paul,Mcknight,M,M,22,"Baseball, Escape rooms, Art",37.5734,-81.4146
Michelle,Salazar,F,M,25,"Journalism, Filmography, Snowboarding, Road cycling",38.6703,-91.56
Timothy,Gray,M,B,25,Water polo,38.9342,-92.7029
Michael,Carter,M,B,22,"Web design, Biking",43.7864,-116.9429
Kimberly,Perry,F,B,35,"Rappelling, Boating, Equestrian",42.4068,-82.8993
Christina,Lawrence,F,B,25,"Nature Photography, Photography, Blacksmithing, Marathons",40.9276,-99.3901
Charles,Perez,M,F,19,"Reading, Ceramics, Nature",41.6854,-93.9816
Jacob,Bowen,M,B,21,"Rock climbing, Rugby, Sailing",35.2678,-82.4526
Gregory,Jackson,M,B,28,"Judo, Cooking, Hiking, American football",33.7753,-96.4072
Max,Graves,M,B,25,Field hockey,37.932,-85.3839
Edward,Russell,M,F,32,"Pool, Road cycling, Air hockey, Rappelling",35.0349,-92.6945
Brittany,Montgomery,F,F,31,"Sculpting, Nature, Food criticism, Cycling",40.9261,-96.2809
Janice,Clark,F,B,24,"Darts, Fishing",45.2946,-108.9167
Paul,Woods,M,M,33,Interests,40.67,-74.7443
Melanie,Scott,F,F,29,"Nature Photography, Floristry",36.0459,-85.2069
Andrea,Anderson,F,M,20,"Bowling, Kiteboarding, Karate, Guitar",42.7526,-74.1088
Robert,Figueroa,M,M,24,"Football, Singing",33.871,-101.5974
Amy,Johnson,F,F,28,Astronomy,39.9792,-77.2276
Brandon,Thompson,M,M,38,"Basketball, Jogging",36.6211,-119.3188
Lori,Lopez,F,M,30,"Art history, Windsurfing, Snowboarding",43.7341,-91.9238
Zachary,Buck,M,F,33,Journalism,37.0854,-89.1628
Catherine,Mack,F,B,21,"Ballroom dancing, Rappelling, Soccer",43.2221,-96.4876
Victoria,Henry,F,F,19,"Ceramics, Paragliding",35.9802,-106.0352
Gabrielle,Maldonado,F,F,33,"Darts, Data analysis",42.1978,-88.2538
Jessica,Baker,F,B,29,"Letterboxing, Darts, Biking, Hunting",40.9663,-81.844
Albert,Alexander,M,B,23,"Music production, Rock climbing, Reading",38.6377,-90.3815
Sarah,Erickson,F,B,31,Rock climbing,34.5974,-82.7493
Steven,Mitchell,M,F,34,Hunting,20.9062,-156.3677
Amanda,Mckinney,F,F,25,Blacksmithing,39.3623,-112.5471
Dustin,Espinoza,M,F,30,"Improv, Knitting",35.783,-89.1168
Travis,Kennedy,M,M,29,"Muay Thai, Orienteering, Boxing, Writing",34.7089,-85.2815
Sandra,Maldonado,F,B,39,"Filmmaking, Diving, Jujitsu",39.8515,-75.1988
Chad,Moreno,M,B,22,"Hang gliding, Martial arts, Yoga",39.9664,-87.2782
Robin,Wilson,F,M,21,"Music, Meditation",39.4539,-99.0981
Danielle,Foley,F,F,26,"Karate, Martial arts, Interior design",38.9436,-83.654
Adrienne,Vaughn,F,M,18,"Rugby, Self defense",32.3675,-95.6983
Alexander,Bowen,M,B,32,"Sewing, Blacksmithing, Biking, Rugby",44.896,-85.9899
Elizabeth,Wells,F,M,38,Physics,40.6871,-95.5686
Brian,Williams,M,B,25,"Guitar, Food styling, Art",28.8007,-82.3371
Jessica,Sawyer,F,F,26,Jazz,37.4626,-85.899
Eric,Lynn,M,B,32,"Paragliding, Salsa, Watercolor",46.9104,-117.0751
Denise,Simmons,F,B,23,Choreography,65.0187,-150.6453
Jenna,Oconnell,F,F,27,Wine tasting,43.002,-84.8473
Tara,Hart,F,F,30,"Marathons, Kickboxing, Nature, Yoga",40.4536,-80.2499
Anne,Thompson,F,F,30,"Boating, Boxing, Ceramics",33.4801,-80.4852
Nathan,Williams,M,M,38,Photography,37.4993,-91.8618
Timothy,Wright,M,B,35,"Physics, Card games",39.3795,-74.6481
James,Richardson,M,F,34,"Investment banking, Martial arts, Skiing",33.6335,-98.0164
Gregory,Crawford,M,M,22,"Carpentry, Astronomy, Filmography, Football",30.3854,-86.3442
Sean,Diaz,M,F,27,"Bowling, Watercolor",41.0647,-80.0419
Juan,Smith,M,M,37,"Ballroom dancing, Running",39.2359,-75.1701
Marcus,Briggs,M,M,36,DJing,36.8867,-90.8483
Stacey,Saunders,F,F,25,"Badminton, Financial analysis",43.5348,-89.9965
Anne,Weaver,F,M,23,"Food criticism, Food styling",40.711,-77.9924
Tommy,Chapman,M,F,31,Mathematics,40.8785,-80.7624
Linda,Perez,F,F,25,"Pilates, Theater, Salsa",32.5823,-80.1738
Elizabeth,Morris,F,M,28,Singing,31.9011,-84.2552
Heather,Taylor,F,M,35,"Judo, Meditation, Fitness, Bouldering",34.3151,-97.0383
Tiffany,Johnson,F,M,39,"Fishing, Gaming",39.501,-80.5549
Lori,Moore,F,F,21,Music production,43.4547,-96.4363
Derek,Flores,M,B,28,"Computer programming, Astronomy",44.0431,-82.9945
Anthony,Caldwell,M,M,30,"Ballet, Choreography, Synchronized swimming",41.9837,-79.3395
Carlos,Chavez,M,F,22,"Sewing, Floristry",40.9836,-79.6131
Jeremiah,Garrett,M,B,19,"Bar tending, Writing",36.0567,-106.1185
Stephanie,Johns,F,F,21,"Financial analysis, Video editing, Meditation, Sketching",31.1085,-92.2406
Renee,Mercer,F,M,23,"Calligraphy, Art history, Art",38.6617,-96.4909
Madeline,Hoffman,F,F,32,"Reading, Woodworking",40.2099,-80.1263
Leslie,Mcgee,F,B,38,Board games,35.9568,-97.2396
Sue,Lopez,F,B,23,Road cycling,41.6692,-70.2005
Katrina,Hernandez,F,M,31,Data analysis,26.2448,-97.7257
Maria,Wallace,F,F,34,"Kiteboarding, Martial arts",38.1166,-81.0112
Evelyn,Snyder,F,B,24,"Knitting, Treasure hunting",45.6116,-95.5322
Nicole,Mitchell,F,B,36,Hunting,40.7961,-76.2235
Whitney,Mcdonald,F,M,21,Diving,44.377,-73.13
Rick,Howard,M,M,37,Acting,45.387,-92.8477
Wayne,Griffin,M,B,29,Pottery,43.1786,-93.6949
Karen,Oconnor,F,F,36,"Pottery, Escape rooms",43.477,-121.69
Amy,Lawrence,F,B,34,"Squash, Shuffleboard",30.5215,-93.0428
Jennifer,Sosa,F,F,31,"Literature, Pool, Ethical hacking, Drawing",44.0777,-116.1278
John,Russo,M,M,34,"Pottery, Sculpting, Ballroom dancing",41.3196,-84.0353
Mark,Alexander,M,F,18,"Bouldering, Literature, Surfing",26.316,-98.6547
Matthew,Hall,M,B,32,Art,34.9777,-85.2539
Johnny,Mccann,M,F,36,"Computer programming, Carpentry, Horseback riding",39.6319,-78.9515
Dustin,Fernandez,M,F,36,Lacrosse,39.6562,-77.9304
John,Carpenter,M,B,19,Fishing,36.3502,-77.3058
Joshua,Cole,M,B,30,Photography,40.799,-73.6799
Julie,Smith,F,F,25,Pool,40.179,-83.439
Rhonda,Hays,F,F,32,"Boating, Marketing",35.0582,-97.4923
Brenda,Guzman,F,M,25,"Theater, Food styling, Literature, Ceramics",43.2911,-84.5956
Colin,Johnson,M,F,23,"Computer programming, Reading, Gymnastics",33.6264,-91.9294
Thomas,King,M,M,18,"Nature, Physics, Table tennis, Astronomy",28.939,-81.4308
Emily,Weber,F,M,20,"Table tennis, Sketching, Biking, Wrestling",35.2958,-83.1955
Alexander,Ross,M,M,19,Martial arts,43.9584,-111.7587
Kelly,Larson,F,F,18,"Cybersecurity, Singing, Sculpting, Fitness",43.1811,-91.8679
Brian,Cooper,M,B,37,"Painting, Nature Photography",40.9436,-75.439
Richard,Martin,M,M,22,Board games,27.7084,-80.3851
Valerie,Jones,F,B,23,"Singing, Gymnastics, Advertising, Skiing",34.5534,-106.742
Jason,Oneill,M,B,37,Painting,46.1397,-98.0871
Jennifer,Wallace,F,F,36,"Horseback riding, Ice skating, Ceramics",32.6649,-117.1604
Kathryn,Page,F,M,36,Water polo,41.5776,-95.3308
Nicole,Ortega,F,M,38,"Singing, Jujitsu, Cybersecurity",42.0702,-123.7077
Joshua,Vaughn,M,F,24,Advertising,36.1929,-105.6755
Luis,Boyer,M,F,31,Advertising,38.3933,-86.9402
Anthony,Patterson,M,B,18,Swimming,31.7096,-83.6528
Amanda,Woods,F,B,31,Pool,36.872,-101.5747
David,Henry,M,M,24,"Stock trading, Music production, Pottery, Tennis",30.246,-92.5135
Lisa,Martin,F,F,35,Physics,38.9092,-91.4529
Gabriel,Jones,M,B,35,Boxing,32.9139,-97.7343
Janet,Hunt,F,F,28,"Triathlons, Journalism, Squash",39.6076,-75.9414
Amanda,Stevens,F,F,38,"Tennis, Video games",38.8874,-98.8514
Alexandra,Martin,F,M,37,"Shuffleboard, Geocaching, Financial analysis, Theater",40.6381,-77.273
Carla,Duncan,F,F,18,Improv,35.2522,-81.6636
Brianna,Ortiz,F,B,34,Running,38.6217,-89.3734
Darin,Carter,M,B,25,"Filmography, Roller hockey, Interior design",42.1159,-86.4488
Nathaniel,Ellis,M,B,35,"Rappelling, Mobile app development, Painting",44.1619,-72.4733
Jacob,Sullivan,M,M,39,"Rugby, Martial arts, Singing",35.7225,-90.2321
Laurie,Simon,F,M,23,"Lacrosse, Puzzle solving, Gaming, Martial arts",47.1205,-124.1721
Victor,Hayes,M,B,35,"Interior design, Windsurfing, Paragliding, Dancing",42.9793,-117.0574
Steven,Knight,M,F,29,"Synchronized swimming, Art",46.5453,-110.9039
Cynthia,Burns,F,M,33,Skiing,39.8313,-81.1646
Kayla,Carter,F,F,26,"Advertising, Horseback riding, Woodworking, Music production",44.8906,-89.5487
Samantha,Lee,F,B,23,Roller hockey,47.9525,-122.1669
Aaron,Garcia,M,B,26,Self defense,36.7899,-81.7726
Barbara,Singleton,F,F,22,"Marketing, Polo, Sketching, Music",41.5394,-75.5315
Douglas,Wood,M,F,32,"Food criticism, Billiards",42.719,-73.75
Justin,Fleming,M,M,25,"Bowling, DJing",41.5603,-74.1879
Brad,Simmons,M,M,24,"Board games, Darts, Art",32.405,-94.7102
Sean,Archer,M,B,39,"Gaming, Tennis, Mathematics",40.7047,-94.3608
Angela,Lopez,F,B,25,"Journalism, Drawing, Salsa",36.5528,-121.9222
Megan,Myers,F,M,30,"Marketing, Blacksmithing",36.055,-98.5884
Robert,Brown,M,F,29,"Fishing, Pottery",35.4689,-119.2687
Matthew,Molina,M,B,35,Landscaping,39.6273,-90.2257
Collin,Holt,M,B,35,"Reading, Video games",40.221,-85.7718
Edward,Vega,M,M,38,Golf,40.7797,-86.7719
Stephanie,Alvarado,F,M,28,Judo,33.3568,-93.4955
Adam,Willis,M,B,18,Kayaking,42.7274,-87.8135
Kimberly,Morrison,F,B,21,"Video games, Sculpting, Martial arts, Movies",28.029,-97.0722
Victoria,Walker,F,M,34,Video editing,21.9721,-159.3564
Dale,Jordan,M,M,27,"Yoga, Jujitsu, Card games, Ice skating",44.5712,-91.6668
Renee,Harris,F,F,31,"Rugby, Journalism, Kiteboarding",40.4313,-79.8839
Joseph,Coleman,M,M,21,"Skiing, Polo",41.0176,-76.4968
Matthew,Martinez,M,M,28,"Sailing, Computer programming, Synchronized swimming",41.6071,-88.5454
Matthew,Flores,M,F,20,"American football, Cooking, Kickboxing",30.9185,-99.7837
Michael,Miller,M,B,37,Judo,33.0564,-110.9074
Kevin,Ross,M,M,21,Wine tasting,29.6513,-95.5874
Omar,Spence,M,M,19,"Music production, Literature, Geocaching, Volleyball",40.1043,-84.6209
Richard,Hahn,M,B,24,Nature,48.8445,-95.7625
Morgan,Coleman,F,F,22,"Rugby, Food criticism, Geocaching, Improv",41.8808,-72.8111
Mitchell,Petty,M,B,26,"Shuffleboard, Physics",37.3727,-80.858
Sherri,Rogers,F,F,24,Carpentry,37.1491,-90.697
Hannah,Castillo,F,F,38,"Board games, Filmography, Kayaking",42.752,-92.7957
Kathy,Maxwell,F,M,32,"Shuffleboard, Art history, Stand-up comedy",37.2915,-77.2985
Kristin,Bryant,F,F,31,"Rock Climbing, Glassblowing",40.6054,-88.9891
Megan,Short,F,F,24,"Drawing, Football, Orienteering",40.1898,-75.434
Paula,Patterson,F,B,38,Fashion design,35.3168,-111.5507
Jason,Mcdaniel,M,B,29,Financial analysis,32.1453,-111.048
Benjamin,Collier,M,M,21,Card games,18.3599,-66.0096
Kevin,Henderson,M,M,28,"Theatre, Darts, Water polo",36.2949,-119.7983
Julie,Cooke,F,B,18,"Treasure hunting, Horseback riding",41.9902,-92.5803
Lacey,Thompson,F,F,36,Web design,45.3231,-94.204
Connor,Fisher,M,F,26,"Stock trading, Filmography",28.3928,-80.8459
Daniel,Wilson,M,F,25,"Surfing, Self defense, Acting",33.0274,-85.0384
Elizabeth,Davis,F,M,22,Sewing,35.1159,-86.8036
Audrey,Price,F,M,37,Theater,18.2539,-66.0658
Annette,Tran,F,B,27,"Baseball, Ceramics",48.0874,-121.9706
Robert,Maynard,M,F,38,Golf,37.7269,-121.4523
Rita,Shepherd,F,M,25,"Meditation, Jujitsu, Bar tending",38.8477,-77.1305
Jordan,Thomas,M,B,23,Diving,47.6017,-122.0416
Alicia,Ferguson,F,B,31,"Photography, Hunting, Art history, Literature",35.5108,-97.3715
Laura,Flores,F,M,18,"Shuffleboard, Skydiving, Literature, Blacksmithing",45.5796,-97.0782
Steven,Ford,M,F,39,"Marathons, Boating, Ceramics",38.2615,-85.6306
Steven,Kent,M,B,38,"Squash, Music production",40.7142,-78.2043
Amber,Olsen,F,B,33,"Knitting, Filmography, Wine tasting, Painting",37.9774,-93.8138
Chad,Chavez,M,F,27,"Air hockey, Video editing, Glassblowing",29.5751,-95.0235
Sharon,Lewis,F,B,36,"Biking, Yoga",35.4993,-94.547
Mark,Kim,M,B,34,"Boating, Jujitsu, Drawing, Sewing",42.1406,-89.4919
Joseph,Johnson,M,B,32,"American football, Squash, Table tennis, Yoga",38.2802,-82.194
Marisa,Robinson,F,B,18,"Hang gliding, Improv, American football, Volleyball",41.4441,-85.2578
Darius,Tate,M,B,26,"Public relations, Skiing, Tennis",39.1254,-91.0574
Derek,Steele,M,M,31,Jujitsu,31.4761,-98.1501
Alejandro,Carlson,M,F,37,"Ice skating, Interior design, Pilates, Web design",40.4454,-75.753
Valerie,Morgan,F,F,31,"Investment banking, Surfing",39.2509,-84.4268
Nicole,Smith,F,B,34,Baseball,38.4397,-120.8587
Claudia,Thompson,F,F,20,"Ballet, Volleyball, Weightlifting",33.2196,-86.882
Nicole,Moore,F,F,30,"Blacksmithing, Road cycling, Self defense, Volleyball",33.6084,-92.7443
Justin,Kelley,M,M,37,"Rappelling, Skiing, Pinball, Art",47.9291,-114.3889
Sharon,Patrick,F,M,26,"Kiteboarding, Road cycling, Guitar, Gardening",34.6764,-82.9252
Katie,Ford,F,B,20,"Sketching, Golf",35.0209,-88.6426
Miguel,Humphrey,M,B,37,Roller hockey,36.4495,-94.1218
Eric,Beasley,M,M,21,"Food criticism, Guitar, Badminton, Jujitsu",34.3962,-119.5118
Stacy,Brown,F,M,25,"Computer programming, Squash, Woodworking",32.4236,-104.2903
Jennifer,Richmond,F,B,30,"Advertising, Geocaching, Rappelling, Martial arts",30.4874,-94.7679
Tiffany,Bates,F,F,39,"Bouldering, Photography",43.3087,-100.6306
Dwayne,Quinn,M,M,36,"Hang gliding, Investment banking",44.9259,-93.4056
Melissa,Duncan,F,M,39,"Swimming, Boating",42.6773,-78.7793
Paige,Ritter,F,B,23,"Stock trading, Filmmaking, Shuffleboard",37.3434,-79.9534
John,Moreno,M,M,35,Soccer,45.3933,-92.1452
Jennifer,Adkins,F,F,27,"Guitar, Improv, Basketball",36.9733,-82.7459
John,Alexander,M,F,21,"Ballet, Sculpting, Paragliding, Rappelling",38.5376,-82.7344
Susan,Miller,F,B,26,Astronomy,37.3904,-113.5061
Jason,Hernandez,M,B,23,"Acting, Physics",44.7482,-74.997
Jonathan,Perez,M,B,37,"Geocaching, Skiing, Windsurfing",40.9702,-78.8765
Crystal,Wilson,F,F,23,"Treasure hunting, Snowboarding",48.7428,-113.4275
Anne,Baker,F,M,39,"Food criticism, Cycling, Blacksmithing",47.7238,-122.583
Bradley,Shelton,M,B,37,"Poetry, Biking, Computer programming, Cybersecurity",18.1776,-66.158
Brittany,Brown,F,B,39,Computer programming,43.1817,-111.0347
Steven,Stone,M,B,36,"Weightlifting, Filmography, Rock climbing",47.8257,-98.4382
John,Livingston,M,M,39,"Gymnastics, Card games",37.2957,-89.4869
Karen,Kelly,F,M,36,Yachting,41.2007,-74.206
Jennifer,Ware,F,B,29,"Pool, Art",34.0292,-94.7426
James,Ray,M,M,28,"Jazz, Weightlifting",37.2574,-105.9007
Bryce,Armstrong,M,B,26,Data analysis,48.7997,-118.6119
Nicholas,Tucker,M,F,26,"Mobile app development, Gardening, Public relations, Teaching",43.1282,-92.7399
Charles,Haney,M,B,35,"Board games, Rock Climbing, Acting",41.2279,-73.9259
Aaron,Brown,M,F,30,"Writing, Salsa, Travel, Field hockey",35.0849,-80.6349
Paige,Kelly,F,M,20,Snowboarding,43.1521,-88.1605
Michael,Cooper,M,B,24,"Boxing, Choreography, Cybersecurity, Bouldering",30.4667,-83.6352
Cody,Myers,M,F,33,"Art history, Journalism, Music, Knitting",33.7783,-118.3509
Melissa,Schmidt,F,B,37,"Cybersecurity, DJing, Guitar",38.6085,-76.9194
Robin,Vargas,F,F,36,"Card games, Sketching, Advertising",40.6942,-92.2739
Ethan,Meadows,M,M,24,"Surfing, Geocaching, Skiing, Data analysis",34.4429,-92.1844
Kellie,Baker,F,M,18,"Pottery, Literature",33.6457,-84.9254
Sherry,Miller,F,F,19,"Lacrosse, Windsurfing, Food criticism",41.9177,-74.0337
Bob,Dorsey,M,M,39,"Golf, Sketching, Theater",40.3626,-74.0046
Katherine,Joseph,F,F,38,"Filmmaking, Investment banking, Jazz, Skiing",33.5391,-89.1275
Karen,Garza,F,F,29,"Sketching, Music production, Pilates",41.3465,-90.2827
Rachel,Lopez,F,M,38,Fashion design,38.5841,-75.7893
Oscar,Williams,M,B,19,"Billiards, Literature, Carpentry",41.5316,-81.41
Scott,Hernandez,M,B,35,"Writing, Judo",40.9405,-73.9596
Haley,Jackson,F,B,28,Biking,35.7911,-105.9432
Kristen,Abbott,F,F,30,Lacrosse,35.4818,-88.7306
Kevin,Schroeder,M,F,26,"Ballroom dancing, Baseball, Kayaking, Equestrian",38.641,-96.102
Monica,Ryan,F,B,37,Singing,34.2236,-83.8851
Richard,Weber,M,B,24,"Astronomy, Gymnastics, Advertising, Horseback riding",45.5577,-96.7139
William,Wong,M,B,20,"Video games, Mathematics, Drawing, Singing",40.6135,-122.4606
Pamela,Schmitt,F,B,18,Bouldering,26.7114,-81.695
Sara,Cisneros,F,B,22,Rock climbing,42.2596,-89.064
Mark,Burnett,M,F,32,Jogging,47.9875,-122.0748
Jeffrey,Curry,M,F,19,"Rock Climbing, Running, Fitness, Triathlons",47.6017,-122.0416
Lori,Mcguire,F,B,30,Ethical hacking,38.6512,-88.044
Diana,King,F,M,33,"Volleyball, Treasure hunting, Karate",41.7692,-80.8556
Justin,Walker,M,M,35,Rock Climbing,37.2608,-81.2143
Kathryn,Herrera,F,M,39,"Snowboarding, Pottery, Soccer, Video editing",30.0741,-90.5557
James,Mcfarland,M,F,28,Journalism,37.1341,-122.1272
Sarah,Melton,F,B,36,Hiking,48.4878,-122.6292
Hector,Bennett,M,B,19,"Interior design, Ethical hacking, Pinball, Snowboarding",31.924,-92.6425
Parker,Herman,M,F,36,Drawing,33.518,-83.7348
Brian,Rodriguez,M,M,33,"Orienteering, Board games, Acting",39.3641,-74.9284
Rachel,Stone,F,F,30,"Astrophysics, Cooking",39.603,-95.7189
Margaret,Davis,F,M,39,"Woodworking, Hiking",39.0871,-77.0404
Nathan,Williams,M,B,31,"Boxing, Public relations, Kayaking, Skydiving",47.4115,-115.512
Michael,Brandt,M,F,21,"Cooking, Card games",37.9624,-98.5995
Stephanie,Martin,F,B,28,"Pottery, Paragliding",43.3735,-93.1085
Caleb,Boyd,M,F,34,"Landscaping, Rock Climbing, Hiking, Acting",37.8652,-78.2627
Marie,Rose,F,F,39,"Pool, Video games, Ice skating, Improv",36.1725,-105.7459
Nicole,Lyons,F,F,26,"Hiking, Poetry",46.5063,-108.0862
Sarah,Riley,F,F,22,"Calligraphy, Poetry",39.6562,-106.0869
Eric,Burke,M,F,34,"Skiing, Tennis, Journalism, Yachting",35.6291,-108.7927
Omar,Morgan,M,F,25,"Billiards, Biking",41.5867,-93.4953
Jesse,Cohen,M,M,29,"Meditation, Art",42.4978,-97.5393
Shannon,Miller,F,B,19,"Interior design, Road cycling",40.7833,-73.0234
Louis,Pham,M,B,36,"Sketching, Food criticism, Windsurfing",41.1365,-77.4521
Melissa,Griffin,F,B,30,"Public relations, Gaming",42.4303,-91.3307
Oscar,Yang,M,B,27,Dancing,33.0589,-107.2983
Jeanette,Green,F,M,22,Jazz,44.6483,-121.139
Sarah,Gray,F,M,19,Theatre,39.8613,-81.9087
Sarah,Day,F,M,18,"Kickboxing, Karate",35.9269,-91.9389
Robert,Miller,M,F,33,Food styling,39.9233,-77.2999
Sarah,Robinson,F,F,39,Biking,43.1124,-75.2739
Russell,Hernandez,M,M,32,"Kickboxing, Horseback riding, Diving",39.5694,-84.819
Victor,Cross,M,B,24,"Improv, Roller hockey, Equestrian",39.2556,-84.471
Stephen,Mcdonald,M,F,28,"Yachting, Geocaching, Water polo",47.6686,-117.1036
Brittany,Dawson,F,B,30,"Stock trading, Darts",41.5465,-81.173
Kristi,Shaw,F,B,22,"Kiteboarding, Video games, Board games",47.1438,-122.1408
Elizabeth,Villarreal,F,F,19,"Singing, Road cycling, Movies, Sculpting",29.4332,-97.1734
Tanya,Mccarty,F,B,34,"Polo, Glassblowing, Photography, Astrophysics",41.0088,-76.8507
Daniel,Solomon,M,M,22,"Jogging, Running, Lacrosse",40.8964,-76.1196
Darlene,Hill,F,B,25,"Kiteboarding, Landscaping, Teaching, Football",40.8033,-75.9344
Tara,Parker,F,F,21,"Cycling, Boxing, Ice skating",37.1707,-80.2527
Kyle,Dunn,M,B,18,"Weightlifting, Investment banking, Fashion design",17.9847,-66.3174
Brandi,Ayala,F,F,19,"Hang gliding, Ice skating",41.2525,-75.4795
Kim,Cook,F,B,33,"Mathematics, Landscaping",37.5619,-82.1514
Kristin,Poole,F,B,31,"Volleyball, Video editing, Gymnastics",35.5043,-94.67
Michael,Taylor,M,M,24,"Food criticism, Badminton, Astronomy, Stand-up comedy",39.8175,-89.618
Jesus,Johnson,M,F,22,Snowboarding,46.7407,-92.2282
Kelsey,Chase,F,B,28,"Rock climbing, Music production, Watercolor, Muay Thai",35.8444,-97.9386
Stanley,Owens,M,B,30,"Mathematics, Rock Climbing, Escape rooms",38.4457,-89.2721
Tiffany,Duarte,F,M,29,"Table tennis, Music production, Fashion design, Mobile app development",39.8304,-77.2339
Stacy,Mccarthy,F,F,27,"Knitting, Reading, Movies, Treasure hunting",40.8295,-73.6378
Lori,Mccarthy,F,M,33,"Football, Acting",37.8618,-90.5892
Cindy,Owens,F,F,24,"Theatre, Billiards, Art history, Theater",39.727,-75.2194
Joshua,Johnson,M,F,26,Skiing,39.7198,-111.1623
Emily,Strong,F,B,22,"Equestrian, Diving, Card games, Meditation",32.4609,-85.0877
Robin,Henderson,F,M,28,Singing,18.0656,-66.5687
Walter,Padilla,M,B,26,"Filmography, Watercolor, Road cycling, Billiards",35.4219,-93.7289
Amber,Brown,F,M,20,"Movies, Writing, Computer programming, Mathematics",40.6207,-91.3509
Dana,Williams,F,M,18,"Judo, Skateboarding, Hiking, Ice skating",37.2373,-113.3471
Lisa,Jones,F,B,35,"Polo, Gardening, Improv, Drawing",33.182,-99.1797
Roy,Jones,M,M,18,"Running, Data analysis, Choreography, Triathlons",34.3718,-81.0907
Martin,Cline,M,F,28,"Orienteering, Ethical hacking",35.9481,-110.0981
Donna,Gonzalez,F,F,31,"Web design, Teaching, Rappelling, Filmography",45.5029,-119.822
Marie,Richardson,F,B,35,"Orienteering, Synchronized swimming, Jujitsu",41.4666,-90.717
Timothy,Parks,M,M,22,Jogging,34.0327,-78.0685
Tonya,Sanders,F,B,39,"Marathons, Football, Weightlifting",46.8673,-96.7461
Brandon,Sweeney,M,F,22,Sculpting,45.7283,-121.4853
Karen,Adkins,F,M,28,Web design,38.4458,-86.7978
Jaime,Sanford,F,B,39,"Pinball, Cybersecurity, Rock Climbing, Muay Thai",40.6417,-74.3857
Stephanie,Harper,F,F,36,"Sewing, Art history, Squash, Billiards",42.4517,-71.4035
Crystal,Robinson,F,F,37,Singing,31.1664,-85.9103
Alan,Chavez,M,M,35,"Food styling, Bowling, Pottery",40.4283,-80.1011
Jack,Lopez,M,M,37,"Art, Carpentry",40.7971,-117.7603
Cesar,Wilson,M,M,18,"Improv, Yachting, Mobile app development",39.6748,-89.8473
Caitlyn,Nelson,F,B,18,"Karate, Nature, Darts",41.3482,-89.1371
Terry,Nguyen,M,B,39,"Pottery, Web design, Tennis",44.4378,-96.8906
Elizabeth,Bailey,F,F,36,"Triathlons, Snowboarding, Boxing",38.117,-85.3722
Sarah,Mcintyre,F,F,21,"Cooking, Soccer, Synchronized swimming, Swimming",39.1242,-84.1366
Monica,Shaw,F,B,37,"Video editing, Windsurfing",27.0576,-82.1977
Savannah,Porter,F,M,31,"Cooking, Martial arts, Ballroom dancing",38.8305,-82.136
Jennifer,Taylor,F,M,21,"Bouldering, Woodworking",33.81,-108.6684
Jeremy,Stephenson,M,B,24,"Food styling, Windsurfing, Bar tending",32.7925,-91.4126
Anna,Mercer,F,M,30,"Biking, Kayaking, Ballet, Martial arts",39.8347,-100.1888
Christine,Holden,F,B,34,"Table tennis, Roller hockey, Poetry, Baking",33.447,-85.6746
Michele,Russell,F,M,27,"Boxing, Volleyball, Air hockey, Guitar",39.8837,-86.5416
Kathryn,Hunter,F,F,35,"Kayaking, Singing",45.2442,-98.0992
Matthew,Howard,M,F,34,Web design,34.473,-99.6496
Thomas,Shannon,M,M,28,"Weightlifting, Surfing",41.0003,-77.8142
Mary,Clark,F,B,28,Astrophysics,41.8209,-88.1857
Kayla,Chapman,F,B,24,"Public relations, Diving, Blacksmithing",42.4556,-71.059
Jaclyn,Jackson,F,B,27,Cooking,46.5516,-116.9284
Matthew,Boone,M,F,21,"Hang gliding, Literature",43.2308,-93.9114
Matthew,Brady,M,F,31,"Snowboarding, Fashion design",43.9273,-100.3011
David,Clark,M,F,30,"Interests, Web design, Running, Mixology",32.8619,-91.3911
Paula,Miller,F,B,22,"Pinball, Horseback riding, Ballet",46.0441,-88.3776
Shirley,Hebert,F,F,32,"Hiking, Painting, Snowboarding, Woodworking",36.7555,-108.1823
Kelli,Flores,F,B,22,"Art history, Theatre",45.6919,-120.7434
Amanda,Whitney,F,F,39,Ballet,38.6958,-75.0749
Michael,Riddle,M,F,23,"Sculpting, Astrophysics",31.0128,-86.3505
James,Brown,M,M,26,Public relations,35.1009,-106.2278
Julie,Wheeler,F,M,37,"Journalism, Choreography, Nature Photography",43.168,-77.6162
Jay,Mckinney,M,B,33,"Polo, Advertising",38.6377,-90.3815
Kevin,Weber,M,M,32,"Ethical hacking, Squash, Nature, Puzzle solving",38.3481,-88.5895
Dale,Campos,M,M,26,"Bar tending, Air hockey, Escape rooms, Landscaping",33.4403,-89.5665
David,Mendoza,M,M,33,"Glassblowing, Cycling, Hiking, Reading",34.8257,-82.9158
Frank,Anderson,M,B,32,Muay Thai,37.9063,-95.4076
Brandon,Prince,M,M,26,"Advertising, Soccer, Wrestling",39.6288,-90.6108
Robert,Miller,M,F,37,"Yachting, Choreography, Improv, Calligraphy",39.2715,-75.2316
Helen,Berry,F,B,33,"Wrestling, American football, Mathematics",35.4227,-113.6487
Audrey,Reed,F,M,24,"Gardening, Snowboarding, Teaching, Landscaping",45.3608,-90.2934
Alisha,Haley,F,B,27,"Art, Yoga, Ballet",38.367,-92.216
Denise,White,F,M,35,Hiking,45.5313,-94.2528
Gregory,Sanders,M,M,34,Equestrian,31.8857,-100.2955
Michelle,Blankenship,F,M,30,"Marathons, Theater, Floristry",18.2199,-66.5984
Alice,Meyer,F,B,18,"Jogging, Interests, Improv, Golf",34.0649,-95.0074
Christopher,Leblanc,M,M,39,"Karate, Ballroom dancing, Jujitsu",36.0211,-76.5815
Shannon,Johnson,F,M,23,"Pool, Travel",32.4419,-100.5322
Tammy,Bennett,F,M,24,"Horseback riding, Road cycling, Teaching, Hang gliding",41.4103,-82.3214
Scott,Wiggins,M,F,27,"Pottery, Gaming, Glassblowing, Equestrian",40.7886,-80.1428
Julie,Butler,F,M,28,"Skiing, Volleyball",29.7541,-96.0416
Michael,Moore,M,M,34,"Triathlons, Marathons, Advertising",44.4909,-103.8155
Andrew,Martinez,M,M,23,"Karate, Card games",32.8313,-117.1222
Ronald,Johnson,M,F,18,Financial analysis,38.7516,-82.9351
Crystal,Hubbard,F,B,32,"Woodworking, Bar tending, Nature, Financial analysis",39.6617,-99.5673
Maxwell,Kelley,M,F,32,"Squash, Bar tending, Baseball",39.8254,-75.4253
Bethany,Brown,F,M,24,"Meditation, Jogging",39.1378,-89.8127
Cassandra,Gonzalez,F,M,23,"Self defense, Bouldering",59.34,-151.8464
Vincent,Barnes,M,B,29,"Shuffleboard, Ballet, Boating",32.6622,-98.1231
Linda,Kelley,F,F,33,"Self defense, Skiing, Shuffleboard, Teaching",41.148,-88.8722
Brian,Nguyen,M,M,34,"Muay Thai, Darts, Movies, Squash",36.1868,-79.5051
Julie,Flores,F,B,29,"Sculpting, Literature, Salsa",33.2327,-112.1594
Jessica,Gallagher,F,M,26,"Bowling, Yoga, Pool",40.4152,-104.7706
Miguel,Bowers,M,B,23,"Soccer, Video games, Drawing, Filmmaking",44.9167,-93.5885
Hannah,Johnson,F,M,38,"Pool, Kayaking, Marathons, Basketball",42.1928,-76.8078
Miguel,Wood,M,B,27,"DJing, Letterboxing",46.5886,-97.4944
Jean,Kelly,F,B,28,Self defense,17.9921,-66.4966
Kimberly,Goodman,F,M,24,"Badminton, Food criticism",40.7881,-76.555
Larry,Hunt,M,B,27,"Yachting, Astronomy",41.7181,-92.9072
Shannon,Wilcox,F,M,26,"Fishing, Geocaching",42.7268,-85.1344
Michael,Christensen,M,F,29,"Jogging, Photography, Tennis, Mountain biking",47.3091,-122.3358
Melinda,Brown,F,B,33,"Watercolor, Field hockey, Dancing",44.4337,-97.9885
Kelsey,Cardenas,F,B,26,Treasure hunting,38.8468,-105.1579
Mario,Holmes,M,B,24,"Acting, Puzzle solving",34.0528,-96.3448
Michael,Dalton,M,F,19,"Geocaching, Financial analysis, Sketching, Marathons",40.1036,-99.3657
Christopher,Dunn,M,F,32,"Data analysis, Gardening, Skiing",32.592,-87.5331
Tara,Allen,F,F,32,"Hang gliding, Filmography",38.1906,-94.031
Brian,Molina,M,B,36,"Boxing, Jogging, Marathons",42.3246,-85.2371
Michael,Mccall,M,M,18,"Guitar, Yoga, Movies",35.5924,-75.4662
Maria,Decker,F,B,30,Kayaking,36.4419,-77.0968
Tyler,Cruz,M,B,27,"Cooking, Synchronized swimming",43.7758,-116.2571
Tanner,Jensen,M,M,20,Dancing,48.1814,-103.6364
Daniel,Taylor,M,B,32,"Horseback riding, Mobile app development, Water polo",40.8712,-75.7433
William,Edwards,M,F,39,"Hunting, Marathons, Astronomy",33.9835,-101.3368
William,Tucker,M,M,21,Literature,33.0149,-99.0534
Robert,Le,M,M,39,"Boating, Table tennis",34.6159,-90.1525
Zachary,Green,M,B,21,"Stand-up comedy, Kayaking",34.6451,-82.7818
Steven,Brown,M,M,34,"Marathons, Kiteboarding",30.3802,-88.7581
Derrick,Fuller,M,B,27,Hunting,42.8753,-98.7003
James,Stephens,M,B,34,"Cooking, Boating, Fashion design",47.3667,-122.1045
Adam,Hernandez,M,B,33,"Interior design, Teaching, Table tennis",41.7801,-99.1342
Victor,Rodriguez,M,M,23,Bar tending,28.0821,-97.8828
Nicole,Mejia,F,B,32,"Tennis, Carpentry, Computer programming, Interests",41.9451,-83.2751
Rhonda,Morris,F,F,21,"Writing, Art history, Yachting, Puzzle solving",38.9695,-121.3552
Ryan,Nelson,M,M,36,"Orienteering, Carpentry, Knitting",40.2643,-80.1867
Alexander,Hernandez,M,M,27,"Video editing, Yachting, Kickboxing",44.7926,-83.4223
Mary,Johnson,F,F,35,"Water polo, Marathons",44.9356,-93.7107
Abigail,Armstrong,F,F,29,"Pilates, Martial arts, Nature",37.4984,-76.2883
Amanda,Booth,F,M,33,Yachting,36.2976,-95.9963
Phillip,Ewing,M,M,18,"Yoga, Skateboarding, Improv",48.3708,-114.1902
Melissa,Harris,F,B,21,"Boxing, Snowboarding, Basketball, Ice skating",33.2096,-84.7442
Jerry,Taylor,M,B,35,"Letterboxing, Gardening, Pottery",19.9723,-155.2345
Manuel,Lara,M,B,31,Stand-up comedy,29.3568,-100.7829
Emily,Hoffman,F,M,23,"Food criticism, Nature, Floristry, Improv",43.4371,-124.1961
Allen,Quinn,M,F,34,Cooking,48.24,-122.1638
Karen,Fischer,F,M,30,Painting,43.7653,-89.4599
Jeffrey,Webster,M,M,30,"Financial analysis, Bouldering",32.5576,-110.874
Karina,George,F,M,18,Salsa,40.2486,-95.4545
Lauren,Kim,F,M,30,"Table tennis, Yoga, Reading, Judo",38.4008,-87.5874
Zachary,Parker,M,F,39,"Cybersecurity, Hang gliding",33.3311,-105.5969
Erika,Howard,F,F,22,"Interior design, Bowling, Letterboxing",44.969,-92.4381
Angela,Edwards,F,M,25,Wrestling,44.0117,-97.5246
Steven,Carter,M,B,24,"Marathons, Rappelling, Computer programming, Tennis",46.6219,-111.8973
Laura,Estrada,F,F,39,Baking,48.9929,-111.9668
Lauren,Barton,F,F,26,"Painting, Letterboxing",40.2787,-75.9164
Kristin,Frank,F,B,23,"Rock climbing, Ice skating, Field hockey",33.5806,-102.3635
Amanda,Becker,F,F,28,"Fashion design, Basketball, Investment banking, Astronomy",45.8521,-87.0358
John,Fowler,M,M,30,"Kickboxing, Kiteboarding, Carpentry",32.1364,-88.7958
Travis,Sharp,M,B,24,"Financial analysis, Treasure hunting",37.7196,-75.6673
Rachel,Lee,F,B,33,"Jogging, Nature, Weightlifting, Puzzle solving",38.6901,-83.6055
Jacob,Silva,M,M,19,"Theatre, Interior design, Food criticism, Table tennis",41.5447,-94.9302
Brittany,Castillo,F,B,25,Singing,40.3797,-86.0869
Michael,Simpson,M,M,34,"Self defense, Polo",42.1883,-86.2576
Christopher,Murphy,M,F,26,"Fashion design, Travel",35.5023,-94.9695
Cynthia,Todd,F,B,28,"Mathematics, Travel",41.0178,-84.5853
Rodney,Serrano,M,B,18,"Golf, Food styling, Escape rooms",41.0595,-73.4922
Tony,Morales,M,B,38,"Improv, Triathlons",47.5266,-122.5986
David,Vega,M,F,18,"DJing, Improv",38.7302,-93.5589
Justin,Jones,M,B,22,"Writing, Badminton, Watercolor",40.4149,-87.4773
Amber,Black,F,B,31,"Sculpting, Bouldering, Rock Climbing, Rock climbing",40.3311,-74.5925
Dylan,Williams,M,F,22,"Bouldering, Astrophysics, Web design",40.6948,-81.7021
James,Weeks,M,B,27,"Synchronized swimming, Mountain biking, Filmmaking, Air hockey",40.2594,-87.6112
Chelsea,Byrd,F,B,27,"Table tennis, DJing",41.8029,-76.8607
Michelle,Bailey,F,M,20,"Literature, Shuffleboard",35.2335,-97.3471
Alexandra,Farley,F,B,30,"Web design, Interior design, Cycling, Skydiving",40.9614,-73.1324
Kerri,Williams,F,B,18,Travel,64.7052,-158.2382
Laura,Zhang,F,F,27,Drawing,41.8106,-112.1403
Amanda,Woods,F,M,31,"Water polo, Table tennis, Kickboxing",39.6339,-84.1449
Michael,Campbell,M,M,34,"Paragliding, Squash, Video editing",37.8808,-122.179
Dylan,Bennett,M,F,25,Travel,44.7544,-90.2983
George,Madden,M,F,25,"Tennis, Lacrosse, Cycling, Sketching",32.3001,-87.7926
Sandra,Mills,F,B,20,"Astronomy, Surfing",35.9066,-80.2548
Travis,Foster,M,M,21,"Photography, Polo",38.0097,-87.0316
Elizabeth,Mejia,F,M,28,"Video editing, Data analysis, Ceramics",31.8305,-84.3644
Jeffrey,Jones,M,F,21,"Jujitsu, Rappelling, Ceramics, Cybersecurity",43.3087,-95.7924
Shawn,Mccormick,M,M,39,Letterboxing,38.9996,-84.6797
Jeffrey,Mckee,M,B,21,"Teaching, Polo, Theatre",45.6665,-110.5539
Christine,Garza,F,B,24,"Hiking, Video games, Advertising, Shuffleboard",38.9436,-83.654
Blake,Powell,M,F,34,Ballet,36.1979,-94.9099
Alexander,Carroll,M,F,31,"Journalism, Food criticism, Advertising",33.5434,-111.9595
Kevin,Walton,M,F,28,"Stand-up comedy, Gymnastics",41.5743,-85.8309
Emma,Miller,F,B,23,"Lacrosse, Dancing, Art",33.9357,-79.932
Nathaniel,Hanson,M,M,33,"Jujitsu, Rugby, Ballroom dancing",42.3086,-89.3577
Melissa,Williams,F,B,23,"Web design, Biking, Jujitsu, Astrophysics",37.8471,-94.9755
Justin,Johnson,M,B,36,Kickboxing,43.0167,-95.0367
Robert,Wright,M,F,27,"Meditation, Mixology",32.7783,-104.3931
Christopher,Sims,M,B,18,"Yachting, Basketball",44.9751,-124.0072
Karen,Graham,F,F,35,"Marketing, Paragliding, Kickboxing, Rock Climbing",44.7326,-94.3508
Adam,Garcia,M,F,21,Kickboxing,40.8691,-96.1399
Jennifer,Rivera,F,F,27,"Cybersecurity, Kayaking, Fishing",43.7155,-98.4837
Heather,Castillo,F,M,33,"Karate, Fishing",40.9792,-91.0458
Matthew,Flores,M,M,38,"Yoga, Escape rooms, Ice skating, Billiards",34.8077,-88.1978
Michael,Riley,M,M,28,"Ballroom dancing, Marketing, Dancing, Cybersecurity",42.9899,-97.8642
Michael,Anderson,M,M,25,Badminton,26.4122,-98.9406
Bradley,Morgan,M,F,28,"Stand-up comedy, Video editing, Road cycling, Ceramics",40.05,-76.2114
Julia,Shaw,F,B,31,Filmmaking,45.2591,-91.8142
Elizabeth,Flores,F,B,28,"Public relations, Cycling",29.4154,-94.9682
Johnny,Bentley,M,B,27,"Painting, Carpentry",36.9824,-82.992
Rhonda,Hamilton,F,F,36,"Rappelling, Hunting",43.7677,-94.0174
Peter,Moore,M,B,35,"Judo, Sailing, Guitar, Jazz",18.0719,-66.7459
Anthony,Smith,M,B,28,"Polo, Literature, Sailing",34.597,-83.7622
Barbara,Gilbert,F,F,32,"American football, Woodworking",38.5063,-122.4682
Tammy,Perez,F,M,39,Meditation,33.8117,-84.2403
Patrick,Knight,M,M,19,"Guitar, Running, Jujitsu, Tennis",41.8727,-85.1915
Crystal,Burns,F,M,22,"Pilates, Food criticism, Board games",39.5792,-89.408
Kevin,Rodriguez,M,M,27,"Geocaching, Diving, Cooking, Writing",43.9071,-100.0583
Jennifer,Erickson,F,M,39,"Astrophysics, Rappelling",44.4667,-119.5322
Brandon,Blair,M,M,19,"Choreography, Public relations, Drawing",40.8036,-76.4643
Natalie,Barr,F,M,29,"Board games, Investment banking, Kayaking, Rock Climbing",33.9801,-118.1798
Elizabeth,Wright,F,M,27,"Landscaping, Interests",40.5903,-74.4656
Alexander,White,M,B,27,"Air hockey, Ballet",43.1432,-88.53
Amanda,Rojas,F,B,22,Soccer,32.9735,-93.9966
Kayla,Carter,F,B,26,"Boating, Cooking, Polo",42.964,-71.6389
Andrew,Jones,M,F,36,Cycling,37.8613,-88.9993
Sara,Huang,F,F,18,"Boxing, Weightlifting, Field hockey, Wrestling",41.2159,-89.0702
Brittany,Rivera,F,F,27,Martial arts,39.3695,-122.5438
Ronald,Parrish,M,M,20,"Physics, Fishing",39.7619,-95.6342
Roger,Gordon,M,M,23,"Table tennis, Ballroom dancing, Boxing",32.2687,-94.9296
Daniel,Hopkins,M,B,37,"Movies, Bowling",39.1068,-84.7277
Melissa,Cox,F,B,21,"Air hockey, Reading",38.563,-94.1959
Bobby,Freeman,M,F,34,"Card games, Sewing",46.7539,-118.3106
Justin,Gordon,M,M,37,"Fishing, Theatre, Stock trading, Bar tending",39.4864,-87.189
Adam,Ibarra,M,B,39,"Mobile app development, Teaching, Video games",41.7297,-93.3257
Jessica,Meyer,F,F,33,"Blacksmithing, Boxing",27.219,-98.0981
Dawn,Olson,F,B,22,"Improv, Hang gliding, Calligraphy",46.6791,-109.7533
Deborah,Marquez,F,F,27,"Drawing, Sewing, Singing",41.8675,-87.9019
Gregg,Willis,M,F,27,Astronomy,39.3021,-76.4449
Matthew,Combs,M,B,21,"Roller hockey, Pool, Puzzle solving",48.0852,-114.0551
Billy,Bolton,M,B,23,"Boating, Escape rooms, Judo, Soccer",34.9116,-79.7661
Sean,Cook,M,M,21,"Jujitsu, Web design, Basketball, Jogging",35.1072,-82.6182
Erin,Weber,F,M,38,Bouldering,31.557,-102.9066
Ethan,Skinner,M,F,27,"Gaming, Knitting, Pilates, Cooking",41.6034,-75.0563
Denise,Washington,F,F,18,"Shuffleboard, Windsurfing, Guitar, Sailing",46.7766,-88.4966
Wesley,Marshall,M,B,21,"Pilates, Movies, Escape rooms",48.1701,-122.1442
Robert,Norton,M,M,37,"Rappelling, Pilates, Physics, Bar tending",35.2904,-81.5451
Michael,Cole,M,M,29,"Diving, Video games, Rock Climbing",26.6447,-81.9098
Kenneth,Allen,M,B,23,"Cycling, Sewing",42.1828,-94.6923
Brian,Wu,M,F,22,"Field hockey, Kiteboarding, Music, Water polo",32.9762,-96.3175
Nancy,Martinez,F,B,37,Reading,30.9791,-96.6716
Thomas,Hill,M,B,20,Choreography,31.1835,-105.3395
Karla,Smith,F,F,31,"Karate, Carpentry, Journalism",18.3357,-66.4723
Shelley,Morris,F,B,19,"Surfing, American football",33.4008,-83.588
Jesse,Nielsen,M,B,24,"Equestrian, Muay Thai, Table tennis",32.1244,-106.709
Gary,Bird,M,M,32,"Interests, Computer programming",40.9811,-74.9082
Jesus,Day,M,M,21,"Theatre, Basketball, Advertising",37.1236,-77.2249
Jay,Benson,M,B,22,"Martial arts, Cooking, DJing, Choreography",41.0163,-73.9855
Tiffany,Green,F,M,23,Board games,31.944,-94.2457
Michael,Frazier,M,F,26,"Jujitsu, Ballroom dancing, Darts, Floristry",35.9685,-77.804
Kathy,Smith,F,M,38,"Pilates, Escape rooms",41.3077,-93.7337
Kelsey,Brooks,F,F,26,Food criticism,39.243,-75.5155
Samantha,Cox,F,B,32,"Art history, Rock Climbing, Bouldering",40.5662,-112.0977
Lori,Kim,F,F,26,Physics,39.6681,-75.5697
Traci,Weaver,F,F,31,"Rugby, Painting, Wine tasting, Video editing",39.6105,-76.8549
Dana,Johnson,F,F,25,Baking,33.746,-88.4095
Anthony,Wood,M,F,36,Advertising,38.0212,-77.9986
Kristine,Hensley,F,M,19,"Web design, Rock climbing",38.6268,-75.864
Kyle,Benson,M,F,19,"Shuffleboard, Rappelling",40.7804,-74.1829
Rhonda,Miller,F,F,38,"Filmography, Sculpting, Baking",38.7782,-95.188
David,Strong,M,F,25,"Bar tending, Soccer, Stand-up comedy",41.882,-71.5549
Tonya,Franklin,F,F,38,Hiking,36.779,-95.6425
Virginia,Wagner,F,B,31,"Pilates, Basketball, Rappelling",47.7992,-96.7993
Lisa,Velasquez,F,F,19,Judo,70.638,-159.9713
Alyssa,Mcdonald,F,B,33,"Glassblowing, Literature, Yachting",47.4653,-121.7493
Stephen,Leonard,M,F,22,Ballroom dancing,41.3209,-88.5888
Sean,Moon,M,F,34,"Roller hockey, Volleyball, Billiards, Basketball",28.5971,-81.6786
Erin,Bradley,F,B,32,"Music production, Meditation, Fishing, Woodworking",36.0974,-94.9291
Erin,Valentine,F,M,32,Financial analysis,46.8839,-96.0989
Christina,White,F,B,36,"Kayaking, Knitting, Geocaching",40.1699,-75.6599
Gregory,Holloway,M,F,24,Literature,46.8143,-100.7694
Dawn,Castro,F,M,27,"Skiing, Data analysis",41.8852,-88.4606
Catherine,Hernandez,F,B,35,"Dancing, Swimming, Marathons",40.7005,-73.4119
Tasha,Vasquez,F,F,38,"Public relations, Surfing, Financial analysis, Boxing",34.7195,-85.9641
Thomas,Mcclure,M,F,37,"Drawing, Knitting, Soccer",31.5591,-97.296
Ivan,Garcia,M,B,18,Golf,32.2704,-107.674
Travis,Taylor,M,F,28,"Theatre, Treasure hunting",38.7266,-90.3872
Ryan,Walters,M,B,27,"Wine tasting, Advertising, Poetry, Nature",35.9338,-98.59
John,George,M,M,22,Ice skating,46.5335,-88.0627
Jessica,Collier,F,B,22,"Floristry, Improv, American football",38.304,-85.5946
Heather,Brennan,F,F,31,Drawing,33.5112,-93.5679
Megan,Malone,F,B,26,Mountain biking,37.4728,-94.5889
Stephanie,Barton,F,F,35,"Pilates, Ballet, Badminton",37.2433,-94.4394
Laura,Smith,F,F,28,"Rock climbing, Horseback riding",37.7407,-119.5779
Chad,Hernandez,M,F,23,"DJing, Gymnastics, Movies, Treasure hunting",18.0565,-66.5267
Terry,Davis,M,M,39,"Orienteering, Literature, Soccer",43.455,-121.7013
Jack,Williams,M,B,36,"Karate, Physics, Kiteboarding",45.9073,-111.3313
Ashley,Ochoa,F,M,26,"Bouldering, Marathons, Surfing, Kayaking",47.1943,-120.9539
Crystal,Vasquez,F,M,24,Bouldering,42.2531,-79.503
Molly,Thomas,F,F,20,Tennis,26.1303,-97.9956
Carrie,Galloway,F,B,36,"Skiing, Rock climbing, Nature Photography",33.9152,-84.8416
Laura,Hart,F,B,22,"Jazz, Video games, Stock trading",40.4655,-90.0948
Makayla,Wilson,F,B,18,"Hunting, Running, Paragliding",44.1205,-71.958
Ryan,Castillo,M,B,26,"Calligraphy, Tennis, Surfing, Geocaching",47.8816,-120.162
Mark,Lara,M,M,35,"Air hockey, Interior design, Nature, Public relations",33.7464,-86.8042
Dana,Martin,F,F,18,"Pilates, Computer programming, Paragliding, Reading",36.7594,-83.4711
Mary,Bruce,F,F,21,"Travel, Gardening, Poetry, Soccer",31.2385,-89.8828
Amanda,Jones,F,B,29,"Improv, Tennis, Singing, Judo",34.084,-96.616
Philip,Dixon,M,F,19,"Sketching, Wrestling",43.4179,-118.5875
Richard,Page,M,F,26,"Wrestling, Nature Photography, Drawing, Paragliding",40.235,-74.0166
Amy,Jackson,F,B,20,"Marathons, Financial analysis, Golf",40.8966,-76.7933
Joseph,Griffin,M,B,21,"Watercolor, Cooking",35.4555,-114.9204
Glenn,Martin,M,F,39,"Self defense, DJing, Movies, Air hockey",31.2246,-86.2785
Vanessa,Edwards,F,F,18,"Marketing, Weightlifting",39.0144,-76.68
Adam,Smith,M,M,37,"Sketching, Mobile app development, Surfing, Fishing",61.9314,-151.2096
John,Perry,M,F,24,"Biking, Video editing",38.3945,-113.0123
Robert,Davis,M,M,29,"Investment banking, Martial arts, Squash, Air hockey",62.8998,-160.1078
Edward,Briggs,M,F,22,"Orienteering, Yachting, Bowling, Swimming",40.2398,-76.8155
Theodore,Wise,M,M,37,"Floristry, Running, Data analysis",38.5534,-89.9161
Phillip,Williams,M,M,32,"Teaching, Ethical hacking, Surfing",39.1856,-84.3734
Jamie,Herman,F,F,20,"Astronomy, Baseball, Table tennis",39.6401,-77.7217
Jon,Freeman,M,F,36,"Literature, Boxing",41.9314,-88.7481
Jeremy,Brown,M,F,18,"Equestrian, Muay Thai, Self defense, Boating",41.2469,-75.876
Kara,Ashley,F,B,20,"Pinball, Skiing",39.2604,-80.3265
Daniel,Reed,M,B,24,"Billiards, Mixology, Drawing, Dancing",37.8548,-122.0136
Melissa,Mullen,F,F,24,"Financial analysis, Basketball, Bouldering",39.2681,-74.602
Mark,Butler,M,B,22,"Paragliding, Gaming",41.2379,-86.2523
Gail,Park,F,F,18,"Jujitsu, Horseback riding",46.4534,-108.5741
Laura,Morrison,F,B,23,"Fishing, Photography, Escape rooms, Mobile app development",40.3533,-75.9892
Dawn,Shepard,F,M,29,Mixology,40.2511,-100.3105
Hannah,Crosby,F,M,32,"Financial analysis, Pinball, Geocaching",41.2195,-75.8446
Ebony,Davenport,F,B,26,DJing,40.3113,-79.5445
Janet,Gilbert,F,F,31,"Physics, Darts",38.5699,-77.0304
Edward,Roberts,M,B,27,"American football, Drawing, Acting, Data analysis",38.5116,-76.6797
Matthew,Guerrero,M,M,21,"Weightlifting, Poetry",45.8022,-122.5767
Jessica,Williams,F,F,21,Field hockey,35.4606,-94.8072
James,Freeman,M,M,32,"Nature Photography, Gaming",43.5143,-96.2631
Spencer,Anderson,M,M,23,"Skiing, Blacksmithing, Cycling, Art history",38.3144,-85.5264
Brian,Church,M,B,36,Cooking,44.488,-97.4409
Dawn,Rodriguez,F,F,30,Astrophysics,26.054,-97.2505
Joel,Wright,M,B,37,"DJing, Ceramics, Billiards",46.1852,-96.4857
Lisa,Burton,F,F,18,"Escape rooms, Advertising, Badminton, Orienteering",47.6715,-90.6885
David,Kirk,M,B,20,"Singing, Treasure hunting, Jazz",33.9051,-96.2214
Vanessa,Gray,F,M,23,"Glassblowing, Wine tasting, Volleyball, Kickboxing",34.7419,-120.2746
Madeline,Nelson,F,F,31,"Acting, Yoga, Food criticism, Jujitsu",33.5088,-88.4096
Steven,Nelson,M,M,28,"Kickboxing, Skydiving",37.9404,-121.9301
Wesley,Vega,M,M,37,"Marathons, Field hockey",41.3298,-96.4292
Zachary,Rios,M,B,23,"Water polo, Yoga, Volleyball, Meditation",40.0673,-80.7473
Stephanie,Silva,F,B,33,"Theater, Darts, Filmography",45.4462,-119.6879
Dawn,Phillips,F,B,33,"Pool, Data analysis, Volleyball, Self defense",37.7031,-85.8773
George,Higgins,M,F,18,Puzzle solving,32.2822,-111.0773
Stephen,Oliver,M,F,33,"Rock climbing, Travel, Video editing",37.8382,-122.2932
Erica,Graham,F,F,31,"Triathlons, Bouldering",47.7479,-117.4199
Walter,Maxwell,M,F,33,"Rappelling, Skydiving, Bowling",27.2796,-80.3884
Ryan,Gonzales,M,F,21,Painting,40.2924,-80.2055
Wesley,Simon,M,B,37,"Floristry, Cooking, Pottery",42.3225,-96.4912
Carla,Maldonado,F,M,36,"Puzzle solving, Singing",39.39,-74.5169
David,Ibarra,M,B,35,"Bar tending, Woodworking",40.0848,-91.8136
Krista,Travis,F,B,35,"Travel, Mixology, Watercolor, Jujitsu",42.2889,-93.796
Eric,Miller,M,M,21,"Wine tasting, Nature Photography",30.5044,-89.1348
John,Walter,M,B,29,"Sketching, Windsurfing",21.4936,-158.0617
Robert,Alexander,M,M,18,"Wrestling, Public relations, Fishing",34.6974,-76.8205
Samantha,Sanchez,F,F,37,"Rugby, Salsa",27.9981,-82.2735
Aaron,Robertson,M,B,38,"Escape rooms, Hunting, Advertising, Wine tasting",37.9299,-75.662
Amanda,Tucker,F,F,21,Marathons,44.867,-89.209
Kelly,Silva,F,M,24,Mathematics,46.0966,-88.6396
Gregory,Moore,M,B,22,"Meditation, Jogging, Investment banking",27.1331,-80.8868
Jeffrey,Pierce,M,F,32,"Choreography, Polo, Nature Photography, Sewing",37.1148,-93.0742
Charlotte,Mccarthy,F,F,25,"Interests, Gymnastics, Investment banking",35.4375,-93.6647
Kathleen,Charles,F,F,30,Cycling,36.3536,-84.5839
Karl,Morgan,M,F,31,"Card games, Teaching, Journalism, Glassblowing",29.4548,-95.0589
Kelly,Hendrix,F,B,21,"Orienteering, Skiing, Basketball, Baseball",34.8102,-79.546
Steven,Mathis,M,B,29,Orienteering,33.5003,-90.3256
Mary,Burton,F,B,37,"Improv, Tennis",37.8853,-112.7707
Timothy,Gomez,M,M,23,Badminton,38.9092,-91.4529
Matthew,Collins,M,B,20,"Bouldering, Carpentry",43.8513,-85.4419
Bryan,Saunders,M,M,37,"Interior design, Escape rooms",36.8479,-88.3602
Kaylee,Lewis,F,F,21,"Mathematics, Choreography, Teaching, Drawing",33.0341,-80.8428
David,Frey,M,B,29,"Equestrian, Air hockey, Nature",34.2174,-96.0797
Brittany,Fleming,F,B,32,Fitness,46.1434,-123.8041
Deanna,Morales,F,F,28,"Art, Photography, Baseball, Drawing",40.9093,-73.0486
Robin,Stein,F,B,24,"Ballroom dancing, Karate",48.0842,-123.1697
Jennifer,Taylor,F,F,20,"Investment banking, Boating, Stock trading, Karate",32.727,-82.7191
April,Johnson,F,M,18,Stand-up comedy,40.1036,-99.3657
Annette,Gibson,F,B,39,"Art history, Wrestling",40.8299,-85.2415
Jose,Gray,M,B,29,"Kayaking, Movies",26.9071,-82.3259
Daniel,Lyons,M,M,31,Dancing,40.2237,-79.6086
Jason,Snyder,M,M,25,"Salsa, Yachting, Glassblowing, Hunting",39.9996,-83.6219
John,Morales,M,B,37,"Kickboxing, Gardening, Reading, Judo",48.2639,-124.3015
Kim,Nelson,F,M,26,"Art history, DJing, Food criticism",41.1394,-96.3632
Jessica,Hernandez,F,M,18,"Fishing, Wrestling",40.5143,-74.3078
Michael,Freeman,M,M,25,"Computer programming, Martial arts",39.7671,-81.2182
John,Payne,M,F,19,"Stock trading, Sewing",44.0559,-95.1953
Emily,Alvarez,F,M,29,"Watercolor, Boxing",43.9746,-73.1052
Michael,Erickson,M,F,35,Bowling,38.5208,-88.5382
Joseph,Richard,M,F,34,"Kiteboarding, Yoga, Gymnastics, Ceramics",31.305,-94.2699
Beth,King,F,F,27,"Glassblowing, Carpentry, Water polo",40.6029,-75.3961
Jennifer,Avila,F,B,19,"Bar tending, Swimming, Gaming, Muay Thai",41.3653,-95.859
Emily,Lewis,F,M,33,"Geocaching, Guitar, Journalism, Woodworking",40.5394,-75.6347
Julie,Greer,F,M,33,"Table tennis, Gardening, Yoga, Blacksmithing",39.8663,-89.5447
Brian,Brown,M,B,36,"Photography, Rock Climbing, Sculpting, Jazz",35.5491,-108.6644
Caitlin,Baker,F,F,34,Filmmaking,39.5384,-84.5032
Jordan,Frazier,F,M,37,Filmography,35.2678,-82.4526
Lauren,Keller,F,B,29,Journalism,34.6966,-92.0938
Mark,Wilson,M,F,38,"Pool, Financial analysis, DJing, Water polo",43.0571,-76.2123
Matthew,Rodriguez,M,M,33,"Board games, Boating",36.6507,-91.6963
Stephanie,Wiley,F,M,27,Mobile app development,43.4128,-86.3636
Chelsea,Lutz,F,F,23,"Boxing, Music",32.8997,-92.2405
Tricia,Davenport,F,M,36,"Cycling, Orienteering",59.5744,-151.2296
Jennifer,Barrett,F,F,26,"Billiards, Writing",47.5312,-92.24
Cassandra,Perry,F,B,34,"Filmmaking, Advertising, Volleyball, Blacksmithing",38.4581,-90.2156
Stuart,Pearson,M,B,20,Gymnastics,39.7329,-77.7247
Deborah,Smith,F,F,37,"Photography, Geocaching, Gardening, Bar tending",40.6632,-94.3403
Michael,Joseph,M,F,38,Photography,33.1481,-88.1757
Tracy,Vazquez,F,M,20,"Darts, Meditation, Baking",39.2623,-81.542
Scott,Taylor,M,F,39,Muay Thai,36.0338,-105.8095
Kimberly,Anderson,F,M,37,"Nature, Marathons",30.4907,-96.467
Stacy,Miller,F,F,34,"Knitting, Cycling, Tennis",41.7348,-96.5058
Tracy,Serrano,F,B,36,"Lacrosse, Fishing",40.4887,-85.5944
Adam,Mills,M,F,32,"Windsurfing, Darts, Acting",40.6048,-78.7071
Jennifer,Larson,F,B,24,"Orienteering, Paragliding",47.6492,-122.2191
Maria,Davis,F,F,37,"Knitting, Yoga, Skateboarding, Air hockey",41.2856,-96.285
Hector,Mclean,M,M,23,"Data analysis, Bouldering, Surfing, Food criticism",36.41,-85.4421
Katherine,Chavez,F,B,31,"Video games, Ceramics, Biking, Art",42.8249,-99.7475
Michael,Stafford,M,F,25,Hiking,41.3005,-106.1355
Christopher,Hanson,M,M,21,"Rock climbing, Mobile app development, Theater",35.4329,-108.3358
Fred,Wilson,M,F,27,"Calligraphy, Salsa",42.2361,-73.8822
Ryan,Daniel,M,F,35,"Bouldering, Billiards",41.1974,-73.2895
Lisa,Montgomery,F,F,27,"Financial analysis, Painting, Windsurfing",38.3553,-87.5784
Richard,Anderson,M,F,32,"Horseback riding, Pottery",35.5069,-98.9706
Jennifer,Melendez,F,B,18,"Fishing, Mobile app development",36.6691,-88.5276
Kristen,Gillespie,F,B,35,"Baking, Squash, Windsurfing, Watercolor",39.9832,-81.46
Maureen,Lester,F,B,19,Treasure hunting,35.3576,-103.4426
John,Grimes,M,F,31,"Hiking, Astronomy, Bouldering, Mathematics",34.9944,-85.3516
Marie,Hester,F,B,33,Puzzle solving,33.9663,-118.155
Andrew,Jackson,M,B,27,Guitar,33.0589,-107.2983
Robin,Howe,F,M,18,Hiking,37.8299,-84.7096
Mark,Jones,M,B,34,"Pilates, Jujitsu, Sculpting",48.2905,-112.8363
Katrina,Long,F,F,36,"Golf, Diving, Singing, Puzzle solving",31.5474,-88.0556
Robert,Kelly,M,M,27,"Stand-up comedy, Physics, Squash",35.8165,-81.4781
John,Bennett,M,F,18,"Filmmaking, Financial analysis",43.6691,-73.0405
Melanie,Sanford,F,F,25,"Cycling, DJing",34.8781,-95.4742
Jessica,Barnes,F,B,24,"Glassblowing, Food criticism, Wine tasting, Singing",28.7107,-81.1801
Mark,Barnes,M,M,20,"Marathons, Mixology, Polo",33.093,-84.3427
Jason,Brown,M,F,27,Squash,44.1758,-88.0707
Bryan,Shepherd,M,F,21,"Bouldering, Puzzle solving, Marketing",40.9184,-96.1658
Amanda,Shepherd,F,B,22,"Marathons, Water polo, Yoga, Photography",39.3507,-86.6665
Kevin,Moody,M,F,26,Road cycling,39.3074,-119.6483
